{"direction":"outbound","lineId":"1","lineName":"1","mode":"bus","stopPointSequences":[{"stopPoint":[{"icsId":"1018892","id":"490000235Z","lat":51.516728,"lon":-0.128466,"name":"New Oxford Street","parentId":"490G00018892","stationId":"490G00018892","stopLetter":"Z","topMostParentId":"490G00018892"},{"icsId":"1010131","id":"490010131WB","lat":51.517579,"lon":-0.124338,"name":"Museum Street","parentId":"490G00010131","stationId":"490G00010131","stopLetter":"E","topMostParentId":"490G00010131"},{"icsId":"1000350","id":"490000112M","lat":51.516741,"lon":-0.11976,"name":"Kingsway / Holborn Station","parentId":"490G00000350","stationId":"490G00000350","stopLetter":"M","topMostParentId":"490G00000350"},{"icsId":"1019704","id":"490019704K","lat":51.513339,"lon":-0.116211,"name":"Aldwych / The Royal Courts Of Justice","parentId":"490G00019704","stationId":"490G00019704","stopLetter":"K","topMostParentId":"490G00019704"},{"icsId":"1003193","id":"490003193S","lat":51.51186,"lon":-0.11705,"name":"Aldwych / Somerset House","parentId":"490G000386","stationId":"490G000386","stopLetter":"S","topMostParentId":"490G000386"},{"icsId":"1014271","id":"490014271N","lat":51.507076,"lon":-0.115403,"name":"Waterloo Bridge / South Bank","parentId":"490G000819","stationId":"490G000819","stopLetter":"N","topMostParentId":"HUBWAT"},{"icsId":"1003705","id":"490000254E","lat":51.503514,"lon":-0.111414,"name":"Waterloo Station   / Waterloo Road","parentId":"490G000401","stationId":"490G000401","stopLetter":"E","topMostParentId":"HUBWAT"},{"icsId":"1013485","id":"490013485S1","lat":51.50134,"lon":-0.108752,"name":"The Old Vic","parentId":"490G00013485","stationId":"490G00013485","stopLetter":"S","topMostParentId":"490G00013485"},{"icsId":"1012693","id":"490012693S2","lat":51.499338,"lon":-0.106198,"name":"St George's Circus","parentId":"490G00012693","stationId":"490G00012693","stopLetter":"T","topMostParentId":"490G00012693"},{"icsId":"1009281","id":"490009281E","lat":51.496103,"lon":-0.101333,"name":"Elephant & Castle / London Road","parentId":"490G000642","stationId":"490G000642","stopLetter":"E","topMostParentId":"490G000642"},{"icsId":"1009298","id":"490000073K","lat":51.495078,"lon":-0.099071,"name":"Elephant & Castle / New Kent Road","parentId":"490G000645","stationId":"490G000645","stopLetter":"K","topMostParentId":"HUBEPH"},{"icsId":"1011632","id":"490011632BA","lat":51.49422,"lon":-0.094439,"name":"Rodney Place","parentId":"490G00011632","stationId":"490G00011632","stopLetter":"BA","topMostParentId":"490G00011632"},{"icsId":"1003658","id":"490003658BC","lat":51.494416,"lon":-0.087689,"name":"Bricklayer's Arms / New Kent Road","parentId":"490G00003658","stationId":"490G00003658","stopLetter":"BC","topMostParentId":"490G00003658"},{"icsId":"1019012","id":"490004315BH","lat":51.495633,"lon":-0.08346,"name":"Bricklayer's Arms / Tower Bridge Road","parentId":"490G00019012","stationId":"490G00019012","stopLetter":"BH","topMostParentId":"490G00019012"},{"icsId":"1007533","id":"490007533E","lat":51.496441,"lon":-0.08066,"name":"Griggs Place","parentId":"490G00007533","stationId":"490G00007533","stopLetter":"N","topMostParentId":"490G00007533"},{"icsId":"1006792","id":"490006792E","lat":51.495682,"lon":-0.078243,"name":"Fendall Street","parentId":"490G00006792","stationId":"490G00006792","stopLetter":"P","topMostParentId":"490G00006792"},{"icsId":"1012367","id":"490012367E","lat":51.494821,"lon":-0.07619,"name":"Spa Road","parentId":"490G00012367","stationId":"490G00012367","stopLetter":"Q","topMostParentId":"490G00012367"},{"icsId":"1003275","id":"490003275E","lat":51.493685,"lon":-0.074365,"name":"Alscot Road","parentId":"490G00003275","stationId":"490G00003275","stopLetter":"R","topMostParentId":"490G00003275"},{"icsId":"1003533","id":"490003533E","lat":51.492805,"lon":-0.071118,"name":"Harris Academy","parentId":"490G00003533","stationId":"490G00003533","topMostParentId":"490G00003533"},{"icsId":"1012353","id":"490012353E","lat":51.492373,"lon":-0.065662,"name":"Southwark Park Road / St James's Road","parentId":"490G00012353","stationId":"490G00012353","stopLetter":"PA","topMostParentId":"490G00012353"},{"icsId":"1003311","id":"490003311E","lat":51.492168,"lon":-0.061392,"name":"Anchor Street","parentId":"490G00003311","stationId":"490G00003311","stopLetter":"PB","topMostParentId":"490G00003311"},{"icsId":"1009482","id":"490009482S","lat":51.490569,"lon":-0.059904,"name":"Lynton Road","parentId":"490G00009482","stationId":"490G00009482","stopLetter":"GS","topMostParentId":"490G00009482"},{"icsId":"1007086","id":"490007086B","lat":51.489054,"lon":-0.058024,"name":"Galleywall Road / South Bermondsey Stn","parentId":"490G000529","stationId":"490G000529","stopLetter":"GT","topMostParentId":"490G000529"},{"icsId":"1003716","id":"490003716E","lat":51.489612,"lon":-0.056401,"name":"Beamish House","parentId":"490G000403","stationId":"490G000403","stopLetter":"RL","topMostParentId":"490G000403"},{"icsId":"1005603","id":"490005603E","lat":51.490943,"lon":-0.053175,"name":"Corbetts Lane","parentId":"490G00005603","stationId":"490G00005603","stopLetter":"RM","topMostParentId":"490G00005603"},{"icsId":"1011722","id":"490014228E","lat":51.491124,"lon":-0.050531,"name":"Warndon Street","parentId":"490G00011722","stationId":"490G00011722","stopLetter":"RN","topMostParentId":"490G00011722"},{"icsId":"1000229","id":"490000229O","lat":51.492711,"lon":-0.048101,"name":"Surrey Quays Station","parentId":"490G00229O","stationId":"490G00229O","stopLetter":"S","topMostParentId":"910GSURREYQ"},{"icsId":"1011723","id":"490011723P","lat":51.495359,"lon":-0.05159,"name":"Rotherhithe Police Station","parentId":"490G00011723","stationId":"490G00011723","stopLetter":"P","topMostParentId":"490G00011723"},{"icsId":"1004733","id":"490004733D","lat":51.498147,"lon":-0.049944,"name":"Canada Water Bus Station","parentId":"490G000438","stationId":"490G000438","stopLetter":"D","topMostParentId":"HUBZCW"}]}]}