{"direction":"outbound","lineId":"100","lineName":"100","mode":"bus","stopPointSequences":[{"stopPoint":[{"icsId":"1019929","id":"490008743N","lat":51.516554,"lon":-0.098638,"name":"King Edward Street / St Pauls Station","parentId":"490G00019929","stationId":"490G00019929","topMostParentId":"490G00019929"},{"icsId":"1008743","id":"49008743N1","lat":51.517615,"lon":-0.098075,"name":"Little Britain","parentId":"490G00008743","stationId":"490G00008743","stopLetter":"SV","topMostParentId":"490G00008743"},{"icsId":"1010130","id":"490010130E","lat":51.517577,"lon":-0.095194,"name":"London Wall / Museum Of London","parentId":"490G00010130","stationId":"490G00010130","stopLetter":"BE","topMostParentId":"490G00010130"},{"icsId":"1000149","id":"490015208A","lat":51.517597,"lon":-0.089788,"name":"Moorgate Station","parentId":"490G00149M","stationId":"490G00149M","stopLetter":"A","topMostParentId":"HUBZMG","zone":"1"},{"icsId":"1003172","id":"490003172A","lat":51.516688,"lon":-0.084781,"name":"All Hallows Church","parentId":"490G00003172","stationId":"490G00003172","stopLetter":"U","topMostParentId":"490G00003172"},{"icsId":"1004043","id":"490004043P","lat":51.516205,"lon":-0.082178,"name":"Wormwood Street","parentId":"490G00004043","stationId":"490G00004043","stopLetter":"P","topMostParentId":"490G00004043"},{"icsId":"1019038","id":"490000003B","lat":51.514956,"lon":-0.07514,"name":"St Botolph Street","parentId":"490G00019038","stationId":"490G00019038","stopLetter":"B","topMostParentId":"490G00019038"},{"icsId":"1000003","id":"490000003R","lat":51.514081,"lon":-0.074932,"name":"Aldgate Station","parentId":"490G00003N","stationId":"490G00003N","stopLetter":"R","topMostParentId":"940GZZLUALD","zone":"1"},{"icsId":"1005818","id":"490005818K","lat":51.512751,"lon":-0.075564,"name":"Minories","parentId":"490G000477","stationId":"490G000477","stopLetter":"H","topMostParentId":"490G000477"},{"icsId":"1015074","id":"490015074Z","lat":51.509824,"lon":-0.073065,"name":"Tower Hill / Tower Gateway Station","parentId":"490G000857","stationId":"490G000857","stopLetter":"TE","topMostParentId":"490G000857"},{"icsId":"1014944","id":"490014944E","lat":51.508443,"lon":-0.071682,"name":"St Katharine Docks","parentId":"490G00014944","stationId":"490G00014944","stopLetter":"TS","topMostParentId":"490G00014944"},{"icsId":"1014016","id":"490014016S","lat":51.508614,"lon":-0.067294,"name":"The Highway","parentId":"490G00014016","stationId":"490G00014016","stopLetter":"->S","topMostParentId":"490G00014016"},{"icsId":"1010178","id":"490010178S","lat":51.506901,"lon":-0.066487,"name":"Nesham Street","parentId":"490G00010178","stationId":"490G00010178","stopLetter":"O","topMostParentId":"490G00010178"},{"icsId":"1008089","id":"490008089E","lat":51.505221,"lon":-0.064973,"name":"Hermitage Wall","parentId":"490G00008089","stationId":"490G00008089","stopLetter":"A","topMostParentId":"490G00008089"},{"icsId":"1014210","id":"490014210E","lat":51.503913,"lon":-0.06366,"name":"Sampson Street","parentId":"490G00014210","stationId":"490G00014210","stopLetter":"B","topMostParentId":"490G00014210"},{"icsId":"1006246","id":"490006246E","lat":51.503368,"lon":-0.060614,"name":"Dundee Street","parentId":"490G00006246","stationId":"490G00006246","stopLetter":"C","topMostParentId":"490G00006246"},{"icsId":"1000251","id":"490014208E","lat":51.504059,"lon":-0.056723,"name":"Wapping Station","parentId":"490G00251W","stationId":"490G00251W","stopLetter":"D","topMostParentId":"910GWAPPING"},{"icsId":"1014209","id":"490014209N","lat":51.505809,"lon":-0.05868,"name":"Wapping Health Centre","parentId":"490G00014209","stationId":"490G00014209","stopLetter":"H","topMostParentId":"490G00014209"},{"icsId":"1013687","id":"490013687K","lat":51.509338,"lon":-0.058862,"name":"Tobacco Dock","parentId":"490G000801","stationId":"490G000801","stopLetter":"K","topMostParentId":"490G000801"},{"icsId":"1012457","id":"490012457E","lat":51.509757,"lon":-0.052676,"name":"St Paul's Church","parentId":"490G00012457","stationId":"490G00012457","topMostParentId":"490G00012457"},{"icsId":"1007207","id":"490007207N","lat":51.510215,"lon":-0.050509,"name":"Glamis Place","parentId":"490G00007207","stationId":"490G00007207","topMostParentId":"490G00007207"},{"icsId":"1008734","id":"490008734W","lat":51.510686,"lon":-0.052838,"name":"King David Lane","parentId":"490G00008734","stationId":"490G00008734","topMostParentId":"490G00008734"},{"icsId":"1000202","id":"490000202A","lat":51.510973,"lon":-0.055535,"name":"Shadwell Station","parentId":"490G00202A","stationId":"490G00202A","stopLetter":"A","topMostParentId":"HUBSDE","zone":"2"},{"icsId":"1012020","id":"490012020A","lat":51.511041,"lon":-0.058559,"name":"St George's Town Hall / Shadwell Stn","parentId":"490G000740","stationId":"490G000740","topMostParentId":"490G000740"}]}]}