{"direction":"outbound","lineId":"103","lineName":"103","mode":"bus","stopPointSequences":[{"stopPoint":[{"icsId":"1005032","id":"490005032E","lat":51.603914,"lon":0.179246,"name":"Chase Cross","parentId":"490G00005032","stationId":"490G00005032","stopLetter":"CE","topMostParentId":"490G00005032"},{"icsId":"1004726","id":"490004726S","lat":51.602438,"lon":0.180273,"name":"Campbell Close","parentId":"490G00004726","stationId":"490G00004726","stopLetter":"CP","topMostParentId":"490G00004726"},{"icsId":"1007128","id":"490007128S","lat":51.601045,"lon":0.179282,"name":"Garry Way","parentId":"490G00007128","stationId":"490G00007128","stopLetter":"CQ","topMostParentId":"490G00007128"},{"icsId":"1010016","id":"490010016S","lat":51.598907,"lon":0.176696,"name":"Moray Way","parentId":"490G00010016","stationId":"490G00010016","stopLetter":"CR","topMostParentId":"490G00010016"},{"icsId":"1009715","id":"490009715S","lat":51.596261,"lon":0.175356,"name":"Mashiters Hill","parentId":"490G00009715","stationId":"490G00009715","stopLetter":"CS","topMostParentId":"490G00009715"},{"icsId":"1007988","id":"490007988E","lat":51.595261,"lon":0.178398,"name":"Heather Close","parentId":"490G00007988","stationId":"490G00007988","stopLetter":"CT","topMostParentId":"490G00007988"},{"icsId":"1007989","id":"490007989S","lat":51.59325,"lon":0.181132,"name":"Heather Gardens","parentId":"490G00007989","stationId":"490G00007989","stopLetter":"->S","topMostParentId":"490G00007989"},{"icsId":"1010973","id":"490010973W","lat":51.591672,"lon":0.180825,"name":"Pettits Lane","parentId":"490G00010973","stationId":"490G00010973","stopLetter":"->W","topMostParentId":"490G00010973"},{"icsId":"1003445","id":"490003445W","lat":51.589603,"lon":0.177493,"name":"Ashmour Gardens","parentId":"490G00003445","stationId":"490G00003445","stopLetter":"NL","topMostParentId":"490G00003445"},{"icsId":"1007918","id":"490007918W","lat":51.586861,"lon":0.173594,"name":"North Street","parentId":"490G00007918","stationId":"490G00007918","stopLetter":"NM","topMostParentId":"490G00007918"},{"icsId":"1011658","id":"490011658S","lat":51.583717,"lon":0.174829,"name":"Romford Bus Garage","parentId":"490G00011658","stationId":"490G00011658","stopLetter":"NS","topMostParentId":"490G00011658"},{"icsId":"1004467","id":"490013240S","lat":51.581865,"lon":0.176776,"name":"The Avenue","parentId":"490G00004467","stationId":"490G00004467","stopLetter":"J","topMostParentId":"490G00004467"},{"icsId":"1011659","id":"490011659E","lat":51.580704,"lon":0.182133,"name":"Romford Market","parentId":"490G00011659","stationId":"490G00011659","stopLetter":"E","topMostParentId":"490G00011659"},{"icsId":"1009810","id":"490009810K","lat":51.57911,"lon":0.185131,"name":"Mercury Gardens","parentId":"490G00009810","stationId":"490G00009810","stopLetter":"K","topMostParentId":"490G00009810"},{"icsId":"1014452","id":"490014452Q","lat":51.577133,"lon":0.184084,"name":"Western Road","parentId":"490G00014452","stationId":"490G00014452","stopLetter":"Q","topMostParentId":"490G00014452"},{"icsId":"1001243","id":"490001243T","lat":51.574405,"lon":0.183794,"name":"Romford Station","parentId":"490G01243W","stationId":"490G01243W","stopLetter":"T","topMostParentId":"910GROMFORD"},{"icsId":"1011667","id":"490011667HD","lat":51.571378,"lon":0.182163,"name":"Rom Valley Way","parentId":"490G00011667","stationId":"490G00011667","stopLetter":"HD","topMostParentId":"490G00011667"},{"icsId":"1015408","id":"490015408E1","lat":51.570358,"lon":0.177511,"name":"Oldchurch Rise","parentId":"490G00015408","stationId":"490G00015408","stopLetter":"HC","topMostParentId":"490G00015408"},{"icsId":"1005834","id":"490005834S","lat":51.568821,"lon":0.175518,"name":"Crow Lane","parentId":"490G00005834","stationId":"490G00005834","stopLetter":"G","topMostParentId":"490G00005834"},{"icsId":"1011798","id":"490011798S2","lat":51.566161,"lon":0.176415,"name":"Norwood Avenue","parentId":"490G00011798","stationId":"490G00011798","stopLetter":"H","topMostParentId":"490G00011798"},{"icsId":"1000349","id":"490005927W","lat":51.565368,"lon":0.175021,"name":"Rush Green Road / Dagenham Road","parentId":"490G00000349","stationId":"490G00000349","stopLetter":"J","topMostParentId":"490G00000349"},{"icsId":"1009090","id":"490009090W","lat":51.564675,"lon":0.169707,"name":"Leonard Avenue","parentId":"490G00009090","stationId":"490G00009090","stopLetter":"K","topMostParentId":"490G00009090"},{"icsId":"1005381","id":"490005381W","lat":51.563716,"lon":0.16565,"name":"Clayton Road","parentId":"490G00005381","stationId":"490G00005381","stopLetter":"L","topMostParentId":"490G00005381"},{"icsId":"1003660","id":"490003660W","lat":51.563195,"lon":0.162235,"name":"Barton Avenue","parentId":"490G00003660","stationId":"490G00003660","stopLetter":"M","topMostParentId":"490G00003660"},{"icsId":"1005923","id":"490005923P","lat":51.562043,"lon":0.156395,"name":"Cu London University / Wood Lane","parentId":"490G00005923","stationId":"490G00005923","stopLetter":"P","topMostParentId":"490G00005923"},{"icsId":"1007042","id":"490007042M","lat":51.560335,"lon":0.1549,"name":"Cu London University / Rainham Rd North","parentId":"490G00007042","stationId":"490G00007042","stopLetter":"M","topMostParentId":"490G00007042"},{"icsId":"1004570","id":"490004570S","lat":51.557938,"lon":0.15861,"name":"Bull Lane","parentId":"490G00004570","stationId":"490G00004570","stopLetter":"->S","topMostParentId":"490G00004570"},{"icsId":"1003410","id":"490004929S","lat":51.554947,"lon":0.159853,"name":"Woodshire Road","parentId":"490G00003410","stationId":"490G00003410","stopLetter":"->S","topMostParentId":"490G00003410"},{"icsId":"1010716","id":"490010704S","lat":51.550309,"lon":0.161667,"name":"Rainham Road South / Dagenham Road","parentId":"490G00010716","stationId":"490G00010716","topMostParentId":"490G00010716"},{"icsId":"1014063","id":"490014063S","lat":51.548109,"lon":0.163481,"name":"Victoria Road","parentId":"490G00014063","stationId":"490G00014063","stopLetter":"A","topMostParentId":"490G00014063"},{"icsId":"1011497","id":"490011497S","lat":51.546236,"lon":0.165065,"name":"Reede Road","parentId":"490G000721","stationId":"490G000721","stopLetter":"B","topMostParentId":"490G000721"},{"icsId":"1000058","id":"490000058B","lat":51.544498,"lon":0.16618,"name":"Dagenham East Station","parentId":"490G00058B","stationId":"490G00058B","stopLetter":"C","topMostParentId":"940GZZLUDGE","zone":"5"},{"icsId":"1009581","id":"490009581S","lat":51.541002,"lon":0.165538,"name":"Aldborough Road","parentId":"490G00009581","stationId":"490G00009581","stopLetter":"D","topMostParentId":"490G00009581"},{"icsId":"1003566","id":"490003566E","lat":51.538399,"lon":0.167246,"name":"Ballards Road","parentId":"490G00003566","stationId":"490G00003566","stopLetter":"E","topMostParentId":"490G00003566"},{"icsId":"1004739","id":"490009126E","lat":51.537439,"lon":0.170027,"name":"Leys Avenue","parentId":"490G00004739","stationId":"490G00004739","stopLetter":"F","topMostParentId":"490G00004739"},{"icsId":"1015012","id":"490015012E","lat":51.536467,"lon":0.174422,"name":"York Road","parentId":"490G00015012","stationId":"490G00015012","stopLetter":"A","topMostParentId":"490G00015012"},{"icsId":"1013640","id":"490013640E","lat":51.534921,"lon":0.178789,"name":"Thorogood Way","parentId":"490G00013640","stationId":"490G00013640","stopLetter":"B","topMostParentId":"490G00013640"},{"icsId":"1007074","id":"490007074E","lat":51.532344,"lon":0.184823,"name":"Fyfield Road","parentId":"490G00007074","stationId":"490G00007074","stopLetter":"C","topMostParentId":"490G00007074"},{"icsId":"1010169","id":"490010169E","lat":51.530444,"lon":0.187846,"name":"South Hornchurch Library","parentId":"490G00010169","stationId":"490G00010169","stopLetter":"D","topMostParentId":"490G00010169"},{"icsId":"1005098","id":"490005098E","lat":51.528664,"lon":0.190255,"name":"Cherry Tree Lane","parentId":"490G00005098","stationId":"490G00005098","stopLetter":"E","topMostParentId":"490G00005098"},{"icsId":"1003339","id":"490003339S","lat":51.52588,"lon":0.192471,"name":"Knightswood Road","parentId":"490G00003339","stationId":"490G00003339","stopLetter":"->S","topMostParentId":"490G00003339"},{"icsId":"1006152","id":"490006153K","lat":51.522759,"lon":0.191024,"name":"Dovers Corner","parentId":"490G00006152","stationId":"490G00006152","stopLetter":"K","topMostParentId":"490G00006152"},{"icsId":"1011396","id":"490011396D","lat":51.518795,"lon":0.189955,"name":"Rainham War Memorial","parentId":"490G00011396","stationId":"490G00011396","stopLetter":"D","topMostParentId":"490G00011396"},{"icsId":"1001235","id":"490001235W","lat":51.517023,"lon":0.190936,"name":"Rainham Station","parentId":"490G01235A","stationId":"490G01235A","stopLetter":"M","topMostParentId":"910GRNHAME"}]}]}