{"direction":"outbound","lineId":"125","lineName":"125","mode":"bus","stopPointSequences":[{"stopPoint":[{"icsId":"1012612","id":"490012612A","lat":51.632096,"lon":-0.094648,"name":"Station Road","parentId":"490G000763","stationId":"490G000763","stopLetter":"K","topMostParentId":"490G000763"},{"icsId":"1006513","id":"490012135N","lat":51.634686,"lon":-0.094106,"name":"Shrubbery Gardens","parentId":"490G00006513","stationId":"490G00006513","stopLetter":"S","topMostParentId":"490G00006513"},{"icsId":"1007438","id":"490007438S2","lat":51.636178,"lon":-0.091269,"name":"Green Dragon Lane","parentId":"490G00007438","stationId":"490G00007438","stopLetter":"T","topMostParentId":"490G00007438"},{"icsId":"1010575","id":"490010575S","lat":51.638895,"lon":-0.094696,"name":"Old Park Ridings","parentId":"490G00010575","stationId":"490G00010575","stopLetter":"X","topMostParentId":"490G00010575"},{"icsId":"1007635","id":"490007635C","lat":51.640353,"lon":-0.099722,"name":"Hadley Way","parentId":"490G00007635","stationId":"490G00007635","stopLetter":"C","topMostParentId":"490G00007635"},{"icsId":"1003702","id":"490003702W","lat":51.641748,"lon":-0.103696,"name":"Bazile Road","parentId":"490G00003702","stationId":"490G00003702","stopLetter":"->W","topMostParentId":"490G00003702"},{"icsId":"1008170","id":"490008170W","lat":51.64319,"lon":-0.108362,"name":"Eversley Park Road","parentId":"490G00008170","stationId":"490G00008170","stopLetter":"->W","topMostParentId":"490G00008170"},{"icsId":"1005042","id":"490005042S","lat":51.642916,"lon":-0.110917,"name":"Chaseville Park Road","parentId":"490G00005042","stationId":"490G00005042","topMostParentId":"490G00005042"},{"icsId":"1006672","id":"490006672S","lat":51.640883,"lon":-0.111392,"name":"Eversley Mount","parentId":"490G00006672","stationId":"490G00006672","stopLetter":"->S","topMostParentId":"490G00006672"},{"icsId":"1005265","id":"490005265W","lat":51.637996,"lon":-0.111931,"name":"Church Hill","parentId":"490G00005265","stationId":"490G00005265","topMostParentId":"490G00005265"},{"icsId":"1010769","id":"490010769W","lat":51.636744,"lon":-0.116289,"name":"Park Gate","parentId":"490G00010769","stationId":"490G00010769","stopLetter":"->W","topMostParentId":"490G00010769"},{"icsId":"1011310","id":"490011310W","lat":51.635889,"lon":-0.119085,"name":"Queen Elizabeth's Drive","parentId":"490G00011310","stationId":"490G00011310","stopLetter":"P","topMostParentId":"490G00011310"},{"icsId":"1012955","id":"490012955W","lat":51.634137,"lon":-0.123102,"name":"St Thomas Road","parentId":"490G00012955","stationId":"490G00012955","stopLetter":"R","topMostParentId":"490G00012955"},{"icsId":"1000210","id":"490000210G","lat":51.632393,"lon":-0.128188,"name":"Southgate Station","parentId":"490G00210G","stationId":"490G00210G","stopLetter":"G","topMostParentId":"940GZZLUSGT","zone":"4"},{"icsId":"1012300","id":"490012300M","lat":51.633326,"lon":-0.131459,"name":"Southgate Police Station","parentId":"490G00012300","stationId":"490G00012300","stopLetter":"M","topMostParentId":"490G00012300"},{"icsId":"1012298","id":"490012298N","lat":51.634101,"lon":-0.133783,"name":"Southgate Asda","parentId":"490G00012298","stationId":"490G00012298","stopLetter":"N","topMostParentId":"490G00012298"},{"icsId":"1005040","id":"490005040N","lat":51.636195,"lon":-0.137714,"name":"Avenue Road","parentId":"490G00005040","stationId":"490G00005040","stopLetter":"S","topMostParentId":"490G00005040"},{"icsId":"1005039","id":"490005039S","lat":51.636032,"lon":-0.138732,"name":"Chase Side","parentId":"490G00005039","stationId":"490G00005039","stopLetter":"E","topMostParentId":"490G00005039"},{"icsId":"1007716","id":"490007715S","lat":51.632214,"lon":-0.142949,"name":"Hampden Way","parentId":"490G00007716","stationId":"490G00007716","stopLetter":"F","topMostParentId":"490G00007716"},{"icsId":"1010651","id":"490010651W","lat":51.630817,"lon":-0.148482,"name":"Osidge Library","parentId":"490G00010651","stationId":"490G00010651","stopLetter":"J","topMostParentId":"490G00010651"},{"icsId":"1006033","id":"490006033N","lat":51.630982,"lon":-0.153215,"name":"Dene Road","parentId":"490G00006033","stationId":"490G00006033","stopLetter":"K","topMostParentId":"490G00006033"},{"icsId":"1013289","id":"490013289W","lat":51.629281,"lon":-0.158254,"name":"Beresford Avenue","parentId":"490G00013289","stationId":"490G00013289","stopLetter":"BP","topMostParentId":"490G00013289"},{"icsId":"1011085","id":"490011085S","lat":51.627905,"lon":-0.161142,"name":"Pollard Road","parentId":"490G11085R","stationId":"490G11085R","stopLetter":"BR","topMostParentId":"490G11085R"},{"icsId":"1010140","id":"490010140W","lat":51.629084,"lon":-0.165241,"name":"Myddelton Park","parentId":"490G00010140","stationId":"490G00010140","stopLetter":"BQ","topMostParentId":"490G00010140"},{"icsId":"1010496","id":"490010496W","lat":51.630025,"lon":-0.170202,"name":"Oakleigh Park North","parentId":"490G00010496","stationId":"490G00010496","stopLetter":"->W","topMostParentId":"490G00010496"},{"icsId":"1014563","id":"490014563D","lat":51.629928,"lon":-0.173819,"name":"Whetstone / The Griffin","parentId":"490G00014563","stationId":"490G00014563","stopLetter":"D","topMostParentId":"490G00014563"},{"icsId":"1007028","id":"490007028S","lat":51.628733,"lon":-0.174459,"name":"Whetstone High Road / Friern Barnet Lane","parentId":"490G00007028","stationId":"490G00007028","stopLetter":"E","topMostParentId":"490G00007028"},{"icsId":"1013104","id":"490007027S","lat":51.626696,"lon":-0.175306,"name":"Swan Lane","parentId":"490G00013104","stationId":"490G00013104","stopLetter":"H","topMostParentId":"490G00013104"},{"icsId":"1006060","id":"490006060S","lat":51.623844,"lon":-0.17636,"name":"Derwent Crescent","parentId":"490G00006060","stationId":"490G00006060","stopLetter":"J","topMostParentId":"490G00006060"},{"icsId":"1013099","id":"490013099S","lat":51.62025,"lon":-0.176519,"name":"Finchley Park","parentId":"490G00013099","stationId":"490G00013099","stopLetter":"K","topMostParentId":"490G00013099"},{"icsId":"1011442","id":"490011442A","lat":51.618032,"lon":-0.176723,"name":"Ravensdale Avenue","parentId":"490G00011442","stationId":"490G00011442","stopLetter":"A","topMostParentId":"490G00011442"},{"icsId":"1013149","id":"490015443D","lat":51.614799,"lon":-0.176463,"name":"Tally Ho Corner","parentId":"490G00013149","stationId":"490G00013149","stopLetter":"D","topMostParentId":"490G00013149"},{"icsId":"1015443","id":"490015443P","lat":51.61263,"lon":-0.176882,"name":"North Finchley Bus Station","parentId":"490G00015443","stationId":"490G00015443","stopLetter":"P","topMostParentId":"490G00015443"},{"icsId":"1015271","id":"490015271S","lat":51.609994,"lon":-0.180887,"name":"Christchurch Avenue","parentId":"490G00015271","stationId":"490G00015271","stopLetter":"Q","topMostParentId":"490G00015271"},{"icsId":"1007373","id":"490007373F4","lat":51.609034,"lon":-0.182196,"name":"Granville Road","parentId":"490G00007373","stationId":"490G00007373","stopLetter":"LL","topMostParentId":"490G00007373"},{"icsId":"1006642","id":"490006642S","lat":51.606778,"lon":-0.185723,"name":"Victoria Park","parentId":"490G000508","stationId":"490G000508","stopLetter":"MM","topMostParentId":"490G000508"},{"icsId":"1009322","id":"490009322B","lat":51.604138,"lon":-0.189468,"name":"Long Lane","parentId":"490G00009322","stationId":"490G00009322","stopLetter":"B","topMostParentId":"490G00009322"},{"icsId":"1000081","id":"490000081D","lat":51.602167,"lon":-0.192246,"name":"Finchley Central Station","parentId":"490G00081W","stationId":"490G00081W","stopLetter":"D","topMostParentId":"940GZZLUFYC","zone":"4"},{"icsId":"1008054","id":"490008054H","lat":51.599461,"lon":-0.195848,"name":"Hendon Lane","parentId":"490G00008054","stationId":"490G00008054","stopLetter":"H","topMostParentId":"490G00008054"},{"icsId":"1006337","id":"490006337S","lat":51.597911,"lon":-0.197339,"name":"East End Road","parentId":"490G00006337","stationId":"490G00006337","stopLetter":"S","topMostParentId":"490G00006337"},{"icsId":"1007385","id":"490007385N","lat":51.597653,"lon":-0.198706,"name":"Gravel Hill","parentId":"490G00007385","stationId":"490G00007385","stopLetter":"L","topMostParentId":"490G00007385"},{"icsId":"1015459","id":"490015459G","lat":51.599576,"lon":-0.197432,"name":"St Mary's Church","parentId":"490G00015459","stationId":"490G00015459","stopLetter":"G","topMostParentId":"490G00015459"}]}]}