{"direction":"outbound","lineId":"128","lineName":"128","mode":"bus","stopPointSequences":[{"stopPoint":[{"icsId":"1001243","id":"490001243ZA","lat":51.574655,"lon":0.183431,"name":"Romford Station","parentId":"490G01243W","stationId":"490G01243W","stopLetter":"Z","topMostParentId":"910GROMFORD"},{"icsId":"1014452","id":"490014452E","lat":51.57738,"lon":0.184356,"name":"Western Road","parentId":"490G00014452","stationId":"490G00014452","stopLetter":"PP","topMostParentId":"490G00014452"},{"icsId":"1011659","id":"490011659L","lat":51.58037,"lon":0.182695,"name":"Romford Market","parentId":"490G00011659","stationId":"490G00011659","stopLetter":"L","topMostParentId":"490G00011659"},{"icsId":"1010407","id":"490010407D","lat":51.579389,"lon":0.177885,"name":"North Street","parentId":"490G00010407","stationId":"490G00010407","stopLetter":"D","topMostParentId":"490G00010407"},{"icsId":"1009721","id":"490009721B","lat":51.577035,"lon":0.177281,"name":"Mawney Road","parentId":"490G00009721","stationId":"490G00009721","stopLetter":"B","topMostParentId":"490G00009721"},{"icsId":"1013271","id":"490013271UA","lat":51.574946,"lon":0.178394,"name":"The Brewery","parentId":"490G00013271","stationId":"490G00013271","stopLetter":"S","topMostParentId":"490G00013271"},{"icsId":"1016444","id":"490016444HL","lat":51.568498,"lon":0.181809,"name":"Queen's Hospital","parentId":"490G00016444","stationId":"490G00016444","stopLetter":"HL","topMostParentId":"490G00016444"},{"icsId":"1010443","id":"490010443W","lat":51.565637,"lon":0.181845,"name":"Norwood Avenue","parentId":"490G00010443","stationId":"490G00010443","stopLetter":"RU","topMostParentId":"490G00010443"},{"icsId":"1000349","id":"490005927W","lat":51.565368,"lon":0.175021,"name":"Rush Green Road / Dagenham Road","parentId":"490G00000349","stationId":"490G00000349","stopLetter":"J","topMostParentId":"490G00000349"},{"icsId":"1009090","id":"490009090W","lat":51.564675,"lon":0.169707,"name":"Leonard Avenue","parentId":"490G00009090","stationId":"490G00009090","stopLetter":"K","topMostParentId":"490G00009090"},{"icsId":"1005381","id":"490005381W","lat":51.563716,"lon":0.16565,"name":"Clayton Road","parentId":"490G00005381","stationId":"490G00005381","stopLetter":"L","topMostParentId":"490G00005381"},{"icsId":"1003660","id":"490003660W","lat":51.563195,"lon":0.162235,"name":"Barton Avenue","parentId":"490G00003660","stationId":"490G00003660","stopLetter":"M","topMostParentId":"490G00003660"},{"icsId":"1005923","id":"490005923P","lat":51.562043,"lon":0.156395,"name":"Cu London University / Wood Lane","parentId":"490G00005923","stationId":"490G00005923","stopLetter":"P","topMostParentId":"490G00005923"},{"icsId":"1019017","id":"490003763K","lat":51.561322,"lon":0.149608,"name":"Becontree Heath Leisure Centre","parentId":"490G00019017","stationId":"490G00019017","stopLetter":"K","topMostParentId":"490G00019017"},{"icsId":"1014550","id":"490014550A","lat":51.560966,"lon":0.145985,"name":"Whalebone Lane South","parentId":"490G00014550","stationId":"490G00014550","stopLetter":"A","topMostParentId":"490G00014550"},{"icsId":"1013456","id":"490013456W","lat":51.561193,"lon":0.14096,"name":"Winifred Road","parentId":"490G00013456","stationId":"490G00013456","stopLetter":"->W","topMostParentId":"490G00013456"},{"icsId":"1014145","id":"490014145W","lat":51.561257,"lon":0.135466,"name":"Walnut Tree Road","parentId":"490G00014145","stationId":"490G00014145","stopLetter":"N","topMostParentId":"490G00014145"},{"icsId":"1013985","id":"490013985W","lat":51.561488,"lon":0.131639,"name":"Valence Avenue","parentId":"490G00013985","stationId":"490G00013985","stopLetter":"P","topMostParentId":"490G00013985"},{"icsId":"1003900","id":"490003900W","lat":51.561639,"lon":0.126293,"name":"Greenway","parentId":"490G00003900","stationId":"490G00003900","stopLetter":"Q","topMostParentId":"490G00003900"},{"icsId":"1019746","id":"490013542W","lat":51.562109,"lon":0.123199,"name":"Burnside Road","parentId":"490G00019746","stationId":"490G00019746","stopLetter":"R","topMostParentId":"490G00019746"},{"icsId":"1009742","id":"490009742W","lat":51.563024,"lon":0.11936,"name":"Mayfield Road","parentId":"490G00009742","stationId":"490G00009742","stopLetter":"S","topMostParentId":"490G00009742"},{"icsId":"1003131","id":"490003131W","lat":51.563048,"lon":0.115004,"name":"Goodmayes Primary School","parentId":"490G00003131","stationId":"490G00003131","stopLetter":"M","topMostParentId":"490G00003131"},{"icsId":"1007291","id":"490007289H","lat":51.563076,"lon":0.11147,"name":"Goodmayes Lane","parentId":"490G00007291","stationId":"490G00007291","stopLetter":"H","topMostParentId":"490G00007291"},{"icsId":"1009475","id":"490009475W","lat":51.561916,"lon":0.103957,"name":"Lynford Gardens","parentId":"490G00009475","stationId":"490G00009475","stopLetter":"S","topMostParentId":"490G00009475"},{"icsId":"1012000","id":"490012000W","lat":51.560849,"lon":0.098772,"name":"Seven Kings Road","parentId":"490G00012000","stationId":"490G00012000","stopLetter":"C","topMostParentId":"490G00012000"},{"icsId":"1012330","id":"490012330W","lat":51.55928,"lon":0.091977,"name":"South Park Drive","parentId":"490G00012330","stationId":"490G00012330","stopLetter":"D","topMostParentId":"490G00012330"},{"icsId":"1007312","id":"490007312W","lat":51.558955,"lon":0.085989,"name":"Gordon Road","parentId":"490G00007312","stationId":"490G00007312","stopLetter":"Q","topMostParentId":"490G00007312"},{"icsId":"1008469","id":"490008469Z","lat":51.559662,"lon":0.081073,"name":"Winston Way Primary School","parentId":"490G00008469","stationId":"490G00008469","stopLetter":"Z","topMostParentId":"490G00008469"},{"icsId":"1007657","id":"490007657W","lat":51.55957,"lon":0.077173,"name":"Hainault Street","parentId":"490G00007657","stationId":"490G00007657","stopLetter":"W","topMostParentId":"490G00007657"},{"icsId":"1008466","id":"490008466Q1","lat":51.557867,"lon":0.074311,"name":"Redbridge Central Library","parentId":"490G00008466","stationId":"490G00008466","stopLetter":"Q","topMostParentId":"490G00008466"},{"icsId":"1008470","id":"490008470M","lat":51.558137,"lon":0.071741,"name":"High Road Ilford","parentId":"490G000606","stationId":"490G000606","stopLetter":"M","topMostParentId":"490G000606"},{"icsId":"1001157","id":"490001157H","lat":51.55893,"lon":0.070104,"name":"Ilford Station","parentId":"490G01157G","stationId":"490G01157G","stopLetter":"H","topMostParentId":"910GILFORD"},{"icsId":"1013966","id":"490013966J","lat":51.561905,"lon":0.06819,"name":"Beal Road","parentId":"490G00013966","stationId":"490G00013966","stopLetter":"VK","topMostParentId":"490G00013966"},{"icsId":"1013331","id":"490013331W","lat":51.564484,"lon":0.066244,"name":"Northbrook Road","parentId":"490G00013331","stationId":"490G00013331","stopLetter":"VM","topMostParentId":"490G00013331"},{"icsId":"1013988","id":"490013988N","lat":51.567676,"lon":0.065249,"name":"Valentines Park","parentId":"490G00013988","stationId":"490G00013988","stopLetter":"VP","topMostParentId":"490G00013988"},{"icsId":"1003947","id":"490003947N","lat":51.570244,"lon":0.063893,"name":"Bethell Avenue","parentId":"490G00003947","stationId":"490G00003947","stopLetter":"VR","topMostParentId":"490G00003947"},{"icsId":"1003828","id":"490003828N","lat":51.572831,"lon":0.065107,"name":"Beehive Lane","parentId":"490G00003828","stationId":"490G00003828","stopLetter":"CM","topMostParentId":"490G00003828"},{"icsId":"1015202","id":"490015202M","lat":51.575899,"lon":0.06604,"name":"Gants Hill Station / Cranbrook Road","parentId":"490G000878","stationId":"490G000878","stopLetter":"CN","topMostParentId":"490G000878"},{"icsId":"1000085","id":"490015200C","lat":51.577293,"lon":0.068066,"name":"Gants Hill Station","parentId":"490G15200C","stationId":"490G15200C","stopLetter":"CP","topMostParentId":"940GZZLUGTH","zone":"4"},{"icsId":"1012078","id":"490012078N","lat":51.578067,"lon":0.070598,"name":"Shere Road","parentId":"490G00012078","stationId":"490G00012078","stopLetter":"CQ","topMostParentId":"490G00012078"},{"icsId":"1007110","id":"490007110N","lat":51.580544,"lon":0.073424,"name":"Gantshill Crescent","parentId":"490G00007110","stationId":"490G00007110","stopLetter":"CR","topMostParentId":"490G00007110"},{"icsId":"1023101","id":"490007695N","lat":51.583176,"lon":0.076113,"name":"Beattyville Gardens","parentId":"490G00023101","stationId":"490G00023101","stopLetter":"CS","topMostParentId":"490G00023101"},{"icsId":"1000341","id":"490007060N","lat":51.585746,"lon":0.0788,"name":"Brandville Gardens","parentId":"490G00000341","stationId":"490G00000341","stopLetter":"Q","topMostParentId":"490G00000341"},{"icsId":"1007012","id":"490007012J","lat":51.589878,"lon":0.081573,"name":"Fremantle Road","parentId":"490G00007012","stationId":"490G00007012","stopLetter":"J","topMostParentId":"490G00007012"},{"icsId":"1003612","id":"490003612H","lat":51.590253,"lon":0.081229,"name":"Barkingside High Street","parentId":"490G00003612","stationId":"490G00003612","stopLetter":"H","topMostParentId":"490G00003612"},{"icsId":"1010055","id":"490010055W2","lat":51.591016,"lon":0.075186,"name":"Mossford Lane","parentId":"490G00010055","stationId":"490G00010055","topMostParentId":"490G00010055"},{"icsId":"1003715","id":"490003715W","lat":51.591144,"lon":0.071539,"name":"Beaminster Gardens","parentId":"490G00003715","stationId":"490G00003715","stopLetter":"->W","topMostParentId":"490G00003715"},{"icsId":"1003919","id":"490003919W","lat":51.591254,"lon":0.068845,"name":"Berkeley Avenue","parentId":"490G00003919","stationId":"490G00003919","stopLetter":"CQ","topMostParentId":"490G00003919"},{"icsId":"1011795","id":"490011795W","lat":51.591457,"lon":0.064479,"name":"Rushden Gardens","parentId":"490G00011795","stationId":"490G00011795","stopLetter":"CS","topMostParentId":"490G00011795"},{"icsId":"1005636","id":"490005636W","lat":51.591697,"lon":0.057488,"name":"Couchmore Avenue","parentId":"490G00005636","stationId":"490G00005636","stopLetter":"CT","topMostParentId":"490G00005636"},{"icsId":"1010887","id":"490010887W","lat":51.591817,"lon":0.054231,"name":"Peel Drive","parentId":"490G00010887","stationId":"490G00010887","stopLetter":"CU","topMostParentId":"490G00010887"},{"icsId":"1005368","id":"490005368S2","lat":51.590786,"lon":0.050402,"name":"Claybury Broadway","parentId":"490G00005368","stationId":"490G00005368","stopLetter":"CV","topMostParentId":"490G00005368"},{"icsId":"1001969","id":"490005368N","lat":51.591029,"lon":0.049907,"name":"Claybury Broadway","parentId":"490G000293","stationId":"490G000293","stopLetter":"CL","topMostParentId":"490G000293"}]}]}