{"direction":"outbound","lineId":"13","lineName":"13","mode":"bus","stopPointSequences":[{"stopPoint":[{"icsId":"1015443","id":"490015443P","lat":51.61263,"lon":-0.176882,"name":"North Finchley Bus Station","parentId":"490G00015443","stationId":"490G00015443","stopLetter":"P","topMostParentId":"490G00015443"},{"icsId":"1015271","id":"490015271S","lat":51.609994,"lon":-0.180887,"name":"Christchurch Avenue","parentId":"490G00015271","stationId":"490G00015271","stopLetter":"Q","topMostParentId":"490G00015271"},{"icsId":"1007373","id":"490007373F4","lat":51.609034,"lon":-0.182196,"name":"Granville Road","parentId":"490G00007373","stationId":"490G00007373","stopLetter":"LL","topMostParentId":"490G00007373"},{"icsId":"1006642","id":"490006642S","lat":51.606778,"lon":-0.185723,"name":"Victoria Park","parentId":"490G000508","stationId":"490G000508","stopLetter":"MM","topMostParentId":"490G000508"},{"icsId":"1009322","id":"490009322B","lat":51.604138,"lon":-0.189468,"name":"Long Lane","parentId":"490G00009322","stationId":"490G00009322","stopLetter":"B","topMostParentId":"490G00009322"},{"icsId":"1000081","id":"490000081D","lat":51.602167,"lon":-0.192246,"name":"Finchley Central Station","parentId":"490G00081W","stationId":"490G00081W","stopLetter":"D","topMostParentId":"940GZZLUFYC","zone":"4"},{"icsId":"1008054","id":"490008054H","lat":51.599461,"lon":-0.195848,"name":"Hendon Lane","parentId":"490G00008054","stationId":"490G00008054","stopLetter":"H","topMostParentId":"490G00008054"},{"icsId":"1006337","id":"490006337S","lat":51.597911,"lon":-0.197339,"name":"East End Road","parentId":"490G00006337","stationId":"490G00006337","stopLetter":"S","topMostParentId":"490G00006337"},{"icsId":"1010079","id":"490010079S","lat":51.594112,"lon":-0.198875,"name":"Mountfield Road","parentId":"490G00010079","stationId":"490G00010079","stopLetter":"H","topMostParentId":"490G00010079"},{"icsId":"1005488","id":"490005488S","lat":51.591917,"lon":-0.199395,"name":"Allandale Avenue","parentId":"490G00005488","stationId":"490G00005488","stopLetter":"TA","topMostParentId":"490G00005488"},{"icsId":"1008069","id":"490008069S","lat":51.590509,"lon":-0.199639,"name":"Henlys Corner","parentId":"490G00008069","stationId":"490G00008069","stopLetter":"TB","topMostParentId":"490G00008069"},{"icsId":"1003108","id":"490003108S","lat":51.588047,"lon":-0.199765,"name":"Addison Way","parentId":"490G00003108","stationId":"490G00003108","stopLetter":"TC","topMostParentId":"490G00003108"},{"icsId":"1005162","id":"490005162S","lat":51.585027,"lon":-0.199812,"name":"Childs Way","parentId":"490G00005162","stationId":"490G00005162","stopLetter":"TD","topMostParentId":"490G00005162"},{"icsId":"1013192","id":"490013192S","lat":51.58155,"lon":-0.198867,"name":"Temple Fortune Lane","parentId":"490G00013192","stationId":"490G00013192","stopLetter":"TE","topMostParentId":"490G00013192"},{"icsId":"1005421","id":"490005421S","lat":51.580292,"lon":-0.198354,"name":"Clifton Gardens","parentId":"490G00005421","stationId":"490G00005421","stopLetter":"TF","topMostParentId":"490G00005421"},{"icsId":"1008343","id":"490008343S","lat":51.576681,"lon":-0.196866,"name":"Hoop Lane","parentId":"490G00008343","stationId":"490G00008343","stopLetter":"->S","topMostParentId":"490G00008343"},{"icsId":"1000087","id":"490015496GV","lat":51.572958,"lon":-0.195642,"name":"Golders Green Station","parentId":"490G00087GB","stationId":"490G00087GB","stopLetter":"GV","topMostParentId":"940GZZLUGGN","zone":"3"},{"icsId":"1007267","id":"490007267GL","lat":51.570964,"lon":-0.195202,"name":"Golders Green / Finchley Road","parentId":"490G00007267","stationId":"490G00007267","stopLetter":"GL","topMostParentId":"490G00007267"},{"icsId":"1006262","id":"490006262S","lat":51.56799,"lon":-0.194814,"name":"Dunstan Road","parentId":"490G00006262","stationId":"490G00006262","stopLetter":"A","topMostParentId":"490G00006262"},{"icsId":"1009232","id":"490009232S","lat":51.565498,"lon":-0.19588,"name":"Llanvanor Road","parentId":"490G00009232","stationId":"490G00009232","stopLetter":"B","topMostParentId":"490G00009232"},{"icsId":"1005160","id":"490005160S2","lat":51.563375,"lon":-0.197003,"name":"Childs Hill / Cricklewood Lane","parentId":"490G00005160","stationId":"490G00005160","stopLetter":"D","topMostParentId":"490G00005160"},{"icsId":"1009462","id":"490015362S","lat":51.560065,"lon":-0.196946,"name":"Lyndale Avenue","parentId":"490G00009462","stationId":"490G00009462","stopLetter":"E","topMostParentId":"490G00009462"},{"icsId":"1006952","id":"490006952S","lat":51.558659,"lon":-0.196165,"name":"Fortune Green Road","parentId":"490G00006952","stationId":"490G00006952","stopLetter":"G","topMostParentId":"490G00006952"},{"icsId":"1004626","id":"490004626S","lat":51.555947,"lon":-0.194079,"name":"Burrard Road","parentId":"490G00004626","stationId":"490G00004626","stopLetter":"CA","topMostParentId":"490G00004626"},{"icsId":"1012961","id":"490012961S","lat":51.554681,"lon":-0.19185,"name":"Lyncroft Gardens","parentId":"490G00012961","stationId":"490G00012961","stopLetter":"CB","topMostParentId":"490G00012961"},{"icsId":"1014433","id":"490014433S","lat":51.553441,"lon":-0.189592,"name":"West End Lane","parentId":"490G00014433","stationId":"490G00014433","stopLetter":"CC","topMostParentId":"490G00014433"},{"icsId":"1003282","id":"490003282S","lat":51.552626,"lon":-0.187504,"name":"Alvanley Gardens","parentId":"490G00003282","stationId":"490G00003282","stopLetter":"FU","topMostParentId":"490G00003282"},{"icsId":"1008947","id":"490008947S","lat":51.551781,"lon":-0.185157,"name":"Langland Gardens","parentId":"490G00008947","stationId":"490G00008947","stopLetter":"FV","topMostParentId":"490G00008947"},{"icsId":"1001109","id":"490001109FF","lat":51.550137,"lon":-0.182367,"name":"Finchley Road & Frognal Station","parentId":"490G01109FF","stationId":"490G01109FF","stopLetter":"FF","topMostParentId":"910GFNCHLYR"},{"icsId":"1000307","id":"490007045FH","lat":51.54795,"lon":-0.180492,"name":"O2 Centre","parentId":"490G00000307","stationId":"490G00000307","stopLetter":"FH","topMostParentId":"490G00000307"},{"icsId":"1000082","id":"490000082FJ","lat":51.546351,"lon":-0.178883,"name":"Finchley Road Station","parentId":"490G00082FL","stationId":"490G00082FL","stopLetter":"FJ","topMostParentId":"940GZZLUFYR","zone":"2"},{"icsId":"1019775","id":"490005487B","lat":51.544529,"lon":-0.175653,"name":"Finchley Road / College Crescent","parentId":"490G00019775","stationId":"490G00019775","stopLetter":"B","topMostParentId":"490G00019775"},{"icsId":"1000230","id":"490000230D","lat":51.542997,"lon":-0.174272,"name":"Swiss Cottage Station / Avenue Road","parentId":"490G00230N","stationId":"490G00230N","stopLetter":"D","topMostParentId":"940GZZLUSWC","zone":"2"},{"icsId":"1004185","id":"490004185S","lat":51.539332,"lon":-0.175688,"name":"Boundary Road","parentId":"490G00004185","stationId":"490G00004185","stopLetter":"V","topMostParentId":"490G00004185"},{"icsId":"1011336","id":"490011336S","lat":51.536785,"lon":-0.176136,"name":"Queen's Grove","parentId":"490G00011336","stationId":"490G00011336","stopLetter":"U","topMostParentId":"490G00011336"},{"icsId":"1000222","id":"490005318C","lat":51.53398,"lon":-0.173811,"name":"St John's Wood Station","parentId":"490G00222A","stationId":"490G00222A","stopLetter":"C","topMostParentId":"940GZZLUSJW","zone":"2"},{"icsId":"1009359","id":"490009359S","lat":51.530679,"lon":-0.169719,"name":"Lord's Cricket Ground","parentId":"490G00009359","stationId":"490G00009359","stopLetter":"K","topMostParentId":"490G00009359"},{"icsId":"1010816","id":"490010816P","lat":51.529375,"lon":-0.166859,"name":"London Central Mosque","parentId":"490G00010816","stationId":"490G00010816","stopLetter":"P","topMostParentId":"490G00010816"},{"icsId":"1003269","id":"490003269S","lat":51.52756,"lon":-0.164669,"name":"Alpha Close","parentId":"490G00003269","stationId":"490G00003269","stopLetter":"LA","topMostParentId":"490G00003269"},{"icsId":"1011716","id":"490011716S","lat":51.526169,"lon":-0.161986,"name":"London Business School","parentId":"490G00011716","stationId":"490G00011716","stopLetter":"LB","topMostParentId":"490G00011716"},{"icsId":"1000011","id":"490000011A","lat":51.52351,"lon":-0.158114,"name":"Baker Street Station","parentId":"490G00011B","stationId":"490G00011B","stopLetter":"A","topMostParentId":"940GZZLUBST","zone":"1"},{"icsId":"1009990","id":"490015021G","lat":51.521055,"lon":-0.156959,"name":"Dorset Street","parentId":"490G00009990","stationId":"490G00009990","stopLetter":"G","topMostParentId":"490G00009990"},{"icsId":"1020105","id":"490004096H","lat":51.517123,"lon":-0.155143,"name":"Portman Square","parentId":"490G00020105","stationId":"490G00020105","stopLetter":"H","topMostParentId":"490G00020105"},{"icsId":"1010622","id":"490010622L","lat":51.514379,"lon":-0.153914,"name":"Orchard Street / Selfridges","parentId":"490G00010622","stationId":"490G00010622","stopLetter":"BZ","topMostParentId":"490G00010622"},{"icsId":"1000399","id":"490000144R","lat":51.512308,"lon":-0.157744,"name":"Marble Arch Station  / Park Lane","parentId":"490G00000399","stationId":"490G00000399","stopLetter":"R","topMostParentId":"490G00000399"},{"icsId":"1006111","id":"490006111S1","lat":51.50842,"lon":-0.154097,"name":"Dorchester Hotel","parentId":"490G00006111","stationId":"490G00006111","stopLetter":"S","topMostParentId":"490G00006111"},{"icsId":"1009277","id":"490009277B","lat":51.505136,"lon":-0.151103,"name":"London Hilton Hotel","parentId":"490G00009277","stationId":"490G00009277","stopLetter":"B","topMostParentId":"490G00009277"},{"icsId":"1000119","id":"490000119F","lat":51.50209,"lon":-0.150679,"name":"Hyde Park Corner","parentId":"490G00119F","stationId":"490G00119F","stopLetter":"F","topMostParentId":"940GZZLUHPC","zone":"1"},{"icsId":"1014728","id":"490014728S","lat":51.499284,"lon":-0.147867,"name":"Wilton Street","parentId":"490G00014728","stationId":"490G00014728","stopLetter":"S","topMostParentId":"490G00014728"},{"icsId":"1000720","id":"490004555P","lat":51.497242,"lon":-0.144406,"name":"Buckingham Palace Rd / Bressenden Place","parentId":"490G000130","stationId":"490G000130","stopLetter":"P","topMostParentId":"490G000130"},{"icsId":"1014050","id":"490014050A","lat":51.495958,"lon":-0.143954,"name":"Victoria Bus Station","parentId":"490G000812","stationId":"490G000812","stopLetter":"A","topMostParentId":"490G000812"}]}]}