{"direction":"outbound","lineId":"130","lineName":"130","mode":"bus","stopPointSequences":[{"stopPoint":[{"icsId":"1015467","id":"490015467Z","lat":51.343705,"lon":-0.00559,"name":"Vulcan Way","parentId":"490G00015467","stationId":"490G00015467","stopLetter":"->S","topMostParentId":"490G00015467"},{"icsId":"1011493","id":"490011493S","lat":51.341106,"lon":-0.005056,"name":"Redstart Close","parentId":"490G00011493","stationId":"490G00011493","stopLetter":"->S","topMostParentId":"490G00011493"},{"icsId":"1004680","id":"490004680W","lat":51.338656,"lon":-0.005364,"name":"Calley Down Crescent","parentId":"490G00004680","stationId":"490G00004680","stopLetter":"->W","topMostParentId":"490G00004680"},{"icsId":"1009926","id":"490009926W","lat":51.339185,"lon":-0.008987,"name":"New Addington Baptist Church","parentId":"490G00009926","stationId":"490G00009926","stopLetter":"J","topMostParentId":"490G00009926"},{"icsId":"1004928","id":"490004928N","lat":51.340134,"lon":-0.013986,"name":"Central Parade","parentId":"490G00004928","stationId":"490G00004928","stopLetter":"K","topMostParentId":"490G00004928"},{"icsId":"1002062","id":"490010848N","lat":51.342874,"lon":-0.018075,"name":"New Addington Tram Stop","parentId":"490G02062B","stationId":"490G02062B","stopLetter":"A","topMostParentId":"940GZZCRNWA"},{"icsId":"1002050","id":"490002050A","lat":51.345711,"lon":-0.021011,"name":"King Henry's Drive Tram Stop","parentId":"490G02050A","stationId":"490G02050A","stopLetter":"N","topMostParentId":"940GZZCRKGH"},{"icsId":"1004843","id":"490013322N","lat":51.346378,"lon":-0.022131,"name":"Castle Hill Avenue","parentId":"490G000442","stationId":"490G000442","stopLetter":"P","topMostParentId":"490G000442"},{"icsId":"1008522","id":"490008522E","lat":51.35081,"lon":-0.023161,"name":"Ivers Way","parentId":"490G000612","stationId":"490G000612","stopLetter":"FC","topMostParentId":"490G000612"},{"icsId":"1010184","id":"490010184E","lat":51.35302,"lon":-0.0161,"name":"Netley Close","parentId":"490G00010184","stationId":"490G00010184","topMostParentId":"490G00010184"},{"icsId":"1009824","id":"490009824N","lat":51.354197,"lon":-0.013895,"name":"Merrow Way","parentId":"490G00009824","stationId":"490G00009824","stopLetter":"->N","topMostParentId":"490G00009824"},{"icsId":"1004844","id":"490004844W","lat":51.356235,"lon":-0.015803,"name":"Castle Hill School","parentId":"490G00004844","stationId":"490G00004844","stopLetter":"->W","topMostParentId":"490G00004844"},{"icsId":"1013449","id":"490013449N","lat":51.357839,"lon":-0.017098,"name":"The Lindens","parentId":"490G00013449","stationId":"490G00013449","stopLetter":"->N","topMostParentId":"490G00013449"},{"icsId":"1010420","id":"490010420W","lat":51.358068,"lon":-0.021067,"name":"North Walk","parentId":"490G00010420","stationId":"490G00010420","stopLetter":"->W","topMostParentId":"490G00010420"},{"icsId":"1006968","id":"490006968S","lat":51.356194,"lon":-0.020818,"name":"Foxcombe","parentId":"490G00006968","stationId":"490G00006968","topMostParentId":"490G00006968"},{"icsId":"1019735","id":"490013307W","lat":51.354303,"lon":-0.021244,"name":"Brierley","parentId":"490G00019735","stationId":"490G00019735","topMostParentId":"490G00019735"},{"icsId":"1003345","id":"490003345W","lat":51.353199,"lon":-0.024006,"name":"Applegarth","parentId":"490G00003345","stationId":"490G00003345","stopLetter":"FD","topMostParentId":"490G00003345"},{"icsId":"1003101","id":"490003101D","lat":51.356577,"lon":-0.032392,"name":"Addington Village Interchange","parentId":"490G000380","stationId":"490G000380","stopLetter":"D","topMostParentId":"490G000380"},{"icsId":"1003094","id":"490003094W","lat":51.353962,"lon":-0.038924,"name":"Addington Park","parentId":"490G000379","stationId":"490G000379","stopLetter":"C","topMostParentId":"490G000379"},{"icsId":"1002041","id":"490002041A","lat":51.354764,"lon":-0.043313,"name":"Gravel Hill Tram Stop","parentId":"490G02041A","stationId":"490G02041A","stopLetter":"D","topMostParentId":"940GZZCRGRA"},{"icsId":"1007993","id":"490007993N","lat":51.356319,"lon":-0.050845,"name":"Heathfield Farm","parentId":"490G00007993","stationId":"490G00007993","stopLetter":"M","topMostParentId":"490G00007993"},{"icsId":"1002024","id":"490002024A","lat":51.359411,"lon":-0.055597,"name":"Coombe Lane Tram Stop","parentId":"490G02024E","stationId":"490G02024E","stopLetter":"A","topMostParentId":"940GZZCRCOO"},{"icsId":"1011005","id":"490011005N","lat":51.364441,"lon":-0.051966,"name":"Pine Coombe","parentId":"490G00011005","stationId":"490G00011005","stopLetter":"N","topMostParentId":"490G00011005"},{"icsId":"1010505","id":"490010505N","lat":51.366613,"lon":-0.052821,"name":"Oaks Road","parentId":"490G00010505","stationId":"490G00010505","stopLetter":"Q","topMostParentId":"490G00010505"},{"icsId":"1012103","id":"490012103N","lat":51.369618,"lon":-0.054533,"name":"Shirley Windmill","parentId":"490G00012103","stationId":"490G00012103","stopLetter":"U","topMostParentId":"490G00012103"},{"icsId":"1012094","id":"490012094N","lat":51.37278,"lon":-0.055965,"name":"Shirley Church Road","parentId":"490G00012094","stationId":"490G00012094","stopLetter":"V","topMostParentId":"490G00012094"},{"icsId":"1012101","id":"490012099N","lat":51.376895,"lon":-0.060619,"name":"Shirley Park / Shirley Avenue","parentId":"490G00012101","stationId":"490G00012101","stopLetter":"J","topMostParentId":"490G00012101"},{"icsId":"1012098","id":"490012098N","lat":51.378688,"lon":-0.061908,"name":"Shirley Clinic","parentId":"490G00012098","stationId":"490G00012098","stopLetter":"K","topMostParentId":"490G00012098"},{"icsId":"1004007","id":"490004007N","lat":51.380984,"lon":-0.063148,"name":"Bingham Road","parentId":"490G00004007","stationId":"490G00004007","stopLetter":"L","topMostParentId":"490G00004007"},{"icsId":"1003421","id":"490003421N","lat":51.382458,"lon":-0.064206,"name":"Oasis Academy","parentId":"490G00003421","stationId":"490G00003421","stopLetter":"AJ","topMostParentId":"490G00003421"},{"icsId":"1003419","id":"490003419D","lat":51.384794,"lon":-0.064079,"name":"Ashburton Park","parentId":"490G00003419","stationId":"490G00003419","stopLetter":"WS","topMostParentId":"490G00003419"},{"icsId":"1002086","id":"490002086B","lat":51.386989,"lon":-0.064144,"name":"Woodside Tram Stop","parentId":"490G02086B","stationId":"490G02086B","stopLetter":"WN","topMostParentId":"940GZZCRWOD"},{"icsId":"1005852","id":"490005852N","lat":51.390861,"lon":-0.065519,"name":"Croydon Arena","parentId":"490G00005852","stationId":"490G00005852","stopLetter":"WJ","topMostParentId":"490G00005852"},{"icsId":"1012321","id":"490012321N1","lat":51.392834,"lon":-0.066801,"name":"South Norwood Leisure Centre","parentId":"490G00012321","stationId":"490G00012321","stopLetter":"PH","topMostParentId":"490G00012321"},{"icsId":"1013371","id":"490013371N","lat":51.39587,"lon":-0.068815,"name":"Harrington Road","parentId":"490G00013371","stationId":"490G00013371","stopLetter":"PG","topMostParentId":"490G00013371"},{"icsId":"1001216","id":"490001216E","lat":51.398636,"lon":-0.07511,"name":"Norwood Junction Station","parentId":"490G01216E","stationId":"490G01216E","stopLetter":"E","topMostParentId":"HUBNWD"},{"icsId":"1012320","id":"490012320A","lat":51.397782,"lon":-0.077892,"name":"South Norwood Clock Tower","parentId":"490G00012320","stationId":"490G00012320","stopLetter":"A","topMostParentId":"490G00012320"},{"icsId":"1010805","id":"490010805W","lat":51.396963,"lon":-0.080586,"name":"Selhurst Road / Park Road","parentId":"490G00010805","stationId":"490G00010805","stopLetter":"->W","topMostParentId":"490G00010805"},{"icsId":"1020275","id":"490020275NW","lat":51.397699,"lon":-0.083215,"name":"Park Road","parentId":"490G00020275","stationId":"490G00020275","topMostParentId":"490G00020275"},{"icsId":"1010818","id":"490010818S","lat":51.399199,"lon":-0.08643,"name":"Selhurst Park Stadium","parentId":"490G00010818","stationId":"490G00010818","stopLetter":"->S","topMostParentId":"490G00010818"},{"icsId":"1005424","id":"490005424R","lat":51.398151,"lon":-0.091102,"name":"Clifton Road","parentId":"490G00005424","stationId":"490G00005424","stopLetter":"R","topMostParentId":"490G00005424"},{"icsId":"1015449","id":"490015449H","lat":51.398708,"lon":-0.097146,"name":"Thornton Heath Clock Tower","parentId":"490G000896","stationId":"490G000896","stopLetter":"H","topMostParentId":"490G000896"},{"icsId":"1010744","id":"490015449E","lat":51.399307,"lon":-0.099119,"name":"Parchmore Road","parentId":"490G00010744","stationId":"490G00010744","stopLetter":"E","topMostParentId":"490G00010744"}]}]}