{"direction":"outbound","lineId":"131","lineName":"131","mode":"bus","stopPointSequences":[{"stopPoint":[{"icsId":"1006705","id":"490006705B2","lat":51.410447,"lon":-0.299741,"name":"Fairfield Bus Station","parentId":"490G00006705","stationId":"490G00006705","stopLetter":"D","topMostParentId":"490G00006705"},{"icsId":"1006412","id":"490006412E2","lat":51.410154,"lon":-0.302513,"name":"Eden Street","parentId":"490G00006412","stationId":"490G00006412","stopLetter":"E2","topMostParentId":"490G00006412"},{"icsId":"1005800","id":"490005800A2","lat":51.412366,"lon":-0.298807,"name":"Cromwell Road Bus Station","parentId":"490G000476","stationId":"490G000476","stopLetter":"A2","topMostParentId":"490G000476"},{"icsId":"1013664","id":"490013664C1","lat":51.410752,"lon":-0.295991,"name":"Tiffin School / London Road","parentId":"490G00013664","stationId":"490G00013664","stopLetter":"B","topMostParentId":"490G00013664"},{"icsId":"1014039","id":"490014039E","lat":51.410086,"lon":-0.291026,"name":"Vicarage House","parentId":"490G00014039","stationId":"490G00014039","stopLetter":"->E","topMostParentId":"490G00014039"},{"icsId":"1004703","id":"490004703E","lat":51.408959,"lon":-0.286539,"name":"Cambridge Grove","parentId":"490G00004703","stationId":"490G00004703","stopLetter":"A","topMostParentId":"490G00004703"},{"icsId":"1014286","id":"490014286E","lat":51.407143,"lon":-0.282897,"name":"Waters Road","parentId":"490G00014286","stationId":"490G00014286","stopLetter":"B","topMostParentId":"490G00014286"},{"icsId":"1008804","id":"490008804E","lat":51.406723,"lon":-0.28182,"name":"Kingsmeadow","parentId":"490G00008804","stationId":"490G00008804","stopLetter":"C","topMostParentId":"490G00008804"},{"icsId":"1006079","id":"490006079E","lat":51.404579,"lon":-0.277242,"name":"Archdale Place","parentId":"490G00006079","stationId":"490G00006079","stopLetter":"D","topMostParentId":"490G00006079"},{"icsId":"1003361","id":"490003361E","lat":51.403528,"lon":-0.27432,"name":"California Road","parentId":"490G00003361","stationId":"490G00003361","stopLetter":"E","topMostParentId":"490G00003361"},{"icsId":"1014356","id":"490014356E","lat":51.40215,"lon":-0.269886,"name":"Wellington Crescent","parentId":"490G00014356","stationId":"490G00014356","stopLetter":"F","topMostParentId":"490G00014356"},{"icsId":"1014411","id":"490014411E","lat":51.400903,"lon":-0.265836,"name":"Elm Road / New Malden Baptist Church","parentId":"490G00014411","stationId":"490G00014411","topMostParentId":"490G00014411"},{"icsId":"1012751","id":"490012751E","lat":51.399588,"lon":-0.260854,"name":"St Joseph's Church","parentId":"490G00012751","stationId":"490G00012751","stopLetter":"->E","topMostParentId":"490G00012751"},{"icsId":"1015206","id":"490015206M","lat":51.398787,"lon":-0.257133,"name":"New Malden / The Fountain","parentId":"490G000880","stationId":"490G000880","stopLetter":"M","topMostParentId":"490G000880"},{"icsId":"1010235","id":"490010235F","lat":51.399004,"lon":-0.253574,"name":"Walton Avenue","parentId":"490G000677","stationId":"490G000677","stopLetter":"F","topMostParentId":"490G000677"},{"icsId":"1011348","id":"490011348E","lat":51.399087,"lon":-0.250135,"name":"Queens Road","parentId":"490G00011348","stationId":"490G00011348","stopLetter":"A","topMostParentId":"490G00011348"},{"icsId":"1011674","id":"490011674E","lat":51.399424,"lon":-0.244371,"name":"Shannon Corner / Rookwood Avenue","parentId":"490G00011674","stationId":"490G00011674","stopLetter":"B","topMostParentId":"490G00011674"},{"icsId":"1015435","id":"490015435E","lat":51.399813,"lon":-0.241553,"name":"Shannon Corner / Burlington Road","parentId":"490G00015435","stationId":"490G00015435","stopLetter":"C","topMostParentId":"490G00015435"},{"icsId":"1004884","id":"490004884E","lat":51.400226,"lon":-0.239108,"name":"Cavendish Avenue","parentId":"490G00004884","stationId":"490G00004884","stopLetter":"D","topMostParentId":"490G00004884"},{"icsId":"1014399","id":"490014399N","lat":51.402996,"lon":-0.236715,"name":"West Barnes Level Crossing","parentId":"490G00014399","stationId":"490G00014399","stopLetter":"E","topMostParentId":"490G00014399"},{"icsId":"1013763","id":"490013763N","lat":51.405121,"lon":-0.235742,"name":"Trafalgar Court","parentId":"490G00013763","stationId":"490G00013763","stopLetter":"F","topMostParentId":"490G00013763"},{"icsId":"1006761","id":"490006761N","lat":51.40766,"lon":-0.235342,"name":"Farnham Gardens","parentId":"490G00006761","stationId":"490G00006761","stopLetter":"G","topMostParentId":"490G00006761"},{"icsId":"1014397","id":"490014397E","lat":51.409724,"lon":-0.233839,"name":"Durham Road","parentId":"490G00014397","stationId":"490G00014397","stopLetter":"A","topMostParentId":"490G00014397"},{"icsId":"1001237","id":"490001237C","lat":51.409678,"lon":-0.230778,"name":"Raynes Park Station","parentId":"490G01237A","stationId":"490G01237A","stopLetter":"B","topMostParentId":"910GRAYNSPK"},{"icsId":"1011457","id":"490011457E","lat":51.410627,"lon":-0.228743,"name":"Raynes Park Methodist Church","parentId":"490G00011457","stationId":"490G00011457","stopLetter":"D","topMostParentId":"490G00011457"},{"icsId":"1003392","id":"490003392W1","lat":51.412427,"lon":-0.224115,"name":"Arterberry Road","parentId":"490G00003392","stationId":"490G00003392","stopLetter":"E","topMostParentId":"490G00003392"},{"icsId":"1015361","id":"490015361E","lat":51.4136,"lon":-0.221999,"name":"Lower Downs Road","parentId":"490G00015361","stationId":"490G00015361","stopLetter":"->E","topMostParentId":"490G00015361"},{"icsId":"1003155","id":"490003155E","lat":51.415181,"lon":-0.219493,"name":"Albert Grove","parentId":"490G00003155","stationId":"490G00003155","stopLetter":"->E","topMostParentId":"490G00003155"},{"icsId":"1005961","id":"490005961E","lat":51.417163,"lon":-0.216208,"name":"Darlaston Road","parentId":"490G00005961","stationId":"490G00005961","stopLetter":"->E","topMostParentId":"490G00005961"},{"icsId":"1012378","id":"490012378E","lat":51.419434,"lon":-0.212352,"name":"Spencer Hill","parentId":"490G00012378","stationId":"490G00012378","stopLetter":"W","topMostParentId":"490G00012378"},{"icsId":"1006987","id":"490006987N","lat":51.421199,"lon":-0.209622,"name":"Francis Grove","parentId":"490G00006987","stationId":"490G00006987","stopLetter":"N","topMostParentId":"490G00006987"},{"icsId":"1000272","id":"490015472D","lat":51.420659,"lon":-0.205429,"name":"Wimbledon Station","parentId":"490G00272P","stationId":"490G00272P","stopLetter":"D","topMostParentId":"HUBWIM","zone":"3"},{"icsId":"1014742","id":"490014742X","lat":51.419205,"lon":-0.199776,"name":"Wimbledon Theatre","parentId":"490G00014742","stationId":"490G00014742","stopLetter":"X","topMostParentId":"490G00014742"},{"icsId":"1013807","id":"490013807E","lat":51.419424,"lon":-0.195884,"name":"The Polka Theatre","parentId":"490G00013807","stationId":"490G00013807","stopLetter":"SU","topMostParentId":"490G00013807"},{"icsId":"1009835","id":"490009835J","lat":51.417466,"lon":-0.19251,"name":"Merton Road","parentId":"490G00009835","stationId":"490G00009835","stopLetter":"SV","topMostParentId":"490G00009835"},{"icsId":"1000216","id":"490000216D","lat":51.415717,"lon":-0.190508,"name":"South Wimbledon Station","parentId":"490G00216C","stationId":"490G00216C","stopLetter":"SZ","topMostParentId":"940GZZLUSWN","zone":"3+4"},{"icsId":"1007938","id":"490007938F","lat":51.416114,"lon":-0.185358,"name":"Abbey Road","parentId":"490G00007938","stationId":"490G00007938","stopLetter":"SH","topMostParentId":"490G00007938"},{"icsId":"1009830","id":"490009830E","lat":51.416424,"lon":-0.181535,"name":"Merton Abbey","parentId":"490G00009830","stationId":"490G00009830","stopLetter":"E","topMostParentId":"490G00009830"},{"icsId":"1000055","id":"490000055D","lat":51.418844,"lon":-0.177599,"name":"Colliers Wood Station","parentId":"490G00055A","stationId":"490G00055A","stopLetter":"D","topMostParentId":"940GZZLUCSD","zone":"3"},{"icsId":"1014149","id":"490014149N","lat":51.420944,"lon":-0.175559,"name":"Walpole Road","parentId":"490G00014149","stationId":"490G00014149","stopLetter":"L","topMostParentId":"490G00014149"},{"icsId":"1009332","id":"490009332H11","lat":51.423361,"lon":-0.173104,"name":"Longley Road","parentId":"490G00009332","stationId":"490G00009332","stopLetter":"HQ","topMostParentId":"490G00009332"},{"icsId":"1010468","id":"490010468H8","lat":51.425691,"lon":-0.170278,"name":"Nutwell Street","parentId":"490G00010468","stationId":"490G00010468","stopLetter":"HN","topMostParentId":"490G00010468"},{"icsId":"1000234","id":"490015513L","lat":51.427385,"lon":-0.168815,"name":"Tooting Broadway Station","parentId":"490G00234G","stationId":"490G00234G","stopLetter":"L","topMostParentId":"940GZZLUTBY","zone":"3"}]}]}