{"direction":"outbound","lineId":"136","lineName":"136","mode":"bus","stopPointSequences":[{"stopPoint":[{"icsId":"1007565","id":"490007565L","lat":51.431805,"lon":0.020832,"name":"Grove Park Bus Station","parentId":"490G000553","stationId":"490G000553","stopLetter":"M","topMostParentId":"490G000553"},{"icsId":"1001124","id":"490015256D","lat":51.430643,"lon":0.019889,"name":"Grove Park Station","parentId":"490G01124B","stationId":"490G01124B","stopLetter":"D","topMostParentId":"910GGRVPK"},{"icsId":"1013390","id":"490013390W","lat":51.430261,"lon":0.015973,"name":"The Green","parentId":"490G00013390","stationId":"490G00013390","stopLetter":"E","topMostParentId":"490G00013390"},{"icsId":"1010393","id":"490010393S","lat":51.428117,"lon":0.013563,"name":"Northover","parentId":"490G00010393","stationId":"490G00010393","stopLetter":"F","topMostParentId":"490G00010393"},{"icsId":"1012324","id":"490012324W","lat":51.425468,"lon":0.013317,"name":"Downham Way / Southover","parentId":"490G00012324","stationId":"490G00012324","stopLetter":"DU","topMostParentId":"490G00012324"},{"icsId":"1007977","id":"490007977W","lat":51.424183,"lon":0.010686,"name":"Headcorn Road","parentId":"490G00007977","stationId":"490G00007977","stopLetter":"DV","topMostParentId":"490G00007977"},{"icsId":"1013993","id":"490013993W","lat":51.424702,"lon":0.007659,"name":"Downham Way / Valeswood Road","parentId":"490G00013993","stationId":"490G00013993","stopLetter":"DW","topMostParentId":"490G00013993"},{"icsId":"1012635","id":"490012635W","lat":51.425936,"lon":0.004419,"name":"St Barnabas Hall","parentId":"490G00012635","stationId":"490G00012635","stopLetter":"DX","topMostParentId":"490G00012635"},{"icsId":"1007221","id":"490007221W","lat":51.42571,"lon":0.001316,"name":"Glenbow Road","parentId":"490G00007221","stationId":"490G00007221","stopLetter":"DY","topMostParentId":"490G00007221"},{"icsId":"1011423","id":"490011423W","lat":51.424668,"lon":-0.00244,"name":"Rangefield Road","parentId":"490G00011423","stationId":"490G00011423","stopLetter":"DZ","topMostParentId":"490G00011423"},{"icsId":"1004430","id":"490004430N","lat":51.42479,"lon":-0.004348,"name":"Bromley Road / Downham Way","parentId":"490G00004430","stationId":"490G00004430","stopLetter":"DK","topMostParentId":"490G00004430"},{"icsId":"1010528","id":"490010528N","lat":51.4261,"lon":-0.006808,"name":"Old Bromley Road","parentId":"490G00010528","stationId":"490G00010528","stopLetter":"SU","topMostParentId":"490G00010528"},{"icsId":"1012286","id":"490012286N1","lat":51.426736,"lon":-0.009845,"name":"Green Man Community Hub","parentId":"490G00012286","stationId":"490G00012286","stopLetter":"SV","topMostParentId":"490G00012286"},{"icsId":"1013572","id":"490013572N","lat":51.429029,"lon":-0.014047,"name":"Southend Lane","parentId":"490G00013572","stationId":"490G00013572","stopLetter":"SW","topMostParentId":"490G00013572"},{"icsId":"1004866","id":"490004866N","lat":51.431015,"lon":-0.015586,"name":"Catford Police Station","parentId":"490G00004866","stationId":"490G00004866","stopLetter":"BA","topMostParentId":"490G00004866"},{"icsId":"1003852","id":"490003852A","lat":51.432575,"lon":-0.017418,"name":"Bellingham Road","parentId":"490G000410","stationId":"490G000410","stopLetter":"BB","topMostParentId":"490G000410"},{"icsId":"1010248","id":"490010248N","lat":51.43655,"lon":-0.018483,"name":"Newquay Road","parentId":"490G00010248","stationId":"490G00010248","stopLetter":"BC","topMostParentId":"490G00010248"},{"icsId":"1005020","id":"490005020N","lat":51.438406,"lon":-0.019237,"name":"Inchmery Road","parentId":"490G00005020","stationId":"490G00005020","stopLetter":"BD","topMostParentId":"490G00005020"},{"icsId":"1003596","id":"490003596N","lat":51.440544,"lon":-0.020713,"name":"Bargery Road","parentId":"490G00003596","stationId":"490G00003596","topMostParentId":"490G00003596"},{"icsId":"1015150","id":"490015150W","lat":51.443813,"lon":-0.020456,"name":"Bromley Road / Lewisham Town Hall","parentId":"490G00015150","stationId":"490G00015150","stopLetter":"W","topMostParentId":"490G00015150"},{"icsId":"1013282","id":"490013282A","lat":51.447111,"lon":-0.018731,"name":"The Catford Centre","parentId":"490G00013282","stationId":"490G00013282","stopLetter":"A","topMostParentId":"490G00013282"},{"icsId":"1011703","id":"490011703HE","lat":51.449254,"lon":-0.017242,"name":"Rosenthal Road","parentId":"490G00011703","stationId":"490G00011703","stopLetter":"B","topMostParentId":"490G00011703"},{"icsId":"1000914","id":"490007163HF","lat":51.451703,"lon":-0.016934,"name":"Mount Pleasant Road","parentId":"490G000231","stationId":"490G000231","stopLetter":"HF","topMostParentId":"490G000231"},{"icsId":"1009109","id":"490009109HH","lat":51.452866,"lon":-0.016582,"name":"Lewisham Hospital","parentId":"490G00009109","stationId":"490G00009109","stopLetter":"HH","topMostParentId":"490G00009109"},{"icsId":"1009113","id":"490009113HJ","lat":51.454549,"lon":-0.016106,"name":"Lewisham Park","parentId":"490G00009113","stationId":"490G00009113","stopLetter":"HJ","topMostParentId":"490G00009113"},{"icsId":"1009111","id":"490009111HL","lat":51.457145,"lon":-0.013791,"name":"Lewisham Fire Station","parentId":"490G00009111","stationId":"490G00009111","stopLetter":"HL","topMostParentId":"490G00009111"},{"icsId":"1009105","id":"490009105U","lat":51.460312,"lon":-0.011235,"name":"Lewisham Centre","parentId":"490G00009105","stationId":"490G00009105","stopLetter":"U","topMostParentId":"490G00009105"},{"icsId":"1009106","id":"490011522E","lat":51.462499,"lon":-0.009786,"name":"Lewisham Clock Tower","parentId":"490G00009106","stationId":"490G00009106","stopLetter":"R","topMostParentId":"490G00009106"},{"icsId":"1001177","id":"490001177S","lat":51.465197,"lon":-0.012448,"name":"Lewisham Station","parentId":"490G01177G","stationId":"490G01177G","stopLetter":"J","topMostParentId":"HUBLEW","zone":"2+3"},{"icsId":"1000386","id":"490001177F","lat":51.46448,"lon":-0.014135,"name":"Lewisham Station   / Loampit Vale","parentId":"490G000036","stationId":"490G000036","stopLetter":"F","topMostParentId":"490G000036"},{"icsId":"1008549","id":"490008549W","lat":51.465042,"lon":-0.017609,"name":"Loampit Vale / Jerrard Street","parentId":"490G00008549","stationId":"490G00008549","stopLetter":"SG","topMostParentId":"490G00008549"},{"icsId":"1013896","id":"490013896W","lat":51.466701,"lon":-0.021611,"name":"Undercliff Road","parentId":"490G00013896","stationId":"490G00013896","stopLetter":"SH","topMostParentId":"490G00013896"},{"icsId":"1009107","id":"490009107W","lat":51.468306,"lon":-0.025559,"name":"Lewisham College","parentId":"490G000635","stationId":"490G000635","stopLetter":"SJ","topMostParentId":"490G000635"},{"icsId":"1009441","id":"490009441W","lat":51.4707,"lon":-0.029415,"name":"Lucas Street","parentId":"490G00009441","stationId":"490G00009441","stopLetter":"D","topMostParentId":"490G00009441"},{"icsId":"1009530","id":"490009530N","lat":51.471738,"lon":-0.030753,"name":"Malpas Road","parentId":"490G00009530","stationId":"490G00009530","stopLetter":"E","topMostParentId":"490G00009530"},{"icsId":"1003298","id":"490003298N","lat":51.473528,"lon":-0.03344,"name":"Amersham Road","parentId":"490G00003298","stationId":"490G00003298","stopLetter":"F","topMostParentId":"490G00003298"},{"icsId":"1007276","id":"490007276Y","lat":51.475052,"lon":-0.035333,"name":"Marquis Of Granby / Goldsmiths","parentId":"490G00007276","stationId":"490G00007276","stopLetter":"Y","topMostParentId":"490G00007276"},{"icsId":"1000156","id":"490000156O","lat":51.474837,"lon":-0.039648,"name":"New Cross Gate Station","parentId":"490G00156M","stationId":"490G00156M","stopLetter":"O","topMostParentId":"HUBNXG"},{"icsId":"1010204","id":"490010204K","lat":51.474095,"lon":-0.044245,"name":"New Cross Bus Garage","parentId":"490G00010204","stationId":"490G00010204","stopLetter":"K","topMostParentId":"490G00010204"},{"icsId":"1010205","id":"490010205A","lat":51.473916,"lon":-0.048587,"name":"New Cross Fire Station","parentId":"490G00010205","stationId":"490G00010205","stopLetter":"A","topMostParentId":"490G00010205"},{"icsId":"1011088","id":"490011088QA","lat":51.473048,"lon":-0.05208,"name":"Pomeroy Street","parentId":"490G00011088","stationId":"490G00011088","stopLetter":"QA","topMostParentId":"490G00011088"},{"icsId":"1001233","id":"490001233QB","lat":51.473597,"lon":-0.059184,"name":"Queen's Road Peckham Station","parentId":"490G01233QN","stationId":"490G01233QN","stopLetter":"QB","topMostParentId":"910GPCKHMQD"},{"icsId":"1004799","id":"490004799QC","lat":51.473936,"lon":-0.061747,"name":"Carlton Grove","parentId":"490G00004799","stationId":"490G00004799","stopLetter":"QC","topMostParentId":"490G00004799"},{"icsId":"1005382","id":"490005382J","lat":51.472948,"lon":-0.065605,"name":"Clayton Road","parentId":"490G00005382","stationId":"490G00005382","stopLetter":"J","topMostParentId":"490G00005382"},{"icsId":"1007768","id":"490011842R","lat":51.472667,"lon":-0.069822,"name":"Hanover Park","parentId":"490G00007768","stationId":"490G00007768","stopLetter":"R","topMostParentId":"490G00007768"},{"icsId":"1014252","id":"490014252W","lat":51.473733,"lon":-0.073391,"name":"Harris Academy","parentId":"490G00014252","stationId":"490G00014252","stopLetter":"S","topMostParentId":"490G00014252"},{"icsId":"1012248","id":"490012248W","lat":51.474215,"lon":-0.07651,"name":"Peckham Road / Southampton Way","parentId":"490G00012248","stationId":"490G00012248","stopLetter":"T","topMostParentId":"490G00012248"},{"icsId":"1012249","id":"490012249N","lat":51.47642,"lon":-0.079312,"name":"Southampton Way Estate","parentId":"490G00012249","stationId":"490G00012249","stopLetter":"D","topMostParentId":"490G00012249"},{"icsId":"1011974","id":"490011974N","lat":51.477779,"lon":-0.082149,"name":"Sedgmoor Place","parentId":"490G00011974","stationId":"490G00011974","stopLetter":"E","topMostParentId":"490G00011974"},{"icsId":"1005631","id":"490005631N","lat":51.479515,"lon":-0.085461,"name":"Cottage Green","parentId":"490G00005631","stationId":"490G00005631","stopLetter":"F","topMostParentId":"490G00005631"},{"icsId":"1012710","id":"490012710N","lat":51.482335,"lon":-0.085775,"name":"St George's Way / Burgess Park","parentId":"490G00012710","stationId":"490G00012710","stopLetter":"X","topMostParentId":"490G00012710"},{"icsId":"1003143","id":"490003143E","lat":51.484242,"lon":-0.085263,"name":"Albany Road / Wells Way","parentId":"490G00003143","stationId":"490G00003143","stopLetter":"O","topMostParentId":"490G00003143"},{"icsId":"1003274","id":"490003274N","lat":51.487275,"lon":-0.084891,"name":"Alsace Road","parentId":"490G00003274","stationId":"490G00003274","stopLetter":"A","topMostParentId":"490G00003274"},{"icsId":"1019184","id":"490013658N1","lat":51.489247,"lon":-0.086709,"name":"East Street","parentId":"490G00019184","stationId":"490G00019184","stopLetter":"B","topMostParentId":"490G00019184"},{"icsId":"1003557","id":"490003557N","lat":51.491317,"lon":-0.089561,"name":"Balfour Street","parentId":"490G00003557","stationId":"490G00003557","stopLetter":"C","topMostParentId":"490G00003557"},{"icsId":"1015379","id":"490015379N","lat":51.491711,"lon":-0.091662,"name":"Larcom Street","parentId":"490G00015379","stationId":"490G00015379","stopLetter":"RU","topMostParentId":"490G00015379"},{"icsId":"1000715","id":"490000715Z","lat":51.49232,"lon":-0.09593,"name":"Elephant Park","parentId":"490G000133","stationId":"490G000133","stopLetter":"->W","topMostParentId":"490G000133"},{"icsId":"1007739","id":"490007739N","lat":51.492234,"lon":-0.098411,"name":"Hampton Street","parentId":"490G00007739","stationId":"490G00007739","stopLetter":"->N","topMostParentId":"490G00007739"},{"icsId":"1000073","id":"490000073S","lat":51.493962,"lon":-0.100716,"name":"Elephant & Castle Station","parentId":"490G00073G","stationId":"490G00073G","stopLetter":"S","topMostParentId":"HUBEPH","zone":"1+2"},{"icsId":"1009297","id":"490000073F","lat":51.496432,"lon":-0.09998,"name":"Elephant & Castle / Newington Causeway","parentId":"490G000644","stationId":"490G000644","stopLetter":"F","topMostParentId":"490G000644"}]}]}