{"direction":"outbound","lineId":"14","lineName":"14","mode":"bus","stopPointSequences":[{"stopPoint":[{"icsId":"1011285","id":"490011285E2","lat":51.453514,"lon":-0.221168,"name":"Putney Heath / Green Man","parentId":"490G00011285","stationId":"490G00011285","stopLetter":"L","topMostParentId":"490G00011285"},{"icsId":"1011299","id":"490011285N","lat":51.454184,"lon":-0.220264,"name":"Putney Hill / Green Man","parentId":"490G00011299","stationId":"490G00011299","stopLetter":"M","topMostParentId":"490G00011299"},{"icsId":"1009494","id":"490012340N","lat":51.457291,"lon":-0.218747,"name":"Lytton Grove","parentId":"490G00009494","stationId":"490G00009494","stopLetter":"PJ","topMostParentId":"490G00009494"},{"icsId":"1004634","id":"490001231N","lat":51.460006,"lon":-0.217518,"name":"St John's Avenue","parentId":"490G00004634","stationId":"490G00004634","stopLetter":"C","topMostParentId":"490G00004634"},{"icsId":"1001231","id":"490001231B","lat":51.461475,"lon":-0.217144,"name":"Putney Station","parentId":"490G01231E1","stationId":"490G01231E1","stopLetter":"B","topMostParentId":"910GPUTNEY"},{"icsId":"1011289","id":"490011286M","lat":51.464431,"lon":-0.21523,"name":"Putney Exchange","parentId":"490G00011289","stationId":"490G00011289","stopLetter":"M","topMostParentId":"490G00011289"},{"icsId":"1011278","id":"490011278S","lat":51.466722,"lon":-0.213341,"name":"St Mary's Church / Putney Pier","parentId":"490G00011278","stationId":"490G00011278","stopLetter":"S","topMostParentId":"490G00011278"},{"icsId":"1007281","id":"490015157V","lat":51.468039,"lon":-0.211835,"name":"Putney Bridge Stn  / Gonville Street","parentId":"490G000536","stationId":"490G000536","stopLetter":"FH","topMostParentId":"490G000536"},{"icsId":"1008436","id":"490007051N","lat":51.470672,"lon":-0.211127,"name":"Fulham High Street","parentId":"490G00008436","stationId":"490G00008436","stopLetter":"FJ","topMostParentId":"490G00008436"},{"icsId":"1007054","id":"490007054E","lat":51.47195,"lon":-0.210617,"name":"Fulham Palace Road","parentId":"490G00007054","stationId":"490G00007054","stopLetter":"FP","topMostParentId":"490G00007054"},{"icsId":"1010123","id":"490010123E2","lat":51.473917,"lon":-0.207487,"name":"Munster Road","parentId":"490G00010123","stationId":"490G00010123","stopLetter":"FR","topMostParentId":"490G00010123"},{"icsId":"1011385","id":"490011385E","lat":51.476372,"lon":-0.204568,"name":"Radipole Road","parentId":"490G00011385","stationId":"490G00011385","stopLetter":"S","topMostParentId":"490G00011385"},{"icsId":"1010861","id":"490010861T","lat":51.47773,"lon":-0.20162,"name":"Parsons Green Lane / Fulham Library","parentId":"490G000699","stationId":"490G000699","stopLetter":"T","topMostParentId":"490G000699"},{"icsId":"1000352","id":"490008547E","lat":51.480217,"lon":-0.198441,"name":"Fulham Broadway","parentId":"490G00000352","stationId":"490G00000352","stopLetter":"E","topMostParentId":"490G00000352"},{"icsId":"1000084","id":"490000084L","lat":51.480291,"lon":-0.194477,"name":"Fulham Broadway Station","parentId":"490G00084L","stationId":"490G00084L","stopLetter":"L","topMostParentId":"940GZZLUFBY","zone":"2"},{"icsId":"1005075","id":"490005075E","lat":51.480342,"lon":-0.192531,"name":"Chelsea Village","parentId":"490G00005075","stationId":"490G00005075","stopLetter":"U","topMostParentId":"490G00005075"},{"icsId":"1005069","id":"490005069E","lat":51.480186,"lon":-0.190017,"name":"Chelsea Football Club","parentId":"490G00005069","stationId":"490G00005069","stopLetter":"V","topMostParentId":"490G00005069"},{"icsId":"1008380","id":"490008380HD","lat":51.48227,"lon":-0.186939,"name":"Hortensia Road","parentId":"490G00008380","stationId":"490G00008380","stopLetter":"HD","topMostParentId":"490G00008380"},{"icsId":"1006437","id":"490006437HE","lat":51.483794,"lon":-0.184891,"name":"Edith Grove","parentId":"490G00006437","stationId":"490G00006437","stopLetter":"HE","topMostParentId":"490G00006437"},{"icsId":"1005062","id":"490005062HF","lat":51.48515,"lon":-0.182489,"name":"Chelsea and Westminster Hospital","parentId":"490G00005062","stationId":"490G00005062","stopLetter":"HF","topMostParentId":"490G00005062"},{"icsId":"1003726","id":"490003726E","lat":51.487562,"lon":-0.178547,"name":"Fulham Road / Beaufort Street","parentId":"490G00003726","stationId":"490G00003726","stopLetter":"HH","topMostParentId":"490G00003726"},{"icsId":"1006514","id":"490006514N","lat":51.489108,"lon":-0.176152,"name":"Old Church Street","parentId":"490G00006514","stationId":"490G00006514","stopLetter":"HJ","topMostParentId":"490G00006514"},{"icsId":"1015421","id":"490015421E","lat":51.490724,"lon":-0.173725,"name":"Royal Brompton Hosp / Royal Marsden Hosp","parentId":"490G00015421","stationId":"490G00015421","stopLetter":"HM","topMostParentId":"490G00015421"},{"icsId":"1010603","id":"490010603N","lat":51.492275,"lon":-0.172266,"name":"Onslow Square","parentId":"490G00010603","stationId":"490G00010603","stopLetter":"HT","topMostParentId":"490G00010603"},{"icsId":"1015173","id":"490015173D","lat":51.49345,"lon":-0.173746,"name":"Sth Kensington Stn  / Old Brompton Rd","parentId":"490G000866","stationId":"490G000866","stopLetter":"B","topMostParentId":"490G000866"},{"icsId":"1000212","id":"490000212E","lat":51.494464,"lon":-0.174815,"name":"South Kensington Station","parentId":"490G00212G","stationId":"490G00212G","stopLetter":"E","topMostParentId":"940GZZLUSKS","zone":"1"},{"icsId":"1004436","id":"490004436C","lat":51.496229,"lon":-0.170883,"name":"Victoria and Albert Museum","parentId":"490G00004436","stationId":"490G00004436","stopLetter":"M","topMostParentId":"490G00004436"},{"icsId":"1004437","id":"490004437E","lat":51.497773,"lon":-0.167306,"name":"Brompton Square","parentId":"490G00004437","stationId":"490G00004437","stopLetter":"KW","topMostParentId":"490G00004437"},{"icsId":"1007841","id":"490007841KB","lat":51.499408,"lon":-0.164273,"name":"Harrods","parentId":"490G00007841","stationId":"490G00007841","stopLetter":"KB","topMostParentId":"490G00007841"},{"icsId":"1000130","id":"490000130KD","lat":51.500735,"lon":-0.162332,"name":"Knightsbridge Station","parentId":"490G00130KD","stationId":"490G00130KD","stopLetter":"KD","topMostParentId":"940GZZLUKNB","zone":"1"},{"icsId":"1000119","id":"490000119T","lat":51.503024,"lon":-0.153508,"name":"Hyde Park Corner Station","parentId":"490G00119S","stationId":"490G00119S","stopLetter":"T","topMostParentId":"940GZZLUHPC","zone":"1"},{"icsId":"1010574","id":"490010574D","lat":51.504278,"lon":-0.148025,"name":"Old Park Lane / Hard Rock Cafe","parentId":"490G00010574","stationId":"490G00010574","stopLetter":"D","topMostParentId":"490G00010574"},{"icsId":"1000093","id":"490000093PB","lat":51.507015,"lon":-0.142554,"name":"Green Park Station","parentId":"490G00093PE","stationId":"490G00093PE","stopLetter":"J","topMostParentId":"940GZZLUGPK","zone":"1"},{"icsId":"1010526","id":"490011748H","lat":51.508295,"lon":-0.13936,"name":"Old Bond Street / Royal Academy","parentId":"490G00010526","stationId":"490G00010526","stopLetter":"L","topMostParentId":"490G00010526"},{"icsId":"1000179","id":"490000179B","lat":51.509307,"lon":-0.136235,"name":"Piccadilly Circus","parentId":"490G00179B","stationId":"490G00179B","stopLetter":"B","topMostParentId":"940GZZLUPCC","zone":"1"},{"icsId":"1016425","id":"490016425WA","lat":51.512685,"lon":-0.13039,"name":"Gerrard Place / Chinatown","parentId":"490G00016425","stationId":"490G00016425","stopLetter":"P","topMostParentId":"490G00016425"},{"icsId":"1019157","id":"490004695A","lat":51.514339,"lon":-0.129803,"name":"Denmark Street","parentId":"490G00019157","stationId":"490G00019157","stopLetter":"A","topMostParentId":"490G00019157"},{"icsId":"1003794","id":"490004359OA","lat":51.518445,"lon":-0.125628,"name":"British Museum","parentId":"490G00003794","stationId":"490G00003794","stopLetter":"OA","topMostParentId":"490G00003794"},{"icsId":"1011816","id":"490011816N","lat":51.520125,"lon":-0.126078,"name":"Montague Street","parentId":"490G00011816","stationId":"490G00011816","stopLetter":"L","topMostParentId":"490G00011816"},{"icsId":"1000200","id":"490000200E","lat":51.522336,"lon":-0.127126,"name":"Russell Square","parentId":"490G00200H","stationId":"490G00200H","stopLetter":"E","topMostParentId":"940GZZLURSQ","zone":"1"}]}]}