{"direction":"outbound","lineId":"144","lineName":"144","mode":"bus","stopPointSequences":[{"stopPoint":[{"icsId":"1015188","id":"490015188S","lat":51.591302,"lon":-0.142048,"name":"Muswell Hill Broadway","parentId":"490G00015188","stationId":"490G00015188","stopLetter":"T","topMostParentId":"490G00015188"},{"icsId":"1015189","id":"490015188C","lat":51.590562,"lon":-0.140187,"name":"Muswell Hill Primary School","parentId":"490G00015189","stationId":"490G00015189","stopLetter":"C","topMostParentId":"490G00015189"},{"icsId":"1007545","id":"490007545E","lat":51.589703,"lon":-0.138187,"name":"Grosvenor Gardens","parentId":"490G00007545","stationId":"490G00007545","stopLetter":"MA","topMostParentId":"490G00007545"},{"icsId":"1000939","id":"490003211E","lat":51.587503,"lon":-0.13269,"name":"Park Road","parentId":"490G000248","stationId":"490G000248","stopLetter":"MB","topMostParentId":"490G000248"},{"icsId":"1008358","id":"490008358E","lat":51.586812,"lon":-0.128272,"name":"Hornsey Fire Station","parentId":"490G00008358","stationId":"490G00008358","stopLetter":"A","topMostParentId":"490G00008358"},{"icsId":"1009850","id":"490009850E","lat":51.586985,"lon":-0.12392,"name":"Nightingale Lane","parentId":"490G00009850","stationId":"490G00009850","stopLetter":"B","topMostParentId":"490G00009850"},{"icsId":"1010141","id":"490010141E","lat":51.587676,"lon":-0.118782,"name":"Myddelton Road","parentId":"490G00010141","stationId":"490G00010141","stopLetter":"C","topMostParentId":"490G00010141"},{"icsId":"1005275","id":"490005275E1","lat":51.588048,"lon":-0.113916,"name":"Tottenham Lane","parentId":"490G00005275","stationId":"490G00005275","stopLetter":"D","topMostParentId":"490G00005275"},{"icsId":"1014665","id":"490014665E","lat":51.58886,"lon":-0.111269,"name":"Wightman Road","parentId":"490G00014665","stationId":"490G00014665","stopLetter":"E","topMostParentId":"490G00014665"},{"icsId":"1014668","id":"490000241N","lat":51.589871,"lon":-0.105395,"name":"Wood Green High Road","parentId":"490G000834","stationId":"490G000834","stopLetter":"N","topMostParentId":"490G000834"},{"icsId":"1013852","id":"490013852T","lat":51.5902,"lon":-0.102407,"name":"Turnpike Lane Bus Station","parentId":"490G000808","stationId":"490G000808","stopLetter":"T","topMostParentId":"490G000808"},{"icsId":"1009461","id":"490000241L","lat":51.592028,"lon":-0.10532,"name":"Brampton Park Road","parentId":"490G00009461","stationId":"490G00009461","stopLetter":"L","topMostParentId":"490G00009461"},{"icsId":"1009469","id":"490009461J","lat":51.594098,"lon":-0.108193,"name":"Wood Green Shopping City","parentId":"490G00009469","stationId":"490G00009469","stopLetter":"J","topMostParentId":"490G00009469"},{"icsId":"1000275","id":"490014854HB","lat":51.595785,"lon":-0.109134,"name":"Wood Green Station","parentId":"490G00275D","stationId":"490G00275D","stopLetter":"HB","topMostParentId":"940GZZLUWOG","zone":"3"},{"icsId":"1015470","id":"490015470E","lat":51.597441,"lon":-0.108112,"name":"Redvers Road","parentId":"490G000899","stationId":"490G000899","stopLetter":"E","topMostParentId":"490G000899"},{"icsId":"1014853","id":"490014853E","lat":51.59865,"lon":-0.103889,"name":"Wood Green Crown Court","parentId":"490G00014853","stationId":"490G00014853","stopLetter":"NA","topMostParentId":"490G00014853"},{"icsId":"1010954","id":"490010954E","lat":51.599634,"lon":-0.100238,"name":"Perth Road","parentId":"490G00010954","stationId":"490G00010954","stopLetter":"NB","topMostParentId":"490G00010954"},{"icsId":"1007201","id":"490007201E","lat":51.598558,"lon":-0.096543,"name":"Gladstone Avenue","parentId":"490G00007201","stationId":"490G00007201","stopLetter":"NC","topMostParentId":"490G00007201"},{"icsId":"1014410","id":"490014410E","lat":51.598252,"lon":-0.093726,"name":"Westbury Avenue / Lordship Lane","parentId":"490G00014410","stationId":"490G00014410","stopLetter":"ND","topMostParentId":"490G00014410"},{"icsId":"1007377","id":"490007377N","lat":51.598876,"lon":-0.09227,"name":"Granville Road","parentId":"490G00007377","stationId":"490G00007377","stopLetter":"RA","topMostParentId":"490G00007377"},{"icsId":"1007323","id":"490007323N","lat":51.601808,"lon":-0.091209,"name":"Gospatrick Road","parentId":"490G00007323","stationId":"490G00007323","stopLetter":"RB","topMostParentId":"490G00007323"},{"icsId":"1005666","id":"490005666E","lat":51.602802,"lon":-0.088727,"name":"Courtman Road","parentId":"490G00005666","stationId":"490G00005666","stopLetter":"RC","topMostParentId":"490G00005666"},{"icsId":"1014597","id":"490014597N","lat":51.60493,"lon":-0.086327,"name":"White Hart Lane","parentId":"490G00014597","stationId":"490G00014597","stopLetter":"RD","topMostParentId":"490G00014597"},{"icsId":"1006564","id":"490006564N","lat":51.609496,"lon":-0.085644,"name":"Empire Parade","parentId":"490G00006564","stationId":"490G00006564","stopLetter":"NA","topMostParentId":"490G00006564"},{"icsId":"1010864","id":"490010864N","lat":51.612383,"lon":-0.086779,"name":"Pasteur Gardens","parentId":"490G00010864","stationId":"490G00010864","stopLetter":"NB","topMostParentId":"490G00010864"},{"icsId":"1019163","id":"490004712N","lat":51.61537,"lon":-0.086913,"name":"Cambridge Roundabout / South Side","parentId":"490G00019163","stationId":"490G00019163","stopLetter":"NC","topMostParentId":"490G00019163"},{"icsId":"1004712","id":"490004712E1","lat":51.616367,"lon":-0.084604,"name":"Cambridge Roundabout / East Side","parentId":"490G00004712","stationId":"490G00004712","stopLetter":"EC","topMostParentId":"490G00004712"},{"icsId":"1009357","id":"490009357E","lat":51.616561,"lon":-0.078875,"name":"North Middlesex Hospital","parentId":"490G00009357","stationId":"490G00009357","stopLetter":"K","topMostParentId":"490G00009357"},{"icsId":"1010388","id":"490010388M","lat":51.615399,"lon":-0.07215,"name":"Pymmes Park","parentId":"490G00010388","stationId":"490G00010388","stopLetter":"M","topMostParentId":"490G00010388"},{"icsId":"1014060","id":"490014060Q1","lat":51.61503,"lon":-0.069392,"name":"Victoria Road","parentId":"490G00014060","stationId":"490G00014060","stopLetter":"Q","topMostParentId":"490G00014060"},{"icsId":"1003324","id":"490003324B","lat":51.614741,"lon":-0.065533,"name":"Angel Corner / Silver Street Station","parentId":"490G000389","stationId":"490G000389","stopLetter":"B","topMostParentId":"490G000389"},{"icsId":"1003322","id":"490010801H","lat":51.616147,"lon":-0.064043,"name":"Angel Corner","parentId":"490G00003322","stationId":"490G00003322","stopLetter":"H","topMostParentId":"490G00003322"},{"icsId":"1010801","id":"490010801Z","lat":51.617817,"lon":-0.063395,"name":"Brettenham Road","parentId":"490G00010801","stationId":"490G00010801","stopLetter":"->N","topMostParentId":"490G00010801"},{"icsId":"1011968","id":"490011968N","lat":51.620899,"lon":-0.062122,"name":"Shrubbery Road","parentId":"490G00011968","stationId":"490G00011968","stopLetter":"L","topMostParentId":"490G00011968"},{"icsId":"1006445","id":"490006445B","lat":51.622697,"lon":-0.061569,"name":"Edmonton Police Station","parentId":"490G00006445","stationId":"490G00006445","stopLetter":"M","topMostParentId":"490G00006445"},{"icsId":"1001092","id":"490006442R","lat":51.62432,"lon":-0.060748,"name":"Edmonton Green Station","parentId":"490G01092D","stationId":"490G01092D","stopLetter":"N","topMostParentId":"910GEDMNGRN"},{"icsId":"1009983","id":"490009983A","lat":51.62518,"lon":-0.058877,"name":"Edmonton Green Bus Station","parentId":"490G00009983","stationId":"490G00009983","stopLetter":"A","topMostParentId":"490G00009983"}]}]}