{"direction":"outbound","lineId":"148","lineName":"148","mode":"bus","stopPointSequences":[{"stopPoint":[{"icsId":"1004687","id":"490004687S","lat":51.473283,"lon":-0.093195,"name":"Denmark Hill / Camberwell Green","parentId":"490G00004687","stationId":"490G00004687","stopLetter":"S","topMostParentId":"490G00004687"},{"icsId":"1015298","id":"490015298F","lat":51.474784,"lon":-0.093161,"name":"Camberwell Green","parentId":"490G00015298","stationId":"490G00015298","stopLetter":"F","topMostParentId":"490G00015298"},{"icsId":"1009784","id":"490009784D","lat":51.476702,"lon":-0.093873,"name":"Medlar Street","parentId":"490G00009784","stationId":"490G00009784","stopLetter":"D","topMostParentId":"490G00009784"},{"icsId":"1014979","id":"490014979N2","lat":51.478639,"lon":-0.094066,"name":"Wyndham Road","parentId":"490G00014979","stationId":"490G00014979","stopLetter":"U","topMostParentId":"490G00014979"},{"icsId":"1004221","id":"490004221N","lat":51.480561,"lon":-0.094461,"name":"Bowyer Place","parentId":"490G00004221","stationId":"490G00004221","stopLetter":"Z","topMostParentId":"490G00004221"},{"icsId":"1003138","id":"490003138N2","lat":51.481677,"lon":-0.094544,"name":"Camberwell Road / Albany Road","parentId":"490G00003138","stationId":"490G00003138","stopLetter":"X","topMostParentId":"490G00003138"},{"icsId":"1014501","id":"490014501M","lat":51.484044,"lon":-0.094085,"name":"Westmoreland Road","parentId":"490G00014501","stationId":"490G00014501","stopLetter":"M","topMostParentId":"490G00014501"},{"icsId":"1006380","id":"490006380H","lat":51.486956,"lon":-0.095145,"name":"East Street","parentId":"490G00006380","stationId":"490G00006380","stopLetter":"H","topMostParentId":"490G00006380"},{"icsId":"1008975","id":"490008975C","lat":51.48997,"lon":-0.096892,"name":"Larcom Street","parentId":"490G00008975","stationId":"490G00008975","stopLetter":"C","topMostParentId":"490G00008975"},{"icsId":"1008122","id":"490008122N","lat":51.492352,"lon":-0.098478,"name":"Heygate Street","parentId":"490G00008122","stationId":"490G00008122","stopLetter":"Z","topMostParentId":"490G00008122"},{"icsId":"1000073","id":"490000073V","lat":51.494441,"lon":-0.100869,"name":"Elephant & Castle Station","parentId":"490G00073G","stationId":"490G00073G","stopLetter":"V","topMostParentId":"HUBEPH","zone":"1+2"},{"icsId":"1009270","id":"490009270Z","lat":51.495252,"lon":-0.10206,"name":"London College Of Communication","parentId":"490G000641","stationId":"490G000641","stopLetter":"Z","topMostParentId":"490G000641"},{"icsId":"1008479","id":"490008473N","lat":51.496456,"lon":-0.1059,"name":"St George's Road / Imperial War Museum","parentId":"490G000609","stationId":"490G000609","stopLetter":"N","topMostParentId":"490G000609"},{"icsId":"1000132","id":"490000132B","lat":51.498557,"lon":-0.111821,"name":"Lambeth North Station","parentId":"490G00132G","stationId":"490G00132G","stopLetter":"B","topMostParentId":"940GZZLULBN","zone":"1"},{"icsId":"1009420","id":"490009420W","lat":51.499398,"lon":-0.113774,"name":"Lower Marsh","parentId":"490G00009420","stationId":"490G00009420","stopLetter":"A","topMostParentId":"490G00009420"},{"icsId":"1018956","id":"490005646D","lat":51.500719,"lon":-0.119368,"name":"St Thomas' Hospital / County Hall","parentId":"490G00018956","stationId":"490G00018956","stopLetter":"D","topMostParentId":"490G00018956"},{"icsId":"1015048","id":"490015048W","lat":51.500173,"lon":-0.12681,"name":"Parliament Square / Westminster Abbey","parentId":"490G000852","stationId":"490G000852","stopLetter":"P","topMostParentId":"HUBWSM"},{"icsId":"1019865","id":"490014495V","lat":51.498691,"lon":-0.131438,"name":"Great Smith Street / Westminster Abbey","parentId":"490G00019865","stationId":"490G00019865","stopLetter":"V","topMostParentId":"490G00019865"},{"icsId":"1000221","id":"490010260SD","lat":51.497585,"lon":-0.134797,"name":"St James's Park Station","parentId":"490G00221V","stationId":"490G00221V","stopLetter":"SD","topMostParentId":"940GZZLUSJP","zone":"1"},{"icsId":"1003384","id":"490003384SB","lat":51.49715,"lon":-0.137451,"name":"Westminster City Hall","parentId":"490G000394","stationId":"490G000394","stopLetter":"SB","topMostParentId":"490G000394"},{"icsId":"1014502","id":"490014496M","lat":51.496626,"lon":-0.141276,"name":"Westminster Cathedral / Victoria Stn","parentId":"490G000830","stationId":"490G000830","stopLetter":"M","topMostParentId":"490G000830"},{"icsId":"1007544","id":"490007544Q","lat":51.496919,"lon":-0.145557,"name":"Grosvenor Gardens","parentId":"490G000551","stationId":"490G000551","stopLetter":"Q","topMostParentId":"490G000551"},{"icsId":"1014728","id":"490005138N","lat":51.499381,"lon":-0.148281,"name":"Wilton Street","parentId":"490G00014728","stationId":"490G00014728","stopLetter":"U","topMostParentId":"490G00014728"},{"icsId":"1000119","id":"490000119K","lat":51.501349,"lon":-0.15104,"name":"Hyde Park Corner","parentId":"490G00119F","stationId":"490G00119F","stopLetter":"K","topMostParentId":"940GZZLUHPC","zone":"1"},{"icsId":"1009277","id":"490009277Y","lat":51.505089,"lon":-0.152113,"name":"London Hilton Hotel","parentId":"490G00009277","stationId":"490G00009277","stopLetter":"Y","topMostParentId":"490G00009277"},{"icsId":"1006111","id":"490006111N2","lat":51.508589,"lon":-0.155128,"name":"Dorchester Hotel","parentId":"490G00006111","stationId":"490G00006111","stopLetter":"T","topMostParentId":"490G00006111"},{"icsId":"1000144","id":"490000144W","lat":51.511607,"lon":-0.158349,"name":"Marble Arch","parentId":"490G00144R","stationId":"490G00144R","stopLetter":"W","topMostParentId":"940GZZLUMBA","zone":"1"},{"icsId":"1008447","id":"490000144A","lat":51.512836,"lon":-0.163315,"name":"Marble Arch / Bayswater Road","parentId":"490G00008447","stationId":"490G00008447","stopLetter":"A","topMostParentId":"490G00008447"},{"icsId":"1008446","id":"490008446W","lat":51.51247,"lon":-0.166918,"name":"Hyde Park Street","parentId":"490G00008446","stationId":"490G00008446","stopLetter":"B","topMostParentId":"490G00008446"},{"icsId":"1014055","id":"490014055W","lat":51.512088,"lon":-0.170652,"name":"Victoria Gate","parentId":"490G00014055","stationId":"490G00014055","stopLetter":"LD","topMostParentId":"490G00014055"},{"icsId":"1000133","id":"490000133B","lat":51.511601,"lon":-0.175225,"name":"Lancaster Gate Station","parentId":"490G00133B","stationId":"490G00133B","stopLetter":"LC","topMostParentId":"940GZZLULGT","zone":"1"},{"icsId":"1009081","id":"490009081W","lat":51.510797,"lon":-0.180748,"name":"Leinster Terrace","parentId":"490G00009081","stationId":"490G00009081","stopLetter":"LG","topMostParentId":"490G00009081"},{"icsId":"1011121","id":"490011121W","lat":51.510399,"lon":-0.184107,"name":"Porchester Terrace","parentId":"490G00011121","stationId":"490G00011121","stopLetter":"D","topMostParentId":"490G00011121"},{"icsId":"1000187","id":"490000187A","lat":51.510213,"lon":-0.187761,"name":"Queensway Station","parentId":"490G00187B","stationId":"490G00187B","stopLetter":"A","topMostParentId":"940GZZLUQWY","zone":"1"},{"icsId":"1010727","id":"490010727W","lat":51.50999,"lon":-0.191372,"name":"Palace Court","parentId":"490G00010727","stationId":"490G00010727","stopLetter":"S","topMostParentId":"490G00010727"},{"icsId":"1000167","id":"490000167H","lat":51.509286,"lon":-0.194671,"name":"Notting Hill Gate Station","parentId":"490G00167G","stationId":"490G00167G","stopLetter":"H","topMostParentId":"940GZZLUNHG","zone":"1+2"},{"icsId":"1019162","id":"490015465E","lat":51.50865,"lon":-0.198357,"name":"Notting Hill Gate Stn  / Hillgate St","parentId":"490G00019162","stationId":"490G00019162","stopLetter":"E","topMostParentId":"490G00019162"},{"icsId":"1000113","id":"490000113A","lat":51.507592,"lon":-0.20386,"name":"Holland Park","parentId":"490G00113G","stationId":"490G00113G","stopLetter":"HA","topMostParentId":"940GZZLUHPK","zone":"2"},{"icsId":"1000113","id":"490000113G","lat":51.506961,"lon":-0.206118,"name":"Holland Park Station","parentId":"490G00113G","stationId":"490G00113G","stopLetter":"HB","topMostParentId":"940GZZLUHPK","zone":"2"},{"icsId":"1010305","id":"490010305W","lat":51.505698,"lon":-0.211125,"name":"Norland Square","parentId":"490G00010305","stationId":"490G00010305","stopLetter":"HC","topMostParentId":"490G00010305"},{"icsId":"1008651","id":"490008651W","lat":51.505106,"lon":-0.214188,"name":"Royal Crescent","parentId":"490G00008651","stationId":"490G00008651","stopLetter":"HD","topMostParentId":"490G00008651"},{"icsId":"1000203","id":"490015036L","lat":51.503956,"lon":-0.219579,"name":"Shepherd's Bush Station","parentId":"490G00203A","stationId":"490G00203A","stopLetter":"E","topMostParentId":"HUBSPB","zone":"2"},{"icsId":"1012068","id":"490012068S","lat":51.503874,"lon":-0.224236,"name":"Shepherd's Bush Green","parentId":"490G000742","stationId":"490G000742","stopLetter":"N","topMostParentId":"490G000742"},{"icsId":"1009501","id":"490009501Q","lat":51.506345,"lon":-0.224702,"name":"Uxbridge Rd / Westfield Shopping Centre","parentId":"490G000650","stationId":"490G000650","stopLetter":"S","topMostParentId":"490G000650"},{"icsId":"1018981","id":"490003375WD","lat":51.508449,"lon":-0.224721,"name":"Ariel Way / White City Bus Station","parentId":"490G00018981","stationId":"490G00018981","stopLetter":"WD","topMostParentId":"490G00018981"},{"icsId":"1003375","id":"490003375AP","lat":51.508808,"lon":-0.224059,"name":"White City Bus Station","parentId":"490G00003375","stationId":"490G00003375","stopLetter":"WG","topMostParentId":"490G00003375"}]}]}