{"direction":"outbound","lineId":"151","lineName":"151","mode":"bus","stopPointSequences":[{"stopPoint":[{"icsId":"1014135","id":"490014135S2","lat":51.357289,"lon":-0.151159,"name":"Shotfield","parentId":"490G00014135","stationId":"490G00014135","stopLetter":"F","topMostParentId":"490G00014135"},{"icsId":"1003775","id":"490003775K","lat":51.358958,"lon":-0.149799,"name":"Wallington Town Centre","parentId":"490G000407","stationId":"490G000407","stopLetter":"K","topMostParentId":"490G000407"},{"icsId":"1001306","id":"490001306C","lat":51.360655,"lon":-0.150736,"name":"Wallington Station","parentId":"490G01306B","stationId":"490G01306B","stopLetter":"C","topMostParentId":"910GWALNGTN"},{"icsId":"1011352","id":"490011352N","lat":51.364186,"lon":-0.151671,"name":"Queens Road","parentId":"490G00011352","stationId":"490G00011352","stopLetter":"GK","topMostParentId":"490G00011352"},{"icsId":"1019797","id":"490014137N","lat":51.366649,"lon":-0.153353,"name":"Manor Road / Acre Lane","parentId":"490G00019797","stationId":"490G00019797","stopLetter":"GL","topMostParentId":"490G00019797"},{"icsId":"1004659","id":"490004659N","lat":51.368903,"lon":-0.154283,"name":"Butter Hill","parentId":"490G00004659","stationId":"490G00004659","stopLetter":"GM","topMostParentId":"490G00004659"},{"icsId":"1004218","id":"490004218N","lat":51.3708,"lon":-0.152511,"name":"Bowman's Meadow","parentId":"490G00004218","stationId":"490G00004218","stopLetter":"GN","topMostParentId":"490G00004218"},{"icsId":"1003781","id":"490003781N","lat":51.373761,"lon":-0.150984,"name":"Beddington Park","parentId":"490G00003781","stationId":"490G00003781","stopLetter":"GQ","topMostParentId":"490G00003781"},{"icsId":"1010811","id":"490010811N","lat":51.375293,"lon":-0.152344,"name":"Park Road","parentId":"490G00010811","stationId":"490G00010811","stopLetter":"E","topMostParentId":"490G00010811"},{"icsId":"1007616","id":"490007616N","lat":51.378674,"lon":-0.155154,"name":"Hackbridge Corner / Hackbridge Station","parentId":"490G000558","stationId":"490G000558","stopLetter":"B","topMostParentId":"490G000558"},{"icsId":"1005599","id":"490005599S2","lat":51.37756,"lon":-0.159251,"name":"Corbet Close","parentId":"490G00005599","stationId":"490G00005599","stopLetter":"H","topMostParentId":"490G00005599"},{"icsId":"1010270","id":"490010270S","lat":51.375774,"lon":-0.160602,"name":"Nightingale Close","parentId":"490G00010270","stationId":"490G00010270","stopLetter":"J","topMostParentId":"490G00010270"},{"icsId":"1012915","id":"490012915S","lat":51.373407,"lon":-0.16334,"name":"Strawberry Lane","parentId":"490G00012915","stationId":"490G00012915","stopLetter":"K","topMostParentId":"490G00012915"},{"icsId":"1014966","id":"490014966W","lat":51.37196,"lon":-0.166846,"name":"Wrythe Green","parentId":"490G00014966","stationId":"490G00014966","stopLetter":"D","topMostParentId":"490G00014966"},{"icsId":"1012737","id":"490012737N","lat":51.37334,"lon":-0.168831,"name":"St John's Road","parentId":"490G00012737","stationId":"490G00012737","stopLetter":"E","topMostParentId":"490G00012737"},{"icsId":"1010128","id":"490010128N","lat":51.377692,"lon":-0.170526,"name":"Muschamp Road","parentId":"490G00010128","stationId":"490G00010128","stopLetter":"F","topMostParentId":"490G00010128"},{"icsId":"1015101","id":"490015101N","lat":51.380153,"lon":-0.171491,"name":"Green Wrythe Lane / Waltham Road","parentId":"490G00015101","stationId":"490G00015101","stopLetter":"H","topMostParentId":"490G00015101"},{"icsId":"1014338","id":"490014338N","lat":51.382069,"lon":-0.172665,"name":"Welbeck Road","parentId":"490G00014338","stationId":"490G00014338","stopLetter":"J","topMostParentId":"490G00014338"},{"icsId":"1007520","id":"490007520W","lat":51.383351,"lon":-0.174151,"name":"Thornton Road / Green Wrythe Lane","parentId":"490G00007520","stationId":"490G00007520","stopLetter":"P","topMostParentId":"490G00007520"},{"icsId":"1014161","id":"490014161W","lat":51.382207,"lon":-0.177502,"name":"Waltham Road","parentId":"490G00014161","stationId":"490G00014161","stopLetter":"R","topMostParentId":"490G00014161"},{"icsId":"1012718","id":"490012718HA","lat":51.380794,"lon":-0.183809,"name":"St Helier Hospital","parentId":"490G00012718","stationId":"490G00012718","stopLetter":"HA","topMostParentId":"490G00012718"},{"icsId":"1015406","id":"490015406RL","lat":51.383769,"lon":-0.189526,"name":"Wrythe Lane / Rose Hill Roundabout","parentId":"490G00015406","stationId":"490G00015406","stopLetter":"RL","topMostParentId":"490G00015406"},{"icsId":"1015407","id":"490015407S1","lat":51.383065,"lon":-0.190488,"name":"Rose Hill / Rose Hill Roundabout","parentId":"490G00015407","stationId":"490G00015407","stopLetter":"RP","topMostParentId":"490G00015407"},{"icsId":"1011692","id":"490011692S","lat":51.378997,"lon":-0.192043,"name":"Rosehill Park West","parentId":"490G00011692","stationId":"490G00011692","stopLetter":"RU","topMostParentId":"490G00011692"},{"icsId":"1011691","id":"490011691P","lat":51.375801,"lon":-0.192973,"name":"Cranleigh Gardens","parentId":"490G00011691","stationId":"490G00011691","stopLetter":"Q","topMostParentId":"490G00011691"},{"icsId":"1013072","id":"490013072B","lat":51.369797,"lon":-0.194934,"name":"Sutton Green","parentId":"490G00013072","stationId":"490G00013072","stopLetter":"B","topMostParentId":"490G00013072"},{"icsId":"1013062","id":"490013062C","lat":51.367873,"lon":-0.194966,"name":"High Street / Marshalls Road","parentId":"490G00013062","stationId":"490G00013062","stopLetter":"C","topMostParentId":"490G00013062"},{"icsId":"1003892","id":"490003892E","lat":51.367067,"lon":-0.193403,"name":"Benhill Avenue","parentId":"490G00003892","stationId":"490G00003892","stopLetter":"E","topMostParentId":"490G00003892"},{"icsId":"1009575","id":"490009575I","lat":51.365482,"lon":-0.192675,"name":"Manor Place","parentId":"490G00009575","stationId":"490G00009575","stopLetter":"I","topMostParentId":"490G00009575"},{"icsId":"1013679","id":"490013679J","lat":51.363743,"lon":-0.191896,"name":"Times Square","parentId":"490G00013679","stationId":"490G00013679","stopLetter":"J","topMostParentId":"490G00013679"},{"icsId":"1013081","id":"490013081K","lat":51.361853,"lon":-0.191195,"name":"Sutton Police Station","parentId":"490G00013081","stationId":"490G00013081","stopLetter":"K","topMostParentId":"490G00013081"},{"icsId":"1013082","id":"490013082S","lat":51.359958,"lon":-0.19308,"name":"Sutton Post Office","parentId":"490G00013082","stationId":"490G00013082","stopLetter":"S","topMostParentId":"490G00013082"},{"icsId":"1013080","id":"490013080T","lat":51.36074,"lon":-0.19539,"name":"Sutton Park Road","parentId":"490G00013080","stationId":"490G00013080","stopLetter":"T","topMostParentId":"490G00013080"},{"icsId":"1012085","id":"490012085W","lat":51.36097,"lon":-0.199231,"name":"Sherwood Park Road","parentId":"490G00012085","stationId":"490G00012085","stopLetter":"F","topMostParentId":"490G00012085"},{"icsId":"1007103","id":"490005060W","lat":51.360042,"lon":-0.204409,"name":"Cheam Road / Gander Green Lane","parentId":"490G00007103","stationId":"490G00007103","stopLetter":"E","topMostParentId":"490G00007103"},{"icsId":"1012437","id":"490012437J","lat":51.358982,"lon":-0.211575,"name":"St Dunstan's Hill","parentId":"490G00012437","stationId":"490G00012437","stopLetter":"J","topMostParentId":"490G00012437"},{"icsId":"1005056","id":"490005056D","lat":51.358439,"lon":-0.216609,"name":"Cheam Broadway","parentId":"490G00005056","stationId":"490G00005056","stopLetter":"D","topMostParentId":"490G00005056"},{"icsId":"1009451","id":"490009451N","lat":51.361208,"lon":-0.218383,"name":"Lumley Road","parentId":"490G00009451","stationId":"490G00009451","stopLetter":"N","topMostParentId":"490G00009451"},{"icsId":"1013668","id":"490013668N","lat":51.363241,"lon":-0.2202,"name":"Tilehurst Road","parentId":"490G00013668","stationId":"490G00013668","stopLetter":"->N","topMostParentId":"490G00013668"},{"icsId":"1009524","id":"490009524S","lat":51.36644,"lon":-0.224156,"name":"Malden Road / Priory Road","parentId":"490G00009524","stationId":"490G00009524","stopLetter":"S","topMostParentId":"490G00009524"},{"icsId":"1010323","id":"490010323G","lat":51.370568,"lon":-0.227732,"name":"North Cheam / Queen Victoria","parentId":"490G00010323","stationId":"490G00010323","stopLetter":"G","topMostParentId":"490G00010323"},{"icsId":"1009283","id":"490009283A","lat":51.371586,"lon":-0.229086,"name":"Wellington Avenue","parentId":"490G00009283","stationId":"490G00009283","stopLetter":"A","topMostParentId":"490G00009283"},{"icsId":"1014815","id":"490014815N","lat":51.373727,"lon":-0.2333,"name":"Woodbine Lane","parentId":"490G00014815","stationId":"490G00014815","stopLetter":"->N","topMostParentId":"490G00014815"},{"icsId":"1009181","id":"490009181N","lat":51.375643,"lon":-0.23574,"name":"Lindsay Road","parentId":"490G00009181","stationId":"490G00009181","stopLetter":"->N","topMostParentId":"490G00009181"},{"icsId":"1000283","id":"490000283N","lat":51.377481,"lon":-0.239506,"name":"Brabham Court","parentId":"490G00000283","stationId":"490G00000283","stopLetter":"->N","topMostParentId":"490G00000283"},{"icsId":"1009304","id":"490009304D","lat":51.378901,"lon":-0.242441,"name":"Longfellow Road","parentId":"490G00009304","stationId":"490G00009304","stopLetter":"D","topMostParentId":"490G00009304"},{"icsId":"1001346","id":"490001346A","lat":51.381219,"lon":-0.245312,"name":"Worcester Park Station","parentId":"490G01346A","stationId":"490G01346A","stopLetter":"A","topMostParentId":"910GWRCSTRP"}]}]}