{"direction":"outbound","lineId":"157","lineName":"157","mode":"bus","stopPointSequences":[{"stopPoint":[{"icsId":"1005879","id":"490005869D","lat":51.420429,"lon":-0.078078,"name":"Crystal Palace Bus Station","parentId":"490G00005879","stationId":"490G00005879","stopLetter":"D","topMostParentId":"490G00005879"},{"icsId":"1005877","id":"490005870E","lat":51.419757,"lon":-0.077129,"name":"Crystal Palace Park","parentId":"490G00005877","stationId":"490G00005877","stopLetter":"E","topMostParentId":"490G00005877"},{"icsId":"1001078","id":"490001078M","lat":51.417826,"lon":-0.073974,"name":"Crystal Palace Station","parentId":"490G01078M","stationId":"490G01078M","stopLetter":"M","topMostParentId":"HUBCYP"},{"icsId":"1003320","id":"490007700S","lat":51.41576,"lon":-0.071918,"name":"Hamlet Road","parentId":"490G00003320","stationId":"490G00003320","stopLetter":"A","topMostParentId":"490G00003320"},{"icsId":"1013610","id":"490013610S","lat":51.414224,"lon":-0.069883,"name":"Thicket Road","parentId":"490G00013610","stationId":"490G00013610","stopLetter":"B","topMostParentId":"490G00013610"},{"icsId":"1018975","id":"490001007AA","lat":51.41208,"lon":-0.066896,"name":"Anerley Road / Anerley Station","parentId":"490G00018975","stationId":"490G00018975","stopLetter":"C","topMostParentId":"490G00018975"},{"icsId":"1012015","id":"490012015S","lat":51.410984,"lon":-0.065346,"name":"Seymour Villas","parentId":"490G00012015","stationId":"490G00012015","stopLetter":"D","topMostParentId":"490G00012015"},{"icsId":"1003955","id":"490003955AG","lat":51.409676,"lon":-0.062942,"name":"Betts Way","parentId":"490G00003955","stationId":"490G00003955","stopLetter":"U","topMostParentId":"490G00003955"},{"icsId":"1018973","id":"490003317AH","lat":51.409224,"lon":-0.060071,"name":"Anerley Road / Croydon Road","parentId":"490G00018973","stationId":"490G00018973","stopLetter":"V","topMostParentId":"490G00018973"},{"icsId":"1015130","id":"490015130AN","lat":51.408065,"lon":-0.060652,"name":"Anerley Road / Worbeck Road","parentId":"490G00015130","stationId":"490G00015130","stopLetter":"L","topMostParentId":"490G00015130"},{"icsId":"1003318","id":"490003318AV","lat":51.406753,"lon":-0.063425,"name":"Anerley / The Mitre","parentId":"490G00003318","stationId":"490G00003318","stopLetter":"M","topMostParentId":"490G00003318"},{"icsId":"1006061","id":"490006061W","lat":51.405445,"lon":-0.06591,"name":"Derwent Road","parentId":"490G00006061","stationId":"490G00006061","stopLetter":"N","topMostParentId":"490G00006061"},{"icsId":"1011984","id":"490011984W","lat":51.403657,"lon":-0.068732,"name":"Selby Road","parentId":"490G00011984","stationId":"490G00011984","stopLetter":"P","topMostParentId":"490G00011984"},{"icsId":"1013379","id":"490013379S","lat":51.401783,"lon":-0.071269,"name":"Sunnybank","parentId":"490G00013379","stationId":"490G00013379","stopLetter":"->S","topMostParentId":"490G00013379"},{"icsId":"1011128","id":"490011128M","lat":51.40022,"lon":-0.073549,"name":"Portland Road","parentId":"490G000710","stationId":"490G000710","stopLetter":"M","topMostParentId":"490G000710"},{"icsId":"1012320","id":"490012320A","lat":51.397782,"lon":-0.077892,"name":"South Norwood Clock Tower","parentId":"490G00012320","stationId":"490G00012320","stopLetter":"A","topMostParentId":"490G00012320"},{"icsId":"1010805","id":"490010805W","lat":51.396963,"lon":-0.080586,"name":"Selhurst Road / Park Road","parentId":"490G00010805","stationId":"490G00010805","stopLetter":"->W","topMostParentId":"490G00010805"},{"icsId":"1015286","id":"490015286W2","lat":51.395946,"lon":-0.083302,"name":"Clifton Road","parentId":"490G00015286","stationId":"490G00015286","topMostParentId":"490G00015286"},{"icsId":"1008038","id":"490008038W","lat":51.394087,"lon":-0.086197,"name":"Heavers Farm Centre","parentId":"490G00008038","stationId":"490G00008038","stopLetter":"A","topMostParentId":"490G00008038"},{"icsId":"1001245","id":"490001245W","lat":51.391623,"lon":-0.087838,"name":"Selhurst Station","parentId":"490G01245N","stationId":"490G01245N","stopLetter":"B","topMostParentId":"910GSELHRST"},{"icsId":"1013549","id":"490013549S","lat":51.389454,"lon":-0.088834,"name":"Selhurst New Road","parentId":"490G00013549","stationId":"490G00013549","stopLetter":"C","topMostParentId":"490G00013549"},{"icsId":"1003706","id":"490003706W","lat":51.388274,"lon":-0.092563,"name":"Beaconsfield Road","parentId":"490G00003706","stationId":"490G00003706","stopLetter":"D","topMostParentId":"490G00003706"},{"icsId":"1010343","id":"490010343W","lat":51.387517,"lon":-0.095239,"name":"Windmill Road","parentId":"490G00010343","stationId":"490G00010343","stopLetter":"E","topMostParentId":"490G00010343"},{"icsId":"1019785","id":"490013376S","lat":51.385757,"lon":-0.09708,"name":"Cromwell Road","parentId":"490G00019785","stationId":"490G00019785","stopLetter":"H","topMostParentId":"490G00019785"},{"icsId":"1008271","id":"490015451S","lat":51.383277,"lon":-0.09826,"name":"Hogarth Crescent","parentId":"490G00008271","stationId":"490G00008271","stopLetter":"R","topMostParentId":"490G00008271"},{"icsId":"1003793","id":"490003793S","lat":51.381073,"lon":-0.099329,"name":"Bedford Hall","parentId":"490G00003793","stationId":"490G00003793","stopLetter":"T","topMostParentId":"490G00003793"},{"icsId":"1014420","id":"490014420X","lat":51.378915,"lon":-0.101559,"name":"West Croydon Bus Station","parentId":"490G000824","stationId":"490G000824","stopLetter":"B3","topMostParentId":"HUBWCY"},{"icsId":"1011806","id":"490011806W11","lat":51.376852,"lon":-0.103039,"name":"Ruskin Road","parentId":"490G00011806","stationId":"490G00011806","stopLetter":"CJ","topMostParentId":"490G00011806"},{"icsId":"1002023","id":"490002023W13","lat":51.374271,"lon":-0.104654,"name":"Church Street Tram Stop","parentId":"490G02023W13","stationId":"490G02023W13","stopLetter":"CL","topMostParentId":"940GZZCRCHR"},{"icsId":"1009410","id":"490009410W","lat":51.374548,"lon":-0.107875,"name":"Rectory Grove","parentId":"490G00009410","stationId":"490G00009410","topMostParentId":"490G00009410"},{"icsId":"1014111","id":"490014111S","lat":51.372253,"lon":-0.110025,"name":"Waddon New Road / Waddon Road","parentId":"490G00014111","stationId":"490G00014111","stopLetter":"D","topMostParentId":"490G00014111"},{"icsId":"1006611","id":"490006611W","lat":51.369372,"lon":-0.113692,"name":"Epsom Road","parentId":"490G00006611","stationId":"490G00006611","topMostParentId":"490G00006611"},{"icsId":"1013586","id":"490013586W","lat":51.367064,"lon":-0.116143,"name":"Waddon Station","parentId":"490G000797","stationId":"490G000797","stopLetter":"WA","topMostParentId":"490G000797"},{"icsId":"1006869","id":"490006869W2","lat":51.365209,"lon":-0.117641,"name":"Waddon Leisure Centre / Fiveways","parentId":"490G00006869","stationId":"490G00006869","stopLetter":"WB","topMostParentId":"490G00006869"},{"icsId":"1012464","id":"490012464W","lat":51.363724,"lon":-0.119296,"name":"Stafford Gardens","parentId":"490G00012464","stationId":"490G00012464","stopLetter":"WJ","topMostParentId":"490G00012464"},{"icsId":"1013291","id":"490013291W","lat":51.361833,"lon":-0.122491,"name":"The Chase","parentId":"490G00013291","stationId":"490G00013291","stopLetter":"WK","topMostParentId":"490G00013291"},{"icsId":"1007755","id":"490007755W","lat":51.360717,"lon":-0.126386,"name":"Hannibal Way","parentId":"490G00007755","stationId":"490G00007755","stopLetter":"->W","topMostParentId":"490G00007755"},{"icsId":"1011061","id":"490011061W","lat":51.360181,"lon":-0.131076,"name":"Plough Lane","parentId":"490G00011061","stationId":"490G00011061","stopLetter":"V","topMostParentId":"490G00011061"},{"icsId":"1009796","id":"490009796W","lat":51.359863,"lon":-0.134292,"name":"Mellows Park","parentId":"490G00009796","stationId":"490G00009796","stopLetter":"W","topMostParentId":"490G00009796"},{"icsId":"1011925","id":"490011925W","lat":51.359456,"lon":-0.138633,"name":"Stafford Road / Sandy Lane South","parentId":"490G00011925","stationId":"490G00011925","stopLetter":"U","topMostParentId":"490G00011925"},{"icsId":"1009932","id":"490009932W","lat":51.358798,"lon":-0.142523,"name":"Milton Road","parentId":"490G00009932","stationId":"490G00009932","stopLetter":"->W","topMostParentId":"490G00009932"},{"icsId":"1006478","id":"490006478W","lat":51.358262,"lon":-0.145604,"name":"Elgin Road","parentId":"490G00006478","stationId":"490G00006478","stopLetter":"->W","topMostParentId":"490G00006478"},{"icsId":"1014834","id":"490014834N","lat":51.357565,"lon":-0.148103,"name":"Stafford Road / Woodcote Road","parentId":"490G00014834","stationId":"490G00014834","stopLetter":"N","topMostParentId":"490G00014834"},{"icsId":"1003775","id":"490003775K","lat":51.358958,"lon":-0.149799,"name":"Wallington Town Centre","parentId":"490G000407","stationId":"490G000407","stopLetter":"K","topMostParentId":"490G000407"},{"icsId":"1001306","id":"490001306C","lat":51.360655,"lon":-0.150736,"name":"Wallington Station","parentId":"490G01306B","stationId":"490G01306B","stopLetter":"C","topMostParentId":"910GWALNGTN"},{"icsId":"1010770","id":"490010770W","lat":51.363619,"lon":-0.152829,"name":"Parkgate Road","parentId":"490G00010770","stationId":"490G00010770","stopLetter":"GE","topMostParentId":"490G00010770"},{"icsId":"1010783","id":"490010783N","lat":51.365392,"lon":-0.157441,"name":"Park Lane","parentId":"490G00010783","stationId":"490G00010783","stopLetter":"GF","topMostParentId":"490G00010783"},{"icsId":"1004821","id":"490004821E","lat":51.365587,"lon":-0.159559,"name":"Carshalton High Street","parentId":"490G00004821","stationId":"490G00004821","stopLetter":"E","topMostParentId":"490G00004821"},{"icsId":"1004823","id":"490004823G","lat":51.365872,"lon":-0.163972,"name":"Carshalton Ponds","parentId":"490G00004823","stationId":"490G00004823","stopLetter":"G","topMostParentId":"490G00004823"},{"icsId":"1001051","id":"490001051A","lat":51.368561,"lon":-0.165172,"name":"Carshalton Station","parentId":"490G01051A","stationId":"490G01051A","stopLetter":"A","topMostParentId":"910GCRSHLTN"},{"icsId":"1014966","id":"490014966W","lat":51.37196,"lon":-0.166846,"name":"Wrythe Green","parentId":"490G00014966","stationId":"490G00014966","stopLetter":"D","topMostParentId":"490G00014966"},{"icsId":"1014970","id":"490014970N","lat":51.371411,"lon":-0.170834,"name":"Wrythe Recreation Ground","parentId":"490G00014970","stationId":"490G00014970","stopLetter":"N","topMostParentId":"490G00014970"},{"icsId":"1011149","id":"490011149N","lat":51.372616,"lon":-0.174866,"name":"Poulton Avenue","parentId":"490G00011149","stationId":"490G00011149","stopLetter":"P","topMostParentId":"490G00011149"},{"icsId":"1010129","id":"490010129N","lat":51.37478,"lon":-0.177007,"name":"Muschamp Road","parentId":"490G00010129","stationId":"490G00010129","stopLetter":"R","topMostParentId":"490G00010129"},{"icsId":"1014339","id":"490014339N","lat":51.378075,"lon":-0.178385,"name":"Welbeck Road","parentId":"490G00014339","stationId":"490G00014339","stopLetter":"->N","topMostParentId":"490G00014339"},{"icsId":"1012718","id":"490012718HA","lat":51.380794,"lon":-0.183809,"name":"St Helier Hospital","parentId":"490G00012718","stationId":"490G00012718","stopLetter":"HA","topMostParentId":"490G00012718"},{"icsId":"1015406","id":"490015406RL","lat":51.383769,"lon":-0.189526,"name":"Wrythe Lane / Rose Hill Roundabout","parentId":"490G00015406","stationId":"490G00015406","stopLetter":"RL","topMostParentId":"490G00015406"},{"icsId":"1011696","id":"490011696RE","lat":51.385233,"lon":-0.189986,"name":"St Helier Avenue / Rose Hill Roundabout","parentId":"490G00011696","stationId":"490G00011696","stopLetter":"RE","topMostParentId":"490G00011696"},{"icsId":"1006116","id":"490006116N","lat":51.387042,"lon":-0.189498,"name":"Dore Gardens","parentId":"490G00006116","stationId":"490G00006116","topMostParentId":"490G00006116"},{"icsId":"1009856","id":"490009856S","lat":51.390598,"lon":-0.188596,"name":"St Helier Avenue / Middleton Road","parentId":"490G00009856","stationId":"490G00009856","stopLetter":"V","topMostParentId":"490G00009856"},{"icsId":"1005130","id":"490005130N","lat":51.39195,"lon":-0.188212,"name":"Chester Gardens","parentId":"490G00005130","stationId":"490G00005130","stopLetter":"U","topMostParentId":"490G00005130"},{"icsId":"1008944","id":"490008944N","lat":51.3941,"lon":-0.187667,"name":"Langdon Walk","parentId":"490G00008944","stationId":"490G00008944","stopLetter":"T","topMostParentId":"490G00008944"},{"icsId":"1005554","id":"490005554N","lat":51.397091,"lon":-0.18683,"name":"Connaught Gardens","parentId":"490G00005554","stationId":"490G00005554","stopLetter":"S","topMostParentId":"490G00005554"},{"icsId":"1004931","id":"490004931N","lat":51.399717,"lon":-0.188609,"name":"Morden Hall Road / Central Road","parentId":"490G00004931","stationId":"490G00004931","stopLetter":"R","topMostParentId":"490G00004931"},{"icsId":"1010060","id":"490010060W","lat":51.401463,"lon":-0.191042,"name":"Aberconway Road","parentId":"490G00010060","stationId":"490G00010060","stopLetter":"S","topMostParentId":"490G00010060"},{"icsId":"1000151","id":"490000151L","lat":51.402,"lon":-0.194917,"name":"Morden Station","parentId":"490G00151H","stationId":"490G00151H","stopLetter":"N","topMostParentId":"940GZZLUMDN","zone":"4"}]}]}