{"direction":"outbound","lineId":"159","lineName":"159","mode":"bus","stopPointSequences":[{"stopPoint":[{"icsId":"1001279","id":"490001279E","lat":51.425461,"lon":-0.131234,"name":"Streatham Station","parentId":"490G01279S3","stationId":"490G01279S3","stopLetter":"SF","topMostParentId":"910GSTRETHM"},{"icsId":"1012761","id":"490012761SQ","lat":51.428385,"lon":-0.13133,"name":"St Leonard's Church","parentId":"490G00012761","stationId":"490G00012761","stopLetter":"SK","topMostParentId":"490G00012761"},{"icsId":"1003758","id":"490003758OA","lat":51.432821,"lon":-0.129192,"name":"Becmead Avenue","parentId":"490G00003758","stationId":"490G00003758","stopLetter":"OA","topMostParentId":"490G00003758"},{"icsId":"1008765","id":"490008765M","lat":51.434493,"lon":-0.128621,"name":"Kingscourt Road","parentId":"490G00008765","stationId":"490G00008765","stopLetter":"M","topMostParentId":"490G00008765"},{"icsId":"1010078","id":"490010078K","lat":51.435944,"lon":-0.12823,"name":"Mount Ephraim Road","parentId":"490G00010078","stationId":"490G00010078","stopLetter":"K","topMostParentId":"490G00010078"},{"icsId":"1019944","id":"490001281A","lat":51.43941,"lon":-0.126261,"name":"Streatham Hill Stn  / Streatham Hill","parentId":"490G000969","stationId":"490G000969","stopLetter":"A","topMostParentId":"490G000969"},{"icsId":"1003598","id":"490003598S","lat":51.440784,"lon":-0.125572,"name":"Barrhill Road","parentId":"490G00003598","stationId":"490G00003598","stopLetter":"S","topMostParentId":"490G00003598"},{"icsId":"1013186","id":"490013186T","lat":51.442609,"lon":-0.124994,"name":"Telford Avenue","parentId":"490G00013186","stationId":"490G00013186","stopLetter":"T","topMostParentId":"490G00013186"},{"icsId":"1005234","id":"490005234N","lat":51.444593,"lon":-0.124754,"name":"Christchurch Road","parentId":"490G00005234","stationId":"490G00005234","stopLetter":"BS","topMostParentId":"490G00005234"},{"icsId":"1008310","id":"490008310N","lat":51.446923,"lon":-0.124788,"name":"Holmewood Road","parentId":"490G00008310","stationId":"490G00008310","stopLetter":"BT","topMostParentId":"490G00008310"},{"icsId":"1015218","id":"490015218N","lat":51.448859,"lon":-0.123845,"name":"New Park Road","parentId":"490G00015218","stationId":"490G00015218","stopLetter":"BU","topMostParentId":"490G00015218"},{"icsId":"1008544","id":"490008544N","lat":51.45108,"lon":-0.122142,"name":"Jebb Avenue / Brixton Prison","parentId":"490G00008544","stationId":"490G00008544","stopLetter":"BV","topMostParentId":"490G00008544"},{"icsId":"1004101","id":"490004101N","lat":51.453341,"lon":-0.120682,"name":"Blenheim Gardens","parentId":"490G00004101","stationId":"490G00004101","stopLetter":"BW","topMostParentId":"490G00004101"},{"icsId":"1011793","id":"490011793N","lat":51.457677,"lon":-0.117985,"name":"Rush Common","parentId":"490G00011793","stationId":"490G00011793","stopLetter":"BY","topMostParentId":"490G00011793"},{"icsId":"1008919","id":"490008919X","lat":51.459886,"lon":-0.116714,"name":"Lambeth Town Hall","parentId":"490G000627","stationId":"490G000627","stopLetter":"X","topMostParentId":"490G000627"},{"icsId":"1000031","id":"490000031R","lat":51.462238,"lon":-0.115292,"name":"Brixton Station","parentId":"490G00031N","stationId":"490G00031N","stopLetter":"R","topMostParentId":"HUBBRX","zone":"2"},{"icsId":"1007523","id":"490007523D","lat":51.465614,"lon":-0.113872,"name":"Brixton Road / Brixton Police Station","parentId":"490G000549","stationId":"490G000549","stopLetter":"D","topMostParentId":"490G000549"},{"icsId":"1014085","id":"490014085N","lat":51.467326,"lon":-0.112952,"name":"Villa Road","parentId":"490G00014085","stationId":"490G00014085","stopLetter":"RA","topMostParentId":"490G00014085"},{"icsId":"1009373","id":"490009373N1","lat":51.470603,"lon":-0.112658,"name":"Loughborough Road","parentId":"490G00009373","stationId":"490G00009373","stopLetter":"RB","topMostParentId":"490G00009373"},{"icsId":"1007587","id":"490007587N","lat":51.472882,"lon":-0.112881,"name":"Groveway","parentId":"490G00007587","stationId":"490G00007587","stopLetter":"RC","topMostParentId":"490G00007587"},{"icsId":"1008248","id":"490008248N","lat":51.474737,"lon":-0.113049,"name":"Hillyard Street","parentId":"490G00008248","stationId":"490G00008248","stopLetter":"RD","topMostParentId":"490G00008248"},{"icsId":"1014013","id":"490014013N","lat":51.477308,"lon":-0.112439,"name":"Vassall Road","parentId":"490G00014013","stationId":"490G00014013","stopLetter":"RE","topMostParentId":"490G00014013"},{"icsId":"1008642","id":"490008642H","lat":51.48064,"lon":-0.111063,"name":"St Mark's Church","parentId":"490G00008642","stationId":"490G00008642","stopLetter":"H","topMostParentId":"490G00008642"},{"icsId":"1008645","id":"490008645U","lat":51.485044,"lon":-0.110881,"name":"Kennington Park Post Office","parentId":"490G00008645","stationId":"490G00008645","stopLetter":"U","topMostParentId":"490G00008645"},{"icsId":"1014773","id":"490014773KP","lat":51.487706,"lon":-0.111448,"name":"Windmill Row","parentId":"490G00014773","stationId":"490G00014773","stopLetter":"KP","topMostParentId":"490G00014773"},{"icsId":"1008643","id":"490008643KH","lat":51.49005,"lon":-0.11125,"name":"Kennington Lane","parentId":"490G00008643","stationId":"490G00008643","stopLetter":"KH","topMostParentId":"490G00008643"},{"icsId":"1006864","id":"490006864N1","lat":51.49279,"lon":-0.111094,"name":"Fitzalan Street","parentId":"490G00006864","stationId":"490G00006864","stopLetter":"KG","topMostParentId":"490G00006864"},{"icsId":"1008476","id":"490008473E","lat":51.495635,"lon":-0.111336,"name":"Kennington Road / Imperial War Museum","parentId":"490G000608","stationId":"490G000608","stopLetter":"E","topMostParentId":"490G000608"},{"icsId":"1000132","id":"490000132G","lat":51.498243,"lon":-0.112453,"name":"Lambeth North Station","parentId":"490G00132G","stationId":"490G00132G","stopLetter":"G","topMostParentId":"940GZZLULBN","zone":"1"},{"icsId":"1009420","id":"490009420W","lat":51.499398,"lon":-0.113774,"name":"Lower Marsh","parentId":"490G00009420","stationId":"490G00009420","stopLetter":"A","topMostParentId":"490G00009420"},{"icsId":"1018956","id":"490005646D","lat":51.500719,"lon":-0.119368,"name":"St Thomas' Hospital / County Hall","parentId":"490G00018956","stationId":"490G00018956","stopLetter":"D","topMostParentId":"490G00018956"},{"icsId":"1015048","id":"490015048A","lat":51.501875,"lon":-0.126366,"name":"Westminster Stn  / Parliament Square","parentId":"490G000852","stationId":"490G000852","stopLetter":"A","topMostParentId":"HUBWSM"},{"icsId":"1008376","id":"490008376N","lat":51.504051,"lon":-0.126406,"name":"Horse Guards Parade","parentId":"490G00008376","stationId":"490G00008376","stopLetter":"->N","topMostParentId":"490G00008376"},{"icsId":"1013767","id":"490013767T","lat":51.507533,"lon":-0.129909,"name":"Trafalgar Square","parentId":"490G000804","stationId":"490G000804","stopLetter":"T","topMostParentId":"490G000804"},{"icsId":"1011516","id":"490011515Z","lat":51.508733,"lon":-0.134068,"name":"Regent Street / St James's","parentId":"490G00011516","stationId":"490G00011516","stopLetter":"Z","topMostParentId":"490G00011516"},{"icsId":"1000179","id":"490000179D","lat":51.509858,"lon":-0.136991,"name":"Piccadilly Circus","parentId":"490G00179D","stationId":"490G00179D","stopLetter":"D","topMostParentId":"940GZZLUPCC","zone":"1"},{"icsId":"1004810","id":"490005537RB","lat":51.512364,"lon":-0.14016,"name":"Conduit Street / Hamleys Toy Store","parentId":"490G00004810","stationId":"490G00004810","stopLetter":"M","topMostParentId":"490G00004810"},{"icsId":"1000173","id":"490000173RC","lat":51.514487,"lon":-0.141918,"name":"Oxford Circus Station","parentId":"490G00173RG","stationId":"490G00173RG","stopLetter":"RC","topMostParentId":"940GZZLUOXC","zone":"1"},{"icsId":"1015198","id":"490000173OQ","lat":51.514868,"lon":-0.143834,"name":"Oxford Circus Stn  / Harewood Place","parentId":"490G000875","stationId":"490G000875","stopLetter":"OQ","topMostParentId":"490G000875"},{"icsId":"1000025","id":"490000025BW","lat":51.514262,"lon":-0.149883,"name":"Bond Street Station","parentId":"490G00025BW","stationId":"490G00025BW","stopLetter":"BW","topMostParentId":"940GZZLUBND","zone":"1"},{"icsId":"1000144","id":"490000144P","lat":51.513457,"lon":-0.157612,"name":"Marble Arch Station","parentId":"490G00144L","stationId":"490G00144L","stopLetter":"P","topMostParentId":"940GZZLUMBA","zone":"1"}]}]}