{"direction":"outbound","lineId":"168","lineName":"168","mode":"bus","stopPointSequences":[{"stopPoint":[{"icsId":"1011760","id":"490011760D","lat":51.553948,"lon":-0.165511,"name":"Royal Free Hospital","parentId":"490G000732","stationId":"490G000732","stopLetter":"D","topMostParentId":"490G000732"},{"icsId":"1011714","id":"490011714E","lat":51.553443,"lon":-0.168286,"name":"Rosslyn Hill","parentId":"490G00011714","stationId":"490G00011714","stopLetter":"E","topMostParentId":"490G00011714"},{"icsId":"1015255","id":"490015255F","lat":51.552268,"lon":-0.167295,"name":"Haverstock Hill / Pond Street","parentId":"490G00015255","stationId":"490G00015255","stopLetter":"F","topMostParentId":"490G00015255"},{"icsId":"1000020","id":"490000020L","lat":51.550751,"lon":-0.165192,"name":"Belsize Park Station","parentId":"490G00020L","stationId":"490G00020L","stopLetter":"L","topMostParentId":"940GZZLUBZP","zone":"2"},{"icsId":"1006180","id":"490006180S","lat":51.550029,"lon":-0.163866,"name":"Downside Crescent","parentId":"490G00006180","stationId":"490G00006180","stopLetter":"M","topMostParentId":"490G00006180"},{"icsId":"1013939","id":"490013939S","lat":51.548754,"lon":-0.161725,"name":"Upper Park Road","parentId":"490G00013939","stationId":"490G00013939","stopLetter":"N","topMostParentId":"490G00013939"},{"icsId":"1012668","id":"490012664S","lat":51.546444,"lon":-0.157203,"name":"Haverstock Hill / Steele's Village","parentId":"490G00012668","stationId":"490G00012668","stopLetter":"P","topMostParentId":"490G00012668"},{"icsId":"1000043","id":"490000043CD","lat":51.544645,"lon":-0.153742,"name":"Chalk Farm Station","parentId":"490G00043CD","stationId":"490G00043CD","stopLetter":"CD","topMostParentId":"940GZZLUCFM","zone":"2"},{"icsId":"1004964","id":"490004963CE","lat":51.542854,"lon":-0.148522,"name":"Chalk Farm Road / Morrisons","parentId":"490G00004964","stationId":"490G00004964","stopLetter":"CE","topMostParentId":"490G00004964"},{"icsId":"1007927","id":"490007927M","lat":51.542884,"lon":-0.143545,"name":"Hawley Road","parentId":"490G00007927","stationId":"490G00007927","stopLetter":"M","topMostParentId":"490G00007927"},{"icsId":"1004713","id":"490004713D","lat":51.541972,"lon":-0.14103,"name":"Camden Gardens","parentId":"490G00004713","stationId":"490G00004713","stopLetter":"D","topMostParentId":"490G00004713"},{"icsId":"1019167","id":"490000036R","lat":51.540005,"lon":-0.140634,"name":"Camden Town Station / Camden Street","parentId":"490G00019167","stationId":"490G00019167","stopLetter":"R","topMostParentId":"490G00019167"},{"icsId":"1000036","id":"490015531T","lat":51.53875,"lon":-0.140916,"name":"Camden Town Station  / Bayham Street","parentId":"490G00036N","stationId":"490G00036N","stopLetter":"T","topMostParentId":"940GZZLUCTN","zone":"2"},{"icsId":"1011168","id":"490011168S1","lat":51.536963,"lon":-0.13933,"name":"Pratt Street","parentId":"490G00011168","stationId":"490G00011168","stopLetter":"W","topMostParentId":"490G00011168"},{"icsId":"1000152","id":"490000152G","lat":51.534138,"lon":-0.138105,"name":"Mornington Cres Stn / Camden Tn Library","parentId":"490G00152G","stationId":"490G00152G","stopLetter":"G","topMostParentId":"940GZZLUMTC","zone":"2"},{"icsId":"1003174","id":"490003174S","lat":51.531996,"lon":-0.135755,"name":"Aldenham Street","parentId":"490G00003174","stationId":"490G00003174","stopLetter":"S","topMostParentId":"490G00003174"},{"icsId":"1000077","id":"490000077B","lat":51.528611,"lon":-0.132131,"name":"Euston Station","parentId":"490G00077B","stationId":"490G00077B","stopLetter":"B","topMostParentId":"HUBEUS","zone":"1"},{"icsId":"1012867","id":"490012867M","lat":51.526877,"lon":-0.129938,"name":"Upper Woburn Place","parentId":"490G00012867","stationId":"490G00012867","stopLetter":"M","topMostParentId":"HUBEUS"},{"icsId":"1013170","id":"490013170S","lat":51.524904,"lon":-0.128059,"name":"Tavistock Square","parentId":"490G00013170","stationId":"490G00013170","stopLetter":"N","topMostParentId":"490G00013170"},{"icsId":"1000200","id":"490000200J","lat":51.523356,"lon":-0.126277,"name":"Russell Square","parentId":"490G00200H","stationId":"490G00200H","stopLetter":"J","topMostParentId":"940GZZLURSQ","zone":"1"},{"icsId":"1005624","id":"490005624S","lat":51.521055,"lon":-0.123489,"name":"Southampton Row","parentId":"490G00005624","stationId":"490G00005624","stopLetter":"B","topMostParentId":"490G00005624"},{"icsId":"1013477","id":"490013477A","lat":51.519578,"lon":-0.121704,"name":"Theobald's Road","parentId":"490G00013477","stationId":"490G00013477","stopLetter":"X","topMostParentId":"490G00013477"},{"icsId":"1000350","id":"490000112M","lat":51.516741,"lon":-0.11976,"name":"Kingsway / Holborn Station","parentId":"490G00000350","stationId":"490G00000350","stopLetter":"M","topMostParentId":"490G00000350"},{"icsId":"1019704","id":"490019704K","lat":51.513339,"lon":-0.116211,"name":"Aldwych / The Royal Courts Of Justice","parentId":"490G00019704","stationId":"490G00019704","stopLetter":"K","topMostParentId":"490G00019704"},{"icsId":"1003193","id":"490003193S","lat":51.51186,"lon":-0.11705,"name":"Aldwych / Somerset House","parentId":"490G000386","stationId":"490G000386","stopLetter":"S","topMostParentId":"490G000386"},{"icsId":"1014271","id":"490014271N","lat":51.507076,"lon":-0.115403,"name":"Waterloo Bridge / South Bank","parentId":"490G000819","stationId":"490G000819","stopLetter":"N","topMostParentId":"HUBWAT"},{"icsId":"1003705","id":"490000254D","lat":51.502981,"lon":-0.110687,"name":"Waterloo Station   / Waterloo Road","parentId":"490G000401","stationId":"490G000401","stopLetter":"D","topMostParentId":"HUBWAT"},{"icsId":"1013485","id":"490013485S1","lat":51.50134,"lon":-0.108752,"name":"The Old Vic","parentId":"490G00013485","stationId":"490G00013485","stopLetter":"S","topMostParentId":"490G00013485"},{"icsId":"1012693","id":"490012693S2","lat":51.499338,"lon":-0.106198,"name":"St George's Circus","parentId":"490G00012693","stationId":"490G00012693","stopLetter":"T","topMostParentId":"490G00012693"},{"icsId":"1009281","id":"490009281E","lat":51.496103,"lon":-0.101333,"name":"Elephant & Castle / London Road","parentId":"490G000642","stationId":"490G000642","stopLetter":"E","topMostParentId":"490G000642"},{"icsId":"1009298","id":"490000073J","lat":51.494859,"lon":-0.097812,"name":"Elephant & Castle / New Kent Road","parentId":"490G000645","stationId":"490G000645","stopLetter":"J","topMostParentId":"HUBEPH"},{"icsId":"1011632","id":"490011632BA","lat":51.49422,"lon":-0.094439,"name":"Rodney Place","parentId":"490G00011632","stationId":"490G00011632","stopLetter":"BA","topMostParentId":"490G00011632"},{"icsId":"1003658","id":"490003658BB","lat":51.494316,"lon":-0.088744,"name":"Bricklayer's Arms / New Kent Road","parentId":"490G00003658","stationId":"490G00003658","stopLetter":"BB","topMostParentId":"490G00003658"},{"icsId":"1004315","id":"490004315BK","lat":51.493772,"lon":-0.084633,"name":"Bricklayer's Arms","parentId":"490G00004315","stationId":"490G00004315","stopLetter":"BK","topMostParentId":"490G00004315"},{"icsId":"1006379","id":"490006379BL","lat":51.491461,"lon":-0.081863,"name":"Old Kent Road / East Street","parentId":"490G00006379","stationId":"490G00006379","stopLetter":"G","topMostParentId":"490G00006379"},{"icsId":"1006266","id":"490006266EC","lat":51.48886,"lon":-0.077348,"name":"Dunton Road","parentId":"490G00006266","stationId":"490G00006266","stopLetter":"EC","topMostParentId":"490G00006266"}]}]}