{"direction":"outbound","lineId":"169","lineName":"169","mode":"bus","stopPointSequences":[{"stopPoint":[{"icsId":"1005375","id":"490005375S","lat":51.596249,"lon":0.060928,"name":"Clayhall / The Glade","parentId":"490G00005375","stationId":"490G00005375","stopLetter":"FA","topMostParentId":"490G00005375"},{"icsId":"1011530","id":"490011530E","lat":51.597509,"lon":0.061938,"name":"Owen Waters House","parentId":"490G00011530","stationId":"490G00011530","stopLetter":"FB","topMostParentId":"490G00011530"},{"icsId":"1005586","id":"490005586S","lat":51.59746,"lon":0.065705,"name":"Copper Beech Close","parentId":"490G00005586","stationId":"490G00005586","stopLetter":"FC","topMostParentId":"490G00005586"},{"icsId":"1004857","id":"490004857E","lat":51.596926,"lon":0.068453,"name":"Caterham Avenue","parentId":"490G00004857","stationId":"490G00004857","stopLetter":"FD","topMostParentId":"490G00004857"},{"icsId":"1004681","id":"490004681E","lat":51.596326,"lon":0.071414,"name":"Calne Avenue","parentId":"490G00004681","stationId":"490G00004681","stopLetter":"FE","topMostParentId":"490G00004681"},{"icsId":"1011433","id":"490011433E","lat":51.595745,"lon":0.074246,"name":"Ravensbourne Gardens","parentId":"490G00011433","stationId":"490G00011433","stopLetter":"->E","topMostParentId":"490G00011433"},{"icsId":"1015391","id":"490015391E","lat":51.594927,"lon":0.078281,"name":"Mossford Lane","parentId":"490G00015391","stationId":"490G00015391","stopLetter":"H","topMostParentId":"490G00015391"},{"icsId":"1003127","id":"490003127E","lat":51.59432,"lon":0.081588,"name":"Aintree Crescent","parentId":"490G00003127","stationId":"490G00003127","stopLetter":"F","topMostParentId":"490G00003127"},{"icsId":"1007059","id":"490007059D","lat":51.592565,"lon":0.084179,"name":"Fullwell Cross","parentId":"490G00007059","stationId":"490G00007059","stopLetter":"D","topMostParentId":"490G00007059"},{"icsId":"1014316","id":"490014316G","lat":51.590941,"lon":0.082964,"name":"Waverley Gardens","parentId":"490G00014316","stationId":"490G00014316","stopLetter":"G","topMostParentId":"490G00014316"},{"icsId":"1020073","id":"490007012N","lat":51.588901,"lon":0.081398,"name":"Barkingside Police Station","parentId":"490G00020073","stationId":"490G00020073","stopLetter":"N","topMostParentId":"490G00020073"},{"icsId":"1003623","id":"490003623T","lat":51.588081,"lon":0.083483,"name":"Sandringham Gardens","parentId":"490G00003623","stationId":"490G00003623","stopLetter":"T","topMostParentId":"490G00003623"},{"icsId":"1000016","id":"490000016U","lat":51.587404,"lon":0.085199,"name":"Barkingside Station","parentId":"490G00016SB","stationId":"490G00016SB","stopLetter":"U","topMostParentId":"940GZZLUBKE","zone":"4"},{"icsId":"1011212","id":"490011212S","lat":51.58308,"lon":0.084582,"name":"Princes Road","parentId":"490G00011212","stationId":"490G00011212","stopLetter":"->S","topMostParentId":"490G00011212"},{"icsId":"1003194","id":"490003194S","lat":51.580761,"lon":0.084,"name":"Aldwych Avenue","parentId":"490G00003194","stationId":"490G00003194","stopLetter":"->S","topMostParentId":"490G00003194"},{"icsId":"1007694","id":"490007694S","lat":51.578269,"lon":0.083554,"name":"Hamilton Avenue","parentId":"490G00007694","stationId":"490G00007694","stopLetter":"NP","topMostParentId":"490G00007694"},{"icsId":"1008377","id":"490008372S","lat":51.576299,"lon":0.083579,"name":"Artillery Close","parentId":"490G00008377","stationId":"490G00008377","stopLetter":"NR","topMostParentId":"490G00008377"},{"icsId":"1015523","id":"490015523S1","lat":51.573902,"lon":0.083874,"name":"Eastern Avenue","parentId":"490G00015523","stationId":"490G00015523","stopLetter":"NE","topMostParentId":"490G00015523"},{"icsId":"1006341","id":"490006341S2","lat":51.572994,"lon":0.083846,"name":"Clifton Road","parentId":"490G00006341","stationId":"490G00006341","stopLetter":"NH","topMostParentId":"490G00006341"},{"icsId":"1009478","id":"490009478S","lat":51.571362,"lon":0.083584,"name":"Parklands Close","parentId":"490G00009478","stationId":"490G00009478","stopLetter":"NS","topMostParentId":"490G00009478"},{"icsId":"1019469","id":"490010955S","lat":51.568262,"lon":0.083962,"name":"Perth Road","parentId":"490G00019469","stationId":"490G00019469","stopLetter":"->S","topMostParentId":"490G00019469"},{"icsId":"1003912","id":"490006248S","lat":51.566429,"lon":0.083864,"name":"Benton Road","parentId":"490G00003912","stationId":"490G00003912","stopLetter":"M","topMostParentId":"490G00003912"},{"icsId":"1008468","id":"490008464S","lat":51.564108,"lon":0.082921,"name":"Jaffe Road","parentId":"490G00008468","stationId":"490G00008468","stopLetter":"N","topMostParentId":"490G00008468"},{"icsId":"1007532","id":"490007532W","lat":51.562389,"lon":0.078456,"name":"Griggs Approach","parentId":"490G00007532","stationId":"490G00007532","stopLetter":"->W","topMostParentId":"490G00007532"},{"icsId":"1007657","id":"490007657V","lat":51.55932,"lon":0.076008,"name":"Hainault Street","parentId":"490G00007657","stationId":"490G00007657","stopLetter":"V","topMostParentId":"490G00007657"},{"icsId":"1008466","id":"490008466Q1","lat":51.557867,"lon":0.074311,"name":"Redbridge Central Library","parentId":"490G00008466","stationId":"490G00008466","stopLetter":"Q","topMostParentId":"490G00008466"},{"icsId":"1004985","id":"490004986P","lat":51.557696,"lon":0.070235,"name":"Chapel Road","parentId":"490G00004985","stationId":"490G00004985","stopLetter":"P","topMostParentId":"490G00004985"},{"icsId":"1006219","id":"490006219S","lat":51.554043,"lon":0.072911,"name":"Dudley Road","parentId":"490G00006219","stationId":"490G00006219","stopLetter":"D","topMostParentId":"490G00006219"},{"icsId":"1009510","id":"490009510S","lat":51.5516,"lon":0.074214,"name":"Kingston Road","parentId":"490G00009510","stationId":"490G00009510","stopLetter":"E","topMostParentId":"490G00009510"},{"icsId":"1014781","id":"490014781S","lat":51.548623,"lon":0.075795,"name":"Wingate Road","parentId":"490G00014781","stationId":"490G00014781","stopLetter":"F","topMostParentId":"490G00014781"},{"icsId":"1010310","id":"490011652S","lat":51.545444,"lon":0.077049,"name":"Loxford Polyclinic","parentId":"490G00010310","stationId":"490G00010310","stopLetter":"H","topMostParentId":"490G00010310"},{"icsId":"1009433","id":"490009432S","lat":51.543588,"lon":0.078767,"name":"Park Avenue","parentId":"490G00009433","stationId":"490G00009433","topMostParentId":"490G00009433"},{"icsId":"1009294","id":"490009294S","lat":51.541683,"lon":0.082257,"name":"Longbridge Road","parentId":"490G00009294","stationId":"490G00009294","stopLetter":"R","topMostParentId":"490G00009294"},{"icsId":"1000015","id":"490000015X","lat":51.539859,"lon":0.082145,"name":"Barking Station","parentId":"490G00015G","stationId":"490G00015G","stopLetter":"->N","topMostParentId":"HUBBKG","zone":"4"},{"icsId":"1003616","id":"490003616M","lat":51.53794,"lon":0.077803,"name":"Barking Town Centre","parentId":"490G00003616","stationId":"490G00003616","stopLetter":"M","topMostParentId":"490G00003616"}]}]}