{"direction":"outbound","lineId":"170","lineName":"170","mode":"bus","stopPointSequences":[{"stopPoint":[{"icsId":"1011639","id":"490011639E","lat":51.452167,"lon":-0.248135,"name":"Danebury Avenue / Minstead Gardens","parentId":"490G00011639","stationId":"490G00011639","topMostParentId":"490G00011639"},{"icsId":"1010069","id":"490010069E","lat":51.450727,"lon":-0.246218,"name":"Mount Angelus Road","parentId":"490G00010069","stationId":"490G00010069","stopLetter":"L","topMostParentId":"490G00010069"},{"icsId":"1011641","id":"490011641B","lat":51.449771,"lon":-0.242484,"name":"Roehampton Library","parentId":"490G00011641","stationId":"490G00011641","stopLetter":"B","topMostParentId":"490G00011641"},{"icsId":"1011640","id":"490011640E","lat":51.449768,"lon":-0.239893,"name":"Medfield Street","parentId":"490G00011640","stationId":"490G00011640","stopLetter":"E","topMostParentId":"490G00011640"},{"icsId":"1006150","id":"490006150E","lat":51.451827,"lon":-0.23387,"name":"Dover Park Drive","parentId":"490G00006150","stationId":"490G00006150","stopLetter":"H","topMostParentId":"490G00006150"},{"icsId":"1006685","id":"490006685E","lat":51.452543,"lon":-0.229482,"name":"Exeter House","parentId":"490G00006685","stationId":"490G00006685","stopLetter":"J","topMostParentId":"490G00006685"},{"icsId":"1007965","id":"490007965E","lat":51.453236,"lon":-0.224748,"name":"Hayward Gardens","parentId":"490G00007965","stationId":"490G00007965","stopLetter":"K","topMostParentId":"490G00007965"},{"icsId":"1011285","id":"490011285E2","lat":51.453514,"lon":-0.221168,"name":"Putney Heath / Green Man","parentId":"490G00011285","stationId":"490G00011285","stopLetter":"L","topMostParentId":"490G00011285"},{"icsId":"1011299","id":"490011285R","lat":51.451703,"lon":-0.221497,"name":"Putney Hill / Green Man","parentId":"490G00011299","stationId":"490G00011299","stopLetter":"R","topMostParentId":"490G00011299"},{"icsId":"1015450","id":"490015450E","lat":51.449176,"lon":-0.221481,"name":"Tibbet's Corner","parentId":"490G00015450","stationId":"490G00015450","stopLetter":"PC","topMostParentId":"490G00015450"},{"icsId":"1019015","id":"490003729E","lat":51.451042,"lon":-0.217652,"name":"Beaumont Road","parentId":"490G00019015","stationId":"490G00019015","stopLetter":"PG","topMostParentId":"490G00019015"},{"icsId":"1009493","id":"490009493N","lat":51.453296,"lon":-0.212713,"name":"Lytton Grove","parentId":"490G00009493","stationId":"490G00009493","stopLetter":"EL","topMostParentId":"490G00009493"},{"icsId":"1014475","id":"490014475N","lat":51.454881,"lon":-0.208736,"name":"West Hill Road","parentId":"490G00014475","stationId":"490G00014475","stopLetter":"EJ","topMostParentId":"490G00014475"},{"icsId":"1019844","id":"490012985EG","lat":51.456507,"lon":-0.203347,"name":"Upper Richmond Road","parentId":"490G00019844","stationId":"490G00019844","stopLetter":"EG","topMostParentId":"490G00019844"},{"icsId":"1009836","id":"490009836A","lat":51.456961,"lon":-0.1995,"name":"Merton Road","parentId":"490G00009836","stationId":"490G00009836","stopLetter":"A","topMostParentId":"490G00009836"},{"icsId":"1003383","id":"490003383E","lat":51.45831,"lon":-0.196611,"name":"Armoury Way","parentId":"490G00003383","stationId":"490G00003383","stopLetter":"E","topMostParentId":"490G00003383"},{"icsId":"1014195","id":"490014195N","lat":51.457629,"lon":-0.189743,"name":"Wandsworth Town Hall","parentId":"490G00014195","stationId":"490G00014195","stopLetter":"N","topMostParentId":"490G00014195"},{"icsId":"1003259","id":"490003259E","lat":51.457707,"lon":-0.185523,"name":"East Hill / Alma Road","parentId":"490G00003259","stationId":"490G00003259","stopLetter":"A","topMostParentId":"490G00003259"},{"icsId":"1009638","id":"490015404E","lat":51.459451,"lon":-0.180847,"name":"Marcilly Road","parentId":"490G00009638","stationId":"490G00009638","stopLetter":"B","topMostParentId":"490G00009638"},{"icsId":"1011066","id":"490011066E","lat":51.461337,"lon":-0.174323,"name":"Plough Road","parentId":"490G00011066","stationId":"490G00011066","stopLetter":"C","topMostParentId":"490G00011066"},{"icsId":"1001069","id":"490001069C","lat":51.463013,"lon":-0.170484,"name":"Clapham Junction Station","parentId":"490G01069M","stationId":"490G01069M","stopLetter":"C","topMostParentId":"490G01069M"},{"icsId":"1005331","id":"490005331E","lat":51.464316,"lon":-0.168129,"name":"Clapham Junction Station  / Falcon Road","parentId":"490G000461","stationId":"490G000461","stopLetter":"E","topMostParentId":"HUBCLJ"},{"icsId":"1015058","id":"490015058A","lat":51.465288,"lon":-0.171027,"name":"Clapham Junction Station  / Grant Road","parentId":"490G000855","stationId":"490G000855","stopLetter":"A","topMostParentId":"HUBCLJ"},{"icsId":"1014323","id":"490014323N","lat":51.464573,"lon":-0.177116,"name":"Wayland Road Estate","parentId":"490G00014323","stationId":"490G00014323","stopLetter":"A","topMostParentId":"490G00014323"},{"icsId":"1008280","id":"490014139N","lat":51.465344,"lon":-0.177546,"name":"Wallis Close","parentId":"490G00008280","stationId":"490G00008280","stopLetter":"B","topMostParentId":"490G00008280"},{"icsId":"1009262","id":"490009262E","lat":51.468586,"lon":-0.177835,"name":"York Gardens","parentId":"490G00009262","stationId":"490G00009262","stopLetter":"D","topMostParentId":"490G00009262"},{"icsId":"1009263","id":"490009263N","lat":51.47064,"lon":-0.177522,"name":"Lombard Road","parentId":"490G00009263","stationId":"490G00009263","stopLetter":"E","topMostParentId":"490G00009263"},{"icsId":"1003688","id":"490003688E","lat":51.474428,"lon":-0.176493,"name":"Battersea High Street","parentId":"490G00003688","stationId":"490G00003688","stopLetter":"F","topMostParentId":"490G00003688"},{"icsId":"1013007","id":"490007342E","lat":51.475631,"lon":-0.173493,"name":"Sunbury Lane","parentId":"490G00013007","stationId":"490G00013007","stopLetter":"G","topMostParentId":"490G00013007"},{"icsId":"1010771","id":"490010771W","lat":51.477653,"lon":-0.170489,"name":"Westbridge Road /Parkgate Road","parentId":"490G000131","stationId":"490G000131","stopLetter":"BP","topMostParentId":"490G000131"},{"icsId":"1000441","id":"490003683N","lat":51.479772,"lon":-0.17147,"name":"Battersea Bridge","parentId":"490G000090","stationId":"490G000090","stopLetter":"BL","topMostParentId":"490G000090"},{"icsId":"1003682","id":"490003682E","lat":51.482449,"lon":-0.172443,"name":"Beaufort Street","parentId":"490G00003682","stationId":"490G00003682","stopLetter":"BB","topMostParentId":"490G00003682"},{"icsId":"1003152","id":"490003152E","lat":51.483164,"lon":-0.16867,"name":"Albert Bridge / Cadogan Pier","parentId":"490G000381","stationId":"490G000381","stopLetter":"QE","topMostParentId":"490G000381"},{"icsId":"1006876","id":"490006876N","lat":51.484612,"lon":-0.163484,"name":"Chelsea Physic Garden","parentId":"490G00006876","stationId":"490G00006876","topMostParentId":"490G00006876"},{"icsId":"1010156","id":"490010156N","lat":51.486741,"lon":-0.160532,"name":"National Army Museum","parentId":"490G00010156","stationId":"490G00010156","topMostParentId":"490G00010156"},{"icsId":"1011765","id":"490011763E","lat":51.488916,"lon":-0.157002,"name":"Royal Hospital Chelsea / Lower Sloane St","parentId":"490G00011765","stationId":"490G00011765","stopLetter":"N","topMostParentId":"490G00011765"},{"icsId":"1005065","id":"490005065N","lat":51.489935,"lon":-0.155477,"name":"Chelsea Bridge Road","parentId":"490G00005065","stationId":"490G00005065","stopLetter":"P","topMostParentId":"490G00005065"},{"icsId":"1006399","id":"490006399E","lat":51.490892,"lon":-0.151117,"name":"Ebury Bridge Road","parentId":"490G00006399","stationId":"490G00006399","stopLetter":"R","topMostParentId":"490G00006399"},{"icsId":"1014051","id":"490014051W","lat":51.492019,"lon":-0.148436,"name":"Victoria Coach Station","parentId":"490G000813","stationId":"490G000813","stopLetter":"W","topMostParentId":"490G000813"},{"icsId":"1006404","id":"490006404W","lat":51.493512,"lon":-0.147352,"name":"Eccleston Bridge","parentId":"490G00006404","stationId":"490G00006404","stopLetter":"T","topMostParentId":"490G00006404"},{"icsId":"1014050","id":"490014050A","lat":51.495958,"lon":-0.143954,"name":"Victoria Bus Station","parentId":"490G000812","stationId":"490G000812","stopLetter":"A","topMostParentId":"490G000812"}]}]}