{"direction":"outbound","lineId":"174","lineName":"174","mode":"bus","stopPointSequences":[{"stopPoint":[{"icsId":"1005929","id":"490005929N","lat":51.605564,"lon":0.243433,"name":"Dagnam Park Square","parentId":"490G00005929","stationId":"490G00005929","stopLetter":"DJ","topMostParentId":"490G00005929"},{"icsId":"1012054","id":"490012054N","lat":51.606661,"lon":0.24249,"name":"Sheffield Drive","parentId":"490G00012054","stationId":"490G00012054","stopLetter":"DK","topMostParentId":"490G00012054"},{"icsId":"1011997","id":"490011997W","lat":51.608301,"lon":0.24,"name":"Settle Road","parentId":"490G00011997","stationId":"490G00011997","stopLetter":"DL","topMostParentId":"490G00011997"},{"icsId":"1011971","id":"490011971W","lat":51.609508,"lon":0.234687,"name":"Sedgefield Crescent","parentId":"490G00011971","stationId":"490G00011971","stopLetter":"DT","topMostParentId":"490G00011971"},{"icsId":"1007799","id":"490007799W","lat":51.609073,"lon":0.229206,"name":"Harkness Close","parentId":"490G00007799","stationId":"490G00007799","stopLetter":"DV","topMostParentId":"490G00007799"},{"icsId":"1004473","id":"490004473W","lat":51.608505,"lon":0.22408,"name":"Brookside School","parentId":"490G00004473","stationId":"490G00004473","stopLetter":"DU","topMostParentId":"490G00004473"},{"icsId":"1005187","id":"490005187W","lat":51.607928,"lon":0.220816,"name":"Chippenham Road","parentId":"490G00005187","stationId":"490G00005187","stopLetter":"HH","topMostParentId":"490G00005187"},{"icsId":"1006762","id":"490006762W","lat":51.607152,"lon":0.217616,"name":"Hilldene Avenue Shopping Centre","parentId":"490G00006762","stationId":"490G00006762","stopLetter":"->W","topMostParentId":"490G00006762"},{"icsId":"1004992","id":"490004992W","lat":51.605348,"lon":0.212199,"name":"Chatteris Avenue","parentId":"490G00004992","stationId":"490G00004992","stopLetter":"->W","topMostParentId":"490G00004992"},{"icsId":"1012895","id":"490012895W","lat":51.604884,"lon":0.210082,"name":"Charlbury Crescent","parentId":"490G00012895","stationId":"490G00012895","stopLetter":"->W","topMostParentId":"490G00012895"},{"icsId":"1007354","id":"490007354S","lat":51.603222,"lon":0.209987,"name":"Grange Road","parentId":"490G00007354","stationId":"490G00007354","stopLetter":"->S","topMostParentId":"490G00007354"},{"icsId":"1010143","id":"490010143S","lat":51.601746,"lon":0.210565,"name":"Myrtle Road","parentId":"490G00010143","stationId":"490G00010143","stopLetter":"->S","topMostParentId":"490G00010143"},{"icsId":"1008036","id":"490008036S","lat":51.598605,"lon":0.21164,"name":"Heaton Avenue","parentId":"490G00008036","stationId":"490G00008036","stopLetter":"->S","topMostParentId":"490G00008036"},{"icsId":"1006742","id":"490006738S","lat":51.595753,"lon":0.212656,"name":"Masefield Crescent","parentId":"490G00006742","stationId":"490G00006742","stopLetter":"GF","topMostParentId":"490G00006742"},{"icsId":"1007095","id":"490007095S1","lat":51.593736,"lon":0.21328,"name":"Gallows Corner","parentId":"490G00007095","stationId":"490G00007095","stopLetter":"GE","topMostParentId":"490G00007095"},{"icsId":"1013930","id":"490013930S","lat":51.591488,"lon":0.210861,"name":"Upper Brentwood Road","parentId":"490G00013930","stationId":"490G00013930","stopLetter":"GQ","topMostParentId":"490G00013930"},{"icsId":"1004837","id":"490004837W","lat":51.589353,"lon":0.208216,"name":"Castellan Avenue","parentId":"490G00004837","stationId":"490G00004837","stopLetter":"PQ","topMostParentId":"490G00004837"},{"icsId":"1003558","id":"490003558W","lat":51.586696,"lon":0.200769,"name":"Balgores Lane","parentId":"490G00003558","stationId":"490G00003558","stopLetter":"PS","topMostParentId":"490G00003558"},{"icsId":"1011529","id":"490011529W","lat":51.585253,"lon":0.194737,"name":"Repton Avenue","parentId":"490G00011529","stationId":"490G00011529","stopLetter":"PT","topMostParentId":"490G00011529"},{"icsId":"1011426","id":"490011426W","lat":51.58317,"lon":0.190205,"name":"Raphael Park","parentId":"490G00011426","stationId":"490G00011426","stopLetter":"W","topMostParentId":"490G00011426"},{"icsId":"1010974","id":"490010974MA","lat":51.582249,"lon":0.187996,"name":"Pettits Lane","parentId":"490G00010974","stationId":"490G00010974","topMostParentId":"490G00010974"},{"icsId":"1009810","id":"490009810K","lat":51.57911,"lon":0.185131,"name":"Mercury Gardens","parentId":"490G00009810","stationId":"490G00009810","stopLetter":"K","topMostParentId":"490G00009810"},{"icsId":"1014452","id":"490014452Q","lat":51.577133,"lon":0.184084,"name":"Western Road","parentId":"490G00014452","stationId":"490G00014452","stopLetter":"Q","topMostParentId":"490G00014452"},{"icsId":"1001243","id":"490001243T","lat":51.574405,"lon":0.183794,"name":"Romford Station","parentId":"490G01243W","stationId":"490G01243W","stopLetter":"T","topMostParentId":"910GROMFORD"},{"icsId":"1011667","id":"490011667HD","lat":51.571378,"lon":0.182163,"name":"Rom Valley Way","parentId":"490G00011667","stationId":"490G00011667","stopLetter":"HD","topMostParentId":"490G00011667"},{"icsId":"1015408","id":"490015408E1","lat":51.570358,"lon":0.177511,"name":"Oldchurch Rise","parentId":"490G00015408","stationId":"490G00015408","stopLetter":"HC","topMostParentId":"490G00015408"},{"icsId":"1005834","id":"490005834S","lat":51.568821,"lon":0.175518,"name":"Crow Lane","parentId":"490G00005834","stationId":"490G00005834","stopLetter":"G","topMostParentId":"490G00005834"},{"icsId":"1011798","id":"490011798S2","lat":51.566161,"lon":0.176415,"name":"Norwood Avenue","parentId":"490G00011798","stationId":"490G00011798","stopLetter":"H","topMostParentId":"490G00011798"},{"icsId":"1005927","id":"490005927S","lat":51.564531,"lon":0.176035,"name":"Rush Green Road","parentId":"490G00005927","stationId":"490G00005927","stopLetter":"N","topMostParentId":"490G00005927"},{"icsId":"1011799","id":"490011799S","lat":51.562651,"lon":0.175613,"name":"Rush Green School","parentId":"490G00011799","stationId":"490G00011799","stopLetter":"P","topMostParentId":"490G00011799"},{"icsId":"1011797","id":"490011797S","lat":51.559641,"lon":0.175469,"name":"Barking & Dagenham College","parentId":"490G00011797","stationId":"490G00011797","stopLetter":"Q","topMostParentId":"490G00011797"},{"icsId":"1013989","id":"490013989S","lat":51.557704,"lon":0.176098,"name":"Valentines Way","parentId":"490G00013989","stationId":"490G00013989","stopLetter":"R","topMostParentId":"490G00013989"},{"icsId":"1006322","id":"490006322S","lat":51.555722,"lon":0.174359,"name":"Eastbrookend Country Park","parentId":"490G00006322","stationId":"490G00006322","topMostParentId":"490G00006322"},{"icsId":"1013354","id":"490013354W","lat":51.553181,"lon":0.17268,"name":"The Chase","parentId":"490G00013354","stationId":"490G00013354","topMostParentId":"490G00013354"},{"icsId":"1010763","id":"490010763W","lat":51.552961,"lon":0.167101,"name":"Park Drive","parentId":"490G00010763","stationId":"490G00010763","stopLetter":"->W","topMostParentId":"490G00010763"},{"icsId":"1006324","id":"490006324W","lat":51.552198,"lon":0.163127,"name":"Eastbrook School","parentId":"490G00006324","stationId":"490G00006324","topMostParentId":"490G00006324"},{"icsId":"1010704","id":"490010704W","lat":51.551347,"lon":0.159553,"name":"Rainham Road North","parentId":"490G00010704","stationId":"490G00010704","topMostParentId":"490G00010704"},{"icsId":"1007041","id":"490007041W","lat":51.551349,"lon":0.153566,"name":"Hunters Hall Road","parentId":"490G00007041","stationId":"490G00007041","stopLetter":"R","topMostParentId":"490G00007041"},{"icsId":"1005806","id":"490005806W","lat":51.551304,"lon":0.151083,"name":"Croppath Road","parentId":"490G00005806","stationId":"490G00005806","stopLetter":"S","topMostParentId":"490G00005806"},{"icsId":"1010705","id":"490010705W","lat":51.551182,"lon":0.148423,"name":"Heathway","parentId":"490G00010705","stationId":"490G00010705","stopLetter":"T","topMostParentId":"490G00010705"},{"icsId":"1006347","id":"490006347S","lat":51.549461,"lon":0.147636,"name":"Eastfield Road","parentId":"490G00006347","stationId":"490G00006347","stopLetter":"D","topMostParentId":"490G00006347"},{"icsId":"1007661","id":"490007661S","lat":51.545633,"lon":0.14796,"name":"Halbutt Street","parentId":"490G00007661","stationId":"490G00007661","stopLetter":"E","topMostParentId":"490G00007661"},{"icsId":"1000281","id":"490011498P","lat":51.543663,"lon":0.147997,"name":"Reede Road","parentId":"490G00000281","stationId":"490G00000281","stopLetter":"P","topMostParentId":"490G00000281"},{"icsId":"1000059","id":"490000059E","lat":51.541162,"lon":0.148067,"name":"Dagenham Heathway Station","parentId":"490G00059B","stationId":"490G00059B","stopLetter":"E","topMostParentId":"940GZZLUDGY","zone":"5"},{"icsId":"1013298","id":"490013298J","lat":51.53908,"lon":0.148286,"name":"Church Elm Lane","parentId":"490G00013298","stationId":"490G00013298","stopLetter":"J","topMostParentId":"490G00013298"},{"icsId":"1003388","id":"490003388S","lat":51.535106,"lon":0.148257,"name":"Arnold Road","parentId":"490G00003388","stationId":"490G00003388","stopLetter":"A","topMostParentId":"490G00003388"},{"icsId":"1010462","id":"490010462S","lat":51.532623,"lon":0.148314,"name":"Nutbrowne Road","parentId":"490G00010462","stationId":"490G00010462","stopLetter":"B","topMostParentId":"490G00010462"},{"icsId":"1003565","id":"490003565E2","lat":51.529824,"lon":0.153834,"name":"Ballards Road / Princess Parade","parentId":"490G00003565","stationId":"490G00003565","stopLetter":"D","topMostParentId":"490G00003565"},{"icsId":"1006906","id":"490006906E","lat":51.527553,"lon":0.159493,"name":"Ford's East Entrance","parentId":"490G00006906","stationId":"490G00006906","stopLetter":"E","topMostParentId":"490G00006906"},{"icsId":"1013205","id":"490013205E","lat":51.526911,"lon":0.163082,"name":"Thames Avenue","parentId":"490G00013205","stationId":"490G00013205","stopLetter":"MB","topMostParentId":"490G00013205"},{"icsId":"1016465","id":"490016465E","lat":51.526027,"lon":0.16712,"name":"South Street","parentId":"490G00016465","stationId":"490G00016465","stopLetter":"MF","topMostParentId":"490G00016465"},{"icsId":"1016500","id":"490016500S","lat":51.521489,"lon":0.16934,"name":"Marsh Way","parentId":"490G00016500","stationId":"490G00016500","stopLetter":"MD","topMostParentId":"490G00016500"},{"icsId":"1016499","id":"490016499N","lat":51.517667,"lon":0.170845,"name":"C E M E","parentId":"490G00016499","stationId":"490G00016499","stopLetter":"->N","topMostParentId":"490G00016499"}]}]}