{"direction":"outbound","lineId":"175","lineName":"175","mode":"bus","stopPointSequences":[{"stopPoint":[{"icsId":"1015524","id":"490015524W","lat":51.607182,"lon":0.172744,"name":"Hillrise Estate","parentId":"490G00015524","stationId":"490G00015524","topMostParentId":"490G00015524"},{"icsId":"1008153","id":"490008153E","lat":51.606124,"lon":0.173532,"name":"Highfield Road","parentId":"490G00008153","stationId":"490G00008153","stopLetter":"->E","topMostParentId":"490G00008153"},{"icsId":"1015132","id":"490015132S","lat":51.603691,"lon":0.175769,"name":"Merlin Road","parentId":"490G00015132","stationId":"490G00015132","stopLetter":"CC","topMostParentId":"490G00015132"},{"icsId":"1003491","id":"490003491W","lat":51.603034,"lon":0.17529,"name":"Avelon Road","parentId":"490G00003491","stationId":"490G00003491","stopLetter":"CM","topMostParentId":"490G00003491"},{"icsId":"1003843","id":"490003843W","lat":51.601012,"lon":0.171843,"name":"Belle Vue Road","parentId":"490G00003843","stationId":"490G00003843","stopLetter":"EQ","topMostParentId":"490G00003843"},{"icsId":"1009018","id":"490006777W","lat":51.600334,"lon":0.168605,"name":"Felstead Road","parentId":"490G00009018","stationId":"490G00009018","stopLetter":"ES","topMostParentId":"490G00009018"},{"icsId":"1005438","id":"490005438J","lat":51.598866,"lon":0.16338,"name":"Collier Row Roundabout / Rex Close","parentId":"490G00005438","stationId":"490G00005438","stopLetter":"ED","topMostParentId":"490G00005438"},{"icsId":"1008420","id":"490008420S","lat":51.596065,"lon":0.164099,"name":"Hulse Avenue","parentId":"490G00008420","stationId":"490G00008420","stopLetter":"EH","topMostParentId":"490G00008420"},{"icsId":"1010106","id":"490010106S","lat":51.592821,"lon":0.165894,"name":"Mowbrays Road","parentId":"490G00010106","stationId":"490G00010106","stopLetter":"EJ","topMostParentId":"490G00010106"},{"icsId":"1007655","id":"490007655S","lat":51.590396,"lon":0.166746,"name":"Hainault Road","parentId":"490G00007655","stationId":"490G00007655","stopLetter":"NP","topMostParentId":"490G00007655"},{"icsId":"1010782","id":"490010782S","lat":51.587679,"lon":0.172146,"name":"Parklands School","parentId":"490G00010782","stationId":"490G00010782","stopLetter":"NQ","topMostParentId":"490G00010782"},{"icsId":"1011658","id":"490011658S","lat":51.583717,"lon":0.174829,"name":"Romford Bus Garage","parentId":"490G00011658","stationId":"490G00011658","stopLetter":"NS","topMostParentId":"490G00011658"},{"icsId":"1004467","id":"490013240S","lat":51.581865,"lon":0.176776,"name":"The Avenue","parentId":"490G00004467","stationId":"490G00004467","stopLetter":"J","topMostParentId":"490G00004467"},{"icsId":"1011659","id":"490011659E","lat":51.580704,"lon":0.182133,"name":"Romford Market","parentId":"490G00011659","stationId":"490G00011659","stopLetter":"E","topMostParentId":"490G00011659"},{"icsId":"1009810","id":"490009810K","lat":51.57911,"lon":0.185131,"name":"Mercury Gardens","parentId":"490G00009810","stationId":"490G00009810","stopLetter":"K","topMostParentId":"490G00009810"},{"icsId":"1014452","id":"490014452Q","lat":51.577133,"lon":0.184084,"name":"Western Road","parentId":"490G00014452","stationId":"490G00014452","stopLetter":"Q","topMostParentId":"490G00014452"},{"icsId":"1001243","id":"490001243T","lat":51.574405,"lon":0.183794,"name":"Romford Station","parentId":"490G01243W","stationId":"490G01243W","stopLetter":"T","topMostParentId":"910GROMFORD"},{"icsId":"1011667","id":"490011667HD","lat":51.571378,"lon":0.182163,"name":"Rom Valley Way","parentId":"490G00011667","stationId":"490G00011667","stopLetter":"HD","topMostParentId":"490G00011667"},{"icsId":"1016444","id":"490016444HL","lat":51.568498,"lon":0.181809,"name":"Queen's Hospital","parentId":"490G00016444","stationId":"490G00016444","stopLetter":"HL","topMostParentId":"490G00016444"},{"icsId":"1010443","id":"490010443W","lat":51.565637,"lon":0.181845,"name":"Norwood Avenue","parentId":"490G00010443","stationId":"490G00010443","stopLetter":"RU","topMostParentId":"490G00010443"},{"icsId":"1000349","id":"490005927W","lat":51.565368,"lon":0.175021,"name":"Rush Green Road / Dagenham Road","parentId":"490G00000349","stationId":"490G00000349","stopLetter":"J","topMostParentId":"490G00000349"},{"icsId":"1009090","id":"490009090W","lat":51.564675,"lon":0.169707,"name":"Leonard Avenue","parentId":"490G00009090","stationId":"490G00009090","stopLetter":"K","topMostParentId":"490G00009090"},{"icsId":"1005381","id":"490005381W","lat":51.563716,"lon":0.16565,"name":"Clayton Road","parentId":"490G00005381","stationId":"490G00005381","stopLetter":"L","topMostParentId":"490G00005381"},{"icsId":"1003660","id":"490003660W","lat":51.563195,"lon":0.162235,"name":"Barton Avenue","parentId":"490G00003660","stationId":"490G00003660","stopLetter":"M","topMostParentId":"490G00003660"},{"icsId":"1005923","id":"490005923P","lat":51.562043,"lon":0.156395,"name":"Cu London University / Wood Lane","parentId":"490G00005923","stationId":"490G00005923","stopLetter":"P","topMostParentId":"490G00005923"},{"icsId":"1003763","id":"490003764W","lat":51.560959,"lon":0.151741,"name":"Becontree Heath Bus Station","parentId":"490G00003763","stationId":"490G00003763","stopLetter":"H","topMostParentId":"490G00003763"},{"icsId":"1003762","id":"490003762E","lat":51.559214,"lon":0.14785,"name":"Morris Road","parentId":"490G00003762","stationId":"490G00003762","stopLetter":"E","topMostParentId":"490G00003762"},{"icsId":"1010519","id":"490010519S","lat":51.555226,"lon":0.147128,"name":"Oglethorpe Road","parentId":"490G00010519","stationId":"490G00010519","stopLetter":"A","topMostParentId":"490G00010519"},{"icsId":"1005557","id":"490005557S","lat":51.553442,"lon":0.147289,"name":"Connor Road","parentId":"490G00005557","stationId":"490G00005557","stopLetter":"B","topMostParentId":"490G00005557"},{"icsId":"1010703","id":"490010703S","lat":51.551722,"lon":0.147425,"name":"Oxlow Lane","parentId":"490G00010703","stationId":"490G00010703","stopLetter":"C","topMostParentId":"490G00010703"},{"icsId":"1006347","id":"490006347S","lat":51.549461,"lon":0.147636,"name":"Eastfield Road","parentId":"490G00006347","stationId":"490G00006347","stopLetter":"D","topMostParentId":"490G00006347"},{"icsId":"1007661","id":"490007661S","lat":51.545633,"lon":0.14796,"name":"Halbutt Street","parentId":"490G00007661","stationId":"490G00007661","stopLetter":"E","topMostParentId":"490G00007661"},{"icsId":"1000281","id":"490011498P","lat":51.543663,"lon":0.147997,"name":"Reede Road","parentId":"490G00000281","stationId":"490G00000281","stopLetter":"P","topMostParentId":"490G00000281"},{"icsId":"1000059","id":"490000059E","lat":51.541162,"lon":0.148067,"name":"Dagenham Heathway Station","parentId":"490G00059B","stationId":"490G00059B","stopLetter":"E","topMostParentId":"940GZZLUDGY","zone":"5"},{"icsId":"1013298","id":"490013298J","lat":51.53908,"lon":0.148286,"name":"Church Elm Lane","parentId":"490G00013298","stationId":"490G00013298","stopLetter":"J","topMostParentId":"490G00013298"},{"icsId":"1003388","id":"490003388S","lat":51.535106,"lon":0.148257,"name":"Arnold Road","parentId":"490G00003388","stationId":"490G00003388","stopLetter":"A","topMostParentId":"490G00003388"},{"icsId":"1010462","id":"490010462S","lat":51.532623,"lon":0.148314,"name":"Nutbrowne Road","parentId":"490G00010462","stationId":"490G00010462","stopLetter":"B","topMostParentId":"490G00010462"},{"icsId":"1003565","id":"490003565E2","lat":51.529824,"lon":0.153834,"name":"Ballards Road / Princess Parade","parentId":"490G00003565","stationId":"490G00003565","stopLetter":"D","topMostParentId":"490G00003565"}]}]}