{"direction":"outbound","lineId":"177","lineName":"177","mode":"bus","stopPointSequences":[{"stopPoint":[{"icsId":"1013214","id":"490013214A","lat":51.507389,"lon":0.109183,"name":"Thamesmead Town Centre","parentId":"490G00013214","stationId":"490G00013214","stopLetter":"A","topMostParentId":"490G00013214"},{"icsId":"1009198","id":"490009198D","lat":51.507586,"lon":0.112708,"name":"Linton Mead Primary School","parentId":"490G00009198","stationId":"490G00009198","stopLetter":"D","topMostParentId":"490G00009198"},{"icsId":"1008405","id":"490008405E","lat":51.509319,"lon":0.116377,"name":"Hoveton Road","parentId":"490G00008405","stationId":"490G00008405","topMostParentId":"490G00008405"},{"icsId":"1010268","id":"490010268E","lat":51.509522,"lon":0.120061,"name":"Nickelby Close","parentId":"490G00010268","stationId":"490G00010268","stopLetter":"NE","topMostParentId":"490G00010268"},{"icsId":"1006355","id":"490006355S","lat":51.509107,"lon":0.126066,"name":"Eastgate Close","parentId":"490G00006355","stationId":"490G00006355","stopLetter":"NG","topMostParentId":"490G00006355"},{"icsId":"1009206","id":"490009206W","lat":51.506652,"lon":0.1266,"name":"Lister Walk","parentId":"490G00009206","stationId":"490G00009206","stopLetter":"NH","topMostParentId":"490G00009206"},{"icsId":"1011113","id":"490011113W","lat":51.506063,"lon":0.12137,"name":"Poplar Place","parentId":"490G00011113","stationId":"490G00011113","stopLetter":"SE","topMostParentId":"490G00011113"},{"icsId":"1004130","id":"490004130S","lat":51.503737,"lon":0.119202,"name":"Carlyle Road / Crossway","parentId":"490G00004130","stationId":"490G00004130","stopLetter":"SJ","topMostParentId":"490G00004130"},{"icsId":"1010190","id":"490010190S","lat":51.497482,"lon":0.121476,"name":"Newacres Library","parentId":"490G00010190","stationId":"490G00010190","stopLetter":"->S","topMostParentId":"490G00010190"},{"icsId":"1015210","id":"490015210W","lat":51.496188,"lon":0.118924,"name":"Eynsham Drive / Harrow Manor Way","parentId":"490G00015210","stationId":"490G00015210","stopLetter":"R","topMostParentId":"490G00015210"},{"icsId":"1010971","id":"490010971W","lat":51.495405,"lon":0.114997,"name":"Peterstone Road","parentId":"490G00010971","stationId":"490G00010971","stopLetter":"->W","topMostParentId":"490G00010971"},{"icsId":"1004957","id":"490004957W","lat":51.493921,"lon":0.112019,"name":"Chalcombe Road","parentId":"490G00004957","stationId":"490G00004957","topMostParentId":"490G00004957"},{"icsId":"1006774","id":"490006774W","lat":51.493508,"lon":0.110948,"name":"Felixstowe Road","parentId":"490G00006774","stationId":"490G00006774","topMostParentId":"490G00006774"},{"icsId":"1004110","id":"490004110W","lat":51.489434,"lon":0.107979,"name":"Eynsham Drive / Blithdale Road","parentId":"490G00004110","stationId":"490G00004110","stopLetter":"->W","topMostParentId":"490G00004110"},{"icsId":"1004835","id":"490004835S","lat":51.486521,"lon":0.107413,"name":"Cassilda Road","parentId":"490G00004835","stationId":"490G00004835","stopLetter":"->S","topMostParentId":"490G00004835"},{"icsId":"1004163","id":"490004163S","lat":51.48487,"lon":0.106732,"name":"Basildon Road / Bostall Hill","parentId":"490G00004163","stationId":"490G00004163","stopLetter":"->S","topMostParentId":"490G00004163"},{"icsId":"1011075","id":"490011075W1","lat":51.485662,"lon":0.100704,"name":"Plumstead Corner / Rockmount Road","parentId":"490G00011075","stationId":"490G00011075","stopLetter":"WE","topMostParentId":"490G00011075"},{"icsId":"1011077","id":"490011077W","lat":51.486618,"lon":0.096024,"name":"Plumstead High Street / Police Station","parentId":"490G00011077","stationId":"490G00011077","stopLetter":"WH","topMostParentId":"490G00011077"},{"icsId":"1003584","id":"490003584O","lat":51.48719,"lon":0.093198,"name":"Bannockburn Road","parentId":"490G00003584","stationId":"490G00003584","stopLetter":"WJ","topMostParentId":"490G00003584"},{"icsId":"1008908","id":"490008908S","lat":51.487841,"lon":0.090448,"name":"Lakedale Road","parentId":"490G00008908","stationId":"490G00008908","stopLetter":"WK","topMostParentId":"490G00008908"},{"icsId":"1019871","id":"490001227E","lat":51.490365,"lon":0.083533,"name":"Plumstead Road / Plumstead Station","parentId":"490G000959","stationId":"490G000959","stopLetter":"WM","topMostParentId":"490G000959"},{"icsId":"1014924","id":"490014924D","lat":51.4909,"lon":0.080273,"name":"Greenwich Community College","parentId":"490G00014924","stationId":"490G00014924","stopLetter":"WP","topMostParentId":"490G00014924"},{"icsId":"1009723","id":"490009723W","lat":51.49087,"lon":0.076872,"name":"Maxey Road","parentId":"490G00009723","stationId":"490G00009723","stopLetter":"->W","topMostParentId":"490G00009723"},{"icsId":"1014934","id":"490014934W1","lat":51.491116,"lon":0.071136,"name":"Plumstead Road / Woolwich Public Market","parentId":"490G00014934","stationId":"490G00014934","stopLetter":"D","topMostParentId":"490G00014934"},{"icsId":"1003917","id":"490003917D","lat":51.491933,"lon":0.068119,"name":"Beresford Sq / Woolwich Arsenal Stn","parentId":"490G000411","stationId":"490G000411","stopLetter":"U","topMostParentId":"490G000411"},{"icsId":"1014928","id":"490014928A","lat":51.493458,"lon":0.062224,"name":"Woolwich Ferry","parentId":"490G00014928","stationId":"490G00014928","stopLetter":"A","topMostParentId":"490G00014928"},{"icsId":"1006982","id":"490006982DG","lat":51.492843,"lon":0.055238,"name":"Kingsman Street","parentId":"490G00006982","stationId":"490G00006982","stopLetter":"DG","topMostParentId":"490G00006982"},{"icsId":"1011247","id":"490011247DC","lat":51.49209,"lon":0.051012,"name":"Prospect Vale","parentId":"490G00011247","stationId":"490G00011247","stopLetter":"DC","topMostParentId":"490G00011247"},{"icsId":"1014247","id":"490014247W","lat":51.492397,"lon":0.046834,"name":"Warspite Road","parentId":"490G00014247","stationId":"490G00014247","stopLetter":"U","topMostParentId":"490G00014247"},{"icsId":"1020099","id":"490014923W","lat":51.491424,"lon":0.042267,"name":"Cleveley Close","parentId":"490G00020099","stationId":"490G00020099","stopLetter":"V","topMostParentId":"490G00020099"},{"icsId":"1013207","id":"490013207W","lat":51.490261,"lon":0.039881,"name":"Greenwich Trust School","parentId":"490G00013207","stationId":"490G00013207","stopLetter":"W","topMostParentId":"490G00013207"},{"icsId":"1010911","id":"490015556W","lat":51.4896,"lon":0.038065,"name":"Woolwich Road / Charlton Lane","parentId":"490G00010911","stationId":"490G00010911","stopLetter":"B","topMostParentId":"490G00010911"},{"icsId":"1012854","id":"490012854W","lat":51.488696,"lon":0.03523,"name":"Stone Lake Retail Park","parentId":"490G00012854","stationId":"490G00012854","stopLetter":"D","topMostParentId":"490G00012854"},{"icsId":"1019754","id":"490001058F","lat":51.488078,"lon":0.032495,"name":"Charlton Station  / Woolwich Road","parentId":"490G000946","stationId":"490G000946","stopLetter":"F","topMostParentId":"490G000946"},{"icsId":"1007093","id":"490007093W1","lat":51.487419,"lon":0.027928,"name":"Woolwich Road / Gallions Road","parentId":"490G00007093","stationId":"490G00007093","topMostParentId":"490G00007093"},{"icsId":"1011704","id":"490011704W","lat":51.487184,"lon":0.025397,"name":"Woolwich Road / Victoria Way","parentId":"490G00011704","stationId":"490G00011704","stopLetter":"->W","topMostParentId":"490G00011704"},{"icsId":"1011398","id":"490011398J","lat":51.486631,"lon":0.022578,"name":"Rainton Road","parentId":"490G00011398","stationId":"490G00011398","stopLetter":"J","topMostParentId":"490G00011398"},{"icsId":"1006356","id":"490006356W","lat":51.486293,"lon":0.016586,"name":"Kemsing Road","parentId":"490G00006356","stationId":"490G00006356","stopLetter":"D","topMostParentId":"490G00006356"},{"icsId":"1009685","id":"490009685W","lat":51.486104,"lon":0.012962,"name":"Marlton Street","parentId":"490G00009685","stationId":"490G00009685","stopLetter":"Q","topMostParentId":"490G00009685"},{"icsId":"1003334","id":"490003334W","lat":51.486146,"lon":0.011019,"name":"Calvert Road","parentId":"490G00003334","stationId":"490G00003334","topMostParentId":"490G00003334"},{"icsId":"1015332","id":"490007510A","lat":51.486172,"lon":0.008442,"name":"Vanbrugh Hill","parentId":"490G00015332","stationId":"490G00015332","stopLetter":"A","topMostParentId":"490G00015332"},{"icsId":"1004081","id":"490005224L","lat":51.485286,"lon":0.005595,"name":"Tyler Street","parentId":"490G00004081","stationId":"490G00004081","stopLetter":"L","topMostParentId":"490G00004081"},{"icsId":"1009754","id":"490009754G","lat":51.483635,"lon":0.000107,"name":"Trafalgar Road / Maze Hill","parentId":"490G000663","stationId":"490G000663","stopLetter":"G","topMostParentId":"490G000663"},{"icsId":"1013764","id":"490013764T","lat":51.482928,"lon":-0.002747,"name":"Trafalgar Estate","parentId":"490G00013764","stationId":"490G00013764","stopLetter":"T","topMostParentId":"490G00013764"},{"icsId":"1006196","id":"490006196G","lat":51.481465,"lon":-0.007117,"name":"National Maritime Museum","parentId":"490G000489","stationId":"490G000489","stopLetter":"G","topMostParentId":"490G000489"},{"icsId":"1007506","id":"490007506E","lat":51.480865,"lon":-0.008872,"name":"Greenwich Town Centre / Nelson Road","parentId":"490G000546","stationId":"490G000546","stopLetter":"E","topMostParentId":"490G000546"},{"icsId":"1007516","id":"490007513K","lat":51.479089,"lon":-0.010216,"name":"Greenwich High Road / Royal Hill","parentId":"490G00007516","stationId":"490G00007516","stopLetter":"K","topMostParentId":"490G00007516"},{"icsId":"1001123","id":"490001123P","lat":51.477532,"lon":-0.013841,"name":"Greenwich Station","parentId":"490G01123L","stationId":"490G01123L","stopLetter":"P","topMostParentId":"HUBGNW","zone":"2+3"},{"icsId":"1009890","id":"490009890S","lat":51.475696,"lon":-0.019062,"name":"Miller House","parentId":"490G00009890","stationId":"490G00009890","stopLetter":"X","topMostParentId":"490G00009890"},{"icsId":"1004070","id":"490004070W","lat":51.474784,"lon":-0.020441,"name":"Greenwich High Road / Blackheath Road","parentId":"490G00004070","stationId":"490G00004070","stopLetter":"W","topMostParentId":"490G00004070"},{"icsId":"1002029","id":"490002029T","lat":51.474417,"lon":-0.023193,"name":"Deptford Bridge Station","parentId":"490G02029S","stationId":"490G02029S","stopLetter":"T","topMostParentId":"940GZZDLDEP","zone":"2+3"},{"icsId":"1006879","id":"490006879F","lat":51.475242,"lon":-0.028399,"name":"Florence Road","parentId":"490G00006879","stationId":"490G00006879","stopLetter":"F","topMostParentId":"490G00006879"},{"icsId":"1000155","id":"490000155W","lat":51.475685,"lon":-0.031216,"name":"New Cross Station","parentId":"490G00155V","stationId":"490G00155V","stopLetter":"W","topMostParentId":"HUBNWX"},{"icsId":"1007276","id":"490007276Y","lat":51.475052,"lon":-0.035333,"name":"Marquis Of Granby / Goldsmiths","parentId":"490G00007276","stationId":"490G00007276","stopLetter":"Y","topMostParentId":"490G00007276"},{"icsId":"1000156","id":"490000156O","lat":51.474837,"lon":-0.039648,"name":"New Cross Gate Station","parentId":"490G00156M","stationId":"490G00156M","stopLetter":"O","topMostParentId":"HUBNXG"},{"icsId":"1010204","id":"490010204K","lat":51.474095,"lon":-0.044245,"name":"New Cross Bus Garage","parentId":"490G00010204","stationId":"490G00010204","stopLetter":"K","topMostParentId":"490G00010204"},{"icsId":"1010205","id":"490010205A","lat":51.473916,"lon":-0.048587,"name":"New Cross Fire Station","parentId":"490G00010205","stationId":"490G00010205","stopLetter":"A","topMostParentId":"490G00010205"},{"icsId":"1011088","id":"490011088QA","lat":51.473048,"lon":-0.05208,"name":"Pomeroy Street","parentId":"490G00011088","stationId":"490G00011088","stopLetter":"QA","topMostParentId":"490G00011088"},{"icsId":"1001233","id":"490001233QB","lat":51.473597,"lon":-0.059184,"name":"Queen's Road Peckham Station","parentId":"490G01233QN","stationId":"490G01233QN","stopLetter":"QB","topMostParentId":"910GPCKHMQD"},{"icsId":"1004799","id":"490004799QC","lat":51.473936,"lon":-0.061747,"name":"Carlton Grove","parentId":"490G00004799","stationId":"490G00004799","stopLetter":"QC","topMostParentId":"490G00004799"},{"icsId":"1010877","id":"490010877W","lat":51.473715,"lon":-0.06743,"name":"Peckham Bus Station","parentId":"490G00010877","stationId":"490G00010877","stopLetter":"->W","topMostParentId":"490G00010877"}]}]}