{"direction":"outbound","lineId":"18","lineName":"18","mode":"bus","stopPointSequences":[{"stopPoint":[{"icsId":"1001282","id":"490003597G","lat":51.553843,"lon":-0.314364,"name":"Sudbury & Harrow Road Station","parentId":"490G01282J","stationId":"490G01282J","stopLetter":"G","topMostParentId":"910GSDBRYHR"},{"icsId":"1013363","id":"490013363E","lat":51.551894,"lon":-0.310166,"name":"Chaplin Road","parentId":"490G00013363","stationId":"490G00013363","stopLetter":"HA","topMostParentId":"490G00013363"},{"icsId":"1005583","id":"490005583E","lat":51.552096,"lon":-0.305442,"name":"Copland Avenue","parentId":"490G00005583","stationId":"490G00005583","stopLetter":"HB","topMostParentId":"490G00005583"},{"icsId":"1006299","id":"490006299A","lat":51.552226,"lon":-0.300764,"name":"Ealing Road","parentId":"490G00006299","stationId":"490G00006299","stopLetter":"CX","topMostParentId":"490G00006299"},{"icsId":"1000256","id":"490000256F","lat":51.552431,"lon":-0.297554,"name":"Wembley Central Station","parentId":"490G00256G","stationId":"490G00256G","stopLetter":"CN","topMostParentId":"HUBWMB","zone":"4"},{"icsId":"1005588","id":"490005584K","lat":51.553657,"lon":-0.292142,"name":"Arkelvin Academy / Park Lane","parentId":"490G00005588","stationId":"490G00005588","stopLetter":"SG","topMostParentId":"490G00005588"},{"icsId":"1014387","id":"490014387E2","lat":51.553619,"lon":-0.28835,"name":"Wembley Triangle","parentId":"490G00014387","stationId":"490G00014387","stopLetter":"SC","topMostParentId":"490G00014387"},{"icsId":"1014315","id":"490014315N1","lat":51.552693,"lon":-0.284663,"name":"Waverley Avenue","parentId":"490G00014315","stationId":"490G00014315","stopLetter":"SK","topMostParentId":"490G00014315"},{"icsId":"1013797","id":"490013797S","lat":51.550274,"lon":-0.281552,"name":"Tring Avenue","parentId":"490G00013797","stationId":"490G00013797","stopLetter":"->S","topMostParentId":"490G00013797"},{"icsId":"1006871","id":"490007867E","lat":51.548617,"lon":-0.278355,"name":"Flamsted Avenue","parentId":"490G00006871","stationId":"490G00006871","stopLetter":"->E","topMostParentId":"490G00006871"},{"icsId":"1014975","id":"490014975E","lat":51.54725,"lon":-0.275291,"name":"Wyld Way","parentId":"490G00014975","stationId":"490G00014975","stopLetter":"->E","topMostParentId":"490G00014975"},{"icsId":"1010337","id":"490010337D","lat":51.545553,"lon":-0.272962,"name":"Stonebridge Park Stn   / Point Place","parentId":"490G000681","stationId":"490G000681","stopLetter":"D","topMostParentId":"490G000681"},{"icsId":"1010332","id":"490010332J","lat":51.543743,"lon":-0.270953,"name":"North Circular Road","parentId":"490G00010332","stationId":"490G00010332","stopLetter":"J","topMostParentId":"490G00010332"},{"icsId":"1005452","id":"490005452E","lat":51.543186,"lon":-0.269215,"name":"Sunny Crescent","parentId":"490G00005452","stationId":"490G00005452","topMostParentId":"490G00005452"},{"icsId":"1019834","id":"490012847E","lat":51.542135,"lon":-0.265592,"name":"West End Close","parentId":"490G00019834","stationId":"490G00019834","stopLetter":"K","topMostParentId":"490G00019834"},{"icsId":"1012848","id":"490012848E","lat":51.54125,"lon":-0.260506,"name":"Shakespeare Road","parentId":"490G00012848","stationId":"490G00012848","stopLetter":"L","topMostParentId":"490G00012848"},{"icsId":"1008865","id":"490008865E","lat":51.541416,"lon":-0.25776,"name":"Knatchbull Road","parentId":"490G00008865","stationId":"490G00008865","stopLetter":"M","topMostParentId":"490G00008865"},{"icsId":"1005720","id":"490005720E","lat":51.540826,"lon":-0.255533,"name":"Craven Park","parentId":"490G00005720","stationId":"490G00005720","stopLetter":"N","topMostParentId":"490G00005720"},{"icsId":"1012803","id":"490012803E","lat":51.539188,"lon":-0.251255,"name":"St Mary's Road","parentId":"490G00012803","stationId":"490G00012803","stopLetter":"E","topMostParentId":"490G00012803"},{"icsId":"1009571","id":"490009571A","lat":51.537135,"lon":-0.246273,"name":"Tavistock Road","parentId":"490G00009571","stationId":"490G00009571","stopLetter":"A","topMostParentId":"490G00009571"},{"icsId":"1013826","id":"490013826G","lat":51.534386,"lon":-0.24224,"name":"Nightingale Road","parentId":"490G00013826","stationId":"490G00013826","stopLetter":"G","topMostParentId":"490G00013826"},{"icsId":"1005491","id":"490005491E","lat":51.532383,"lon":-0.236348,"name":"Scrubs Lane","parentId":"490G00005491","stationId":"490G00005491","stopLetter":"T","topMostParentId":"490G00005491"},{"icsId":"1014076","id":"490014076E","lat":51.531455,"lon":-0.231482,"name":"Victor Road","parentId":"490G00014076","stationId":"490G00014076","stopLetter":"U","topMostParentId":"490G00014076"},{"icsId":"1012788","id":"490012788E","lat":51.530643,"lon":-0.228919,"name":"St Mary's Cemetery","parentId":"490G00012788","stationId":"490G00012788","stopLetter":"KW","topMostParentId":"490G00012788"},{"icsId":"1000122","id":"490000122E","lat":51.53014,"lon":-0.2248,"name":"Kensal Green Station","parentId":"490G00122W","stationId":"490G00122W","stopLetter":"KX","topMostParentId":"HUBKNL","zone":"2"},{"icsId":"1014700","id":"490014700E","lat":51.529185,"lon":-0.220484,"name":"Berens Road","parentId":"490G00014700","stationId":"490G00014700","stopLetter":"KY","topMostParentId":"490G00014700"},{"icsId":"1008727","id":"490008711X","lat":51.528283,"lon":-0.216756,"name":"Kilburn Lane","parentId":"490G00008727","stationId":"490G00008727","stopLetter":"RR","topMostParentId":"490G00008727"},{"icsId":"1006839","id":"490006832E","lat":51.527172,"lon":-0.212893,"name":"Fifth Avenue","parentId":"490G00006839","stationId":"490G00006839","stopLetter":"Z","topMostParentId":"490G00006839"},{"icsId":"1013613","id":"490013613E","lat":51.52678,"lon":-0.209044,"name":"Third Avenue","parentId":"490G00013613","stationId":"490G00013613","stopLetter":"P","topMostParentId":"490G00013613"},{"icsId":"1011135","id":"490011135E","lat":51.525765,"lon":-0.20437,"name":"Portnall Road","parentId":"490G00011135","stationId":"490G00011135","stopLetter":"R","topMostParentId":"490G00011135"},{"icsId":"1018988","id":"490003444E","lat":51.524711,"lon":-0.202494,"name":"Great Western Road / Elgin Avenue","parentId":"490G00018988","stationId":"490G00018988","stopLetter":"D","topMostParentId":"490G00018988"},{"icsId":"1007865","id":"490007865E","lat":51.523644,"lon":-0.198616,"name":"Westminster Registration Office","parentId":"490G00007865","stationId":"490G00007865","stopLetter":"G","topMostParentId":"490G00007865"},{"icsId":"1013054","id":"490013054E","lat":51.522766,"lon":-0.194124,"name":"Sutherland Avenue","parentId":"490G00013054","stationId":"490G00013054","stopLetter":"RA","topMostParentId":"490G00013054"},{"icsId":"1005320","id":"490005320E","lat":51.520878,"lon":-0.19182,"name":"Westminster Academy / Cirencester Street","parentId":"490G00005320","stationId":"490G00005320","stopLetter":"RB","topMostParentId":"490G00005320"},{"icsId":"1000196","id":"490000196C","lat":51.519932,"lon":-0.189407,"name":"Royal Oak Station","parentId":"490G00196B","stationId":"490G00196B","stopLetter":"RC","topMostParentId":"940GZZLURYO","zone":"2"},{"icsId":"1015473","id":"490015473E","lat":51.519785,"lon":-0.186242,"name":"Westbourne Terrace","parentId":"490G00015473","stationId":"490G00015473","stopLetter":"RT","topMostParentId":"490G00015473"},{"icsId":"1014250","id":"490014250E","lat":51.520423,"lon":-0.179283,"name":"Bishops Bridge Road / Little Venice","parentId":"490G00014250","stationId":"490G00014250","stopLetter":"R","topMostParentId":"490G00014250"},{"icsId":"1010713","id":"490010713E","lat":51.520131,"lon":-0.171511,"name":"Paddington Green Police Station","parentId":"490G00010713","stationId":"490G00010713","stopLetter":"EX","topMostParentId":"490G00010713"},{"icsId":"1000071","id":"490000071E","lat":51.520236,"lon":-0.168999,"name":"Edgware Road Station  / Bakerloo Line","parentId":"490G00071E","stationId":"490G00071E","stopLetter":"EZ","topMostParentId":"940GZZLUERB","zone":"1"},{"icsId":"1000351","id":"490015502N","lat":51.521373,"lon":-0.162352,"name":"Marylebone Station","parentId":"490G00000351","stationId":"490G00000351","stopLetter":"N","topMostParentId":"490G00000351"},{"icsId":"1000285","id":"490015040W","lat":51.52202,"lon":-0.158881,"name":"Old Marylebone Town Hall","parentId":"490G000039","stationId":"490G000039","stopLetter":"W","topMostParentId":"490G000039"},{"icsId":"1000011","id":"490000011D","lat":51.52242,"lon":-0.156284,"name":"Baker Street Station","parentId":"490G00011D","stationId":"490G00011D","stopLetter":"D","topMostParentId":"940GZZLUBST","zone":"1"},{"icsId":"1007807","id":"490007807E","lat":51.523366,"lon":-0.149543,"name":"Harley Street","parentId":"490G00007807","stationId":"490G00007807","stopLetter":"M","topMostParentId":"490G00007807"},{"icsId":"1000191","id":"490000191A","lat":51.523758,"lon":-0.147033,"name":"Regent's Park Station","parentId":"490G00191A","stationId":"490G00191A","stopLetter":"A","topMostParentId":"940GZZLURGP","zone":"1"},{"icsId":"1000091","id":"490000091H","lat":51.524025,"lon":-0.142914,"name":"Great Portland St Stn  / Euston Rd","parentId":"490G00091H","stationId":"490G00091H","stopLetter":"H","topMostParentId":"940GZZLUGPS","zone":"1"},{"icsId":"1000252","id":"490000252KA","lat":51.524916,"lon":-0.139519,"name":"Warren Street Station","parentId":"490G00252KA","stationId":"490G00252KA","stopLetter":"KA","topMostParentId":"940GZZLUWRR","zone":"1"},{"icsId":"1000078","id":"490000078Q","lat":51.525602,"lon":-0.136853,"name":"Euston Square Station","parentId":"490G00078P","stationId":"490G00078P","stopLetter":"Q","topMostParentId":"940GZZLUESQ","zone":"1"},{"icsId":"1000077","id":"490000077AZ","lat":51.526663,"lon":-0.132903,"name":"Euston Station","parentId":"490G00077H","stationId":"490G00077H","stopLetter":"AZ","topMostParentId":"HUBEUS","zone":"1"}]}]}