{"direction":"outbound","lineId":"184","lineName":"184","mode":"bus","stopPointSequences":[{"stopPoint":[{"icsId":"1013852","id":"490013852S","lat":51.59036,"lon":-0.102242,"name":"Turnpike Lane Bus Station","parentId":"490G000808","stationId":"490G000808","stopLetter":"S","topMostParentId":"490G000808"},{"icsId":"1009461","id":"490000241L","lat":51.592028,"lon":-0.10532,"name":"Brampton Park Road","parentId":"490G00009461","stationId":"490G00009461","stopLetter":"L","topMostParentId":"490G00009461"},{"icsId":"1009469","id":"490009461J","lat":51.594098,"lon":-0.108193,"name":"Wood Green Shopping City","parentId":"490G00009469","stationId":"490G00009469","stopLetter":"J","topMostParentId":"490G00009469"},{"icsId":"1000275","id":"490015567H","lat":51.59659,"lon":-0.109952,"name":"Wood Green Station","parentId":"490G00275D","stationId":"490G00275D","stopLetter":"H","topMostParentId":"940GZZLUWOG","zone":"3"},{"icsId":"1015472","id":"490015471A","lat":51.597018,"lon":-0.110859,"name":"The Broadway","parentId":"490G00015472","stationId":"490G00015472","stopLetter":"A","topMostParentId":"490G00015472"},{"icsId":"1009734","id":"490009734W","lat":51.596729,"lon":-0.116372,"name":"Barratt Avenue","parentId":"490G00009734","stationId":"490G00009734","stopLetter":"K","topMostParentId":"490G00009734"},{"icsId":"1001005","id":"490001005C","lat":51.59828,"lon":-0.120018,"name":"Alexandra Palace Station","parentId":"490G01005A","stationId":"490G01005A","stopLetter":"L","topMostParentId":"910GALEXNDP"},{"icsId":"1014061","id":"490014061N","lat":51.60063,"lon":-0.134274,"name":"Victoria Road","parentId":"490G00014061","stationId":"490G00014061","topMostParentId":"490G00014061"},{"icsId":"1003158","id":"490003158N","lat":51.602394,"lon":-0.130982,"name":"Albert Road","parentId":"490G00003158","stationId":"490G00003158","stopLetter":"->N","topMostParentId":"490G00003158"},{"icsId":"1014844","id":"490014844N","lat":51.605603,"lon":-0.126417,"name":"Woodfield Way","parentId":"490G00014844","stationId":"490G00014844","stopLetter":"GD","topMostParentId":"490G00014844"},{"icsId":"1000028","id":"490000028C","lat":51.608058,"lon":-0.123586,"name":"Bounds Green Station","parentId":"490G00028C","stationId":"490G00028C","stopLetter":"BN","topMostParentId":"940GZZLUBDS","zone":"3+4"},{"icsId":"1015014","id":"490015014N","lat":51.610283,"lon":-0.122671,"name":"York Road","parentId":"490G00015014","stationId":"490G00015014","stopLetter":"GN","topMostParentId":"490G00015014"},{"icsId":"1004214","id":"490004490N","lat":51.612185,"lon":-0.12187,"name":"Bowes Road","parentId":"490G00004214","stationId":"490G00004214","stopLetter":"GJ","topMostParentId":"490G00004214"},{"icsId":"1000501","id":"490013190W","lat":51.613447,"lon":-0.123768,"name":"Warwick Road","parentId":"490G00000501","stationId":"490G00000501","stopLetter":"GQ","topMostParentId":"490G00000501"},{"icsId":"1017817","id":"490017817W","lat":51.61567,"lon":-0.130032,"name":"Arnos Grove Swimming Pool","parentId":"490G00017817","stationId":"490G00017817","topMostParentId":"490G00017817"},{"icsId":"1000009","id":"490000009W","lat":51.615959,"lon":-0.132952,"name":"Arnos Grove Station","parentId":"490G00009E1","stationId":"490G00009E1","stopLetter":"A","topMostParentId":"940GZZLUASG","zone":"4"},{"icsId":"1011439","id":"490011439W","lat":51.616231,"lon":-0.13596,"name":"Ravenscraig Road","parentId":"490G00011439","stationId":"490G00011439","stopLetter":"C","topMostParentId":"490G00011439"},{"icsId":"1003953","id":"490003953D","lat":51.616303,"lon":-0.139872,"name":"Betstyle Circus","parentId":"490G00003953","stationId":"490G00003953","stopLetter":"D","topMostParentId":"490G00003953"},{"icsId":"1019049","id":"490003953F","lat":51.618202,"lon":-0.140011,"name":"Betstyle Road","parentId":"490G00019049","stationId":"490G00019049","stopLetter":"F","topMostParentId":"490G00019049"},{"icsId":"1004448","id":"490004448N","lat":51.619965,"lon":-0.137786,"name":"Brookdale","parentId":"490G00004448","stationId":"490G00004448","stopLetter":"->N","topMostParentId":"490G00004448"},{"icsId":"1010052","id":"490010052N","lat":51.623164,"lon":-0.136485,"name":"Morton Way","parentId":"490G00010052","stationId":"490G00010052","topMostParentId":"490G00010052"},{"icsId":"1009167","id":"490009167N","lat":51.625073,"lon":-0.137779,"name":"Lincoln Avenue","parentId":"490G00009167","stationId":"490G00009167","stopLetter":"->N","topMostParentId":"490G00009167"},{"icsId":"1003381","id":"490003381N","lat":51.627845,"lon":-0.140787,"name":"Arlington Road","parentId":"490G00003381","stationId":"490G00003381","stopLetter":"X","topMostParentId":"490G00003381"},{"icsId":"1007715","id":"490007715N","lat":51.631391,"lon":-0.142665,"name":"Hampden Square","parentId":"490G00007715","stationId":"490G00007715","stopLetter":"W","topMostParentId":"490G00007715"},{"icsId":"1010651","id":"490010651W","lat":51.630817,"lon":-0.148482,"name":"Osidge Library","parentId":"490G00010651","stationId":"490G00010651","stopLetter":"J","topMostParentId":"490G00010651"},{"icsId":"1003635","id":"490003635N","lat":51.632287,"lon":-0.15046,"name":"Connaught Avenue","parentId":"490G00003635","stationId":"490G00003635","stopLetter":"L","topMostParentId":"490G00003635"},{"icsId":"1010830","id":"490010830N1","lat":51.634016,"lon":-0.152889,"name":"Parkside Gardens","parentId":"490G00010830","stationId":"490G00010830","stopLetter":"M","topMostParentId":"490G00010830"},{"icsId":"1012790","id":"490012790N","lat":51.635209,"lon":-0.155008,"name":"St Mary's Church","parentId":"490G00012790","stationId":"490G00012790","stopLetter":"BL","topMostParentId":"490G00012790"},{"icsId":"1004907","id":"490004907N","lat":51.638708,"lon":-0.160228,"name":"Cedar Avenue","parentId":"490G00004907","stationId":"490G00004907","stopLetter":"BM","topMostParentId":"490G00004907"},{"icsId":"1007297","id":"490007297N","lat":51.63985,"lon":-0.161353,"name":"Littlegrove","parentId":"490G00007297","stationId":"490G00007297","stopLetter":"BN","topMostParentId":"490G00007297"},{"icsId":"1006315","id":"490006315W","lat":51.642896,"lon":-0.164048,"name":"East Barnet Village","parentId":"490G00006315","stationId":"490G00006315","stopLetter":"BP","topMostParentId":"490G00006315"},{"icsId":"1005744","id":"490005744N","lat":51.644237,"lon":-0.165858,"name":"Crescent Road","parentId":"490G00005744","stationId":"490G00005744","stopLetter":"BQ","topMostParentId":"490G00005744"},{"icsId":"1006313","id":"490006313N","lat":51.64823,"lon":-0.168747,"name":"Victoria Road","parentId":"490G00006313","stationId":"490G00006313","stopLetter":"BS","topMostParentId":"490G00006313"},{"icsId":"1010193","id":"490010193B","lat":51.649618,"lon":-0.171278,"name":"New Barnet Sainsbury's","parentId":"490G00010193","stationId":"490G00010193","stopLetter":"B","topMostParentId":"490G00010193"},{"icsId":"1001203","id":"490010192W","lat":51.649398,"lon":-0.176795,"name":"New Barnet Station  / Station Road","parentId":"490G00001203","stationId":"490G00001203","stopLetter":"E","topMostParentId":"490G00001203"},{"icsId":"1011048","id":"490011048F","lat":51.651006,"lon":-0.179029,"name":"Bulwer Road","parentId":"490G00011048","stationId":"490G00011048","stopLetter":"F","topMostParentId":"490G00011048"},{"icsId":"1005417","id":"490005413W","lat":51.652936,"lon":-0.183462,"name":"Hadley Road","parentId":"490G00005417","stationId":"490G00005417","topMostParentId":"490G00005417"},{"icsId":"1012778","id":"490012778W","lat":51.653299,"lon":-0.187133,"name":"St Mark's Close","parentId":"490G00012778","stationId":"490G00012778","stopLetter":"->W","topMostParentId":"490G00012778"},{"icsId":"1008737","id":"490008737W1","lat":51.653075,"lon":-0.190106,"name":"King Edward Road","parentId":"490G00008737","stationId":"490G00008737","stopLetter":"->W","topMostParentId":"490G00008737"},{"icsId":"1000107","id":"490000107P","lat":51.651277,"lon":-0.195989,"name":"High Barnet Station","parentId":"490G00107P","stationId":"490G00107P","stopLetter":"P","topMostParentId":"940GZZLUHBT","zone":"5"},{"icsId":"1003634","id":"490003634K","lat":51.65274,"lon":-0.199313,"name":"Barnet Church","parentId":"490G000398","stationId":"490G000398","stopLetter":"K","topMostParentId":"490G000398"},{"icsId":"1015142","id":"490015142E","lat":51.652975,"lon":-0.202325,"name":"Barnet Church / Wood Street","parentId":"490G00015142","stationId":"490G00015142","stopLetter":"E","topMostParentId":"490G00015142"},{"icsId":"1014705","id":"490014705S","lat":51.649116,"lon":-0.203981,"name":"Willow Drive","parentId":"490G00014705","stationId":"490G00014705","stopLetter":"->S","topMostParentId":"490G00014705"},{"icsId":"1009065","id":"490009065W","lat":51.645833,"lon":-0.204545,"name":"Leeside","parentId":"490G00009065","stationId":"490G00009065","stopLetter":"->W","topMostParentId":"490G00009065"},{"icsId":"1008624","id":"490008624W","lat":51.644817,"lon":-0.208083,"name":"Kenerne Drive","parentId":"490G00008624","stationId":"490G00008624","stopLetter":"->W","topMostParentId":"490G00008624"},{"icsId":"1005555","id":"490005555W","lat":51.643784,"lon":-0.210537,"name":"Connaught Road","parentId":"490G00005555","stationId":"490G00005555","topMostParentId":"490G00005555"},{"icsId":"1012546","id":"490012546N","lat":51.645057,"lon":-0.213233,"name":"Stanhope Road","parentId":"490G00012546","stationId":"490G00012546","topMostParentId":"490G00012546"},{"icsId":"1005129","id":"490005129N","lat":51.646081,"lon":-0.214898,"name":"Chesterfield Road","parentId":"490G00005129","stationId":"490G00005129","stopLetter":"->N","topMostParentId":"490G00005129"}]}]}