{"direction":"outbound","lineId":"189","lineName":"189","mode":"bus","stopPointSequences":[{"stopPoint":[{"icsId":"1004282","id":"490004282D","lat":51.575762,"lon":-0.222691,"name":"Brent Cross Shopping Centre","parentId":"490G00004282","stationId":"490G00004282","stopLetter":"C","topMostParentId":"490G00004282"},{"icsId":"1009624","id":"490009624W","lat":51.573618,"lon":-0.220062,"name":"Mapledown School","parentId":"490G00009624","stationId":"490G00009624","stopLetter":"W","topMostParentId":"490G00009624"},{"icsId":"1005434","id":"490005434S","lat":51.571646,"lon":-0.218682,"name":"Claremont Way","parentId":"490G00005434","stationId":"490G00005434","stopLetter":"A","topMostParentId":"490G00005434"},{"icsId":"1005435","id":"490005435S","lat":51.5693,"lon":-0.218716,"name":"Clitterhouse Road North","parentId":"490G00005435","stationId":"490G00005435","stopLetter":"B","topMostParentId":"490G00005435"},{"icsId":"1008053","id":"490008053S","lat":51.567664,"lon":-0.218217,"name":"Clitterhouse Road South","parentId":"490G00008053","stationId":"490G00008053","stopLetter":"C","topMostParentId":"490G00008053"},{"icsId":"1010914","id":"490010914S","lat":51.563811,"lon":-0.215568,"name":"Pennine Drive","parentId":"490G00010914","stationId":"490G00010914","stopLetter":"D","topMostParentId":"490G00010914"},{"icsId":"1012230","id":"490012230S","lat":51.561081,"lon":-0.213439,"name":"Somerton Road","parentId":"490G00012230","stationId":"490G00012230","stopLetter":"CK","topMostParentId":"490G00012230"},{"icsId":"1001075","id":"490001075Q","lat":51.559498,"lon":-0.212217,"name":"Cricklewood Station","parentId":"490G01075Q","stationId":"490G01075Q","stopLetter":"CL","topMostParentId":"910GCRKLWD"},{"icsId":"1005773","id":"490005773D","lat":51.557082,"lon":-0.214779,"name":"Cricklewood Broadway","parentId":"490G000473","stationId":"490G000473","stopLetter":"CW","topMostParentId":"490G000473"},{"icsId":"1005770","id":"490005770H","lat":51.556024,"lon":-0.214373,"name":"Cricklewood Broadway / The Crown","parentId":"490G000471","stationId":"490G000471","stopLetter":"BE","topMostParentId":"490G000471"},{"icsId":"1014140","id":"490014140S1","lat":51.553957,"lon":-0.212132,"name":"Skardu Road","parentId":"490G00014140","stationId":"490G00014140","stopLetter":"BF","topMostParentId":"490G00014140"},{"icsId":"1009940","id":"490014140S","lat":51.551746,"lon":-0.209247,"name":"Minster Road","parentId":"490G00009940","stationId":"490G00009940","stopLetter":"BH","topMostParentId":"490G00009940"},{"icsId":"1009909","id":"490015795S","lat":51.550846,"lon":-0.207999,"name":"Mill Lane","parentId":"490G00009909","stationId":"490G00009909","stopLetter":"BJ","topMostParentId":"490G00009909"},{"icsId":"1008768","id":"490009909S","lat":51.549641,"lon":-0.206214,"name":"St Cuthbert's Road","parentId":"490G00008768","stationId":"490G00008768","stopLetter":"BG","topMostParentId":"490G00008768"},{"icsId":"1000126","id":"490000126B","lat":51.547955,"lon":-0.204766,"name":"Kilburn Station","parentId":"490G00126B","stationId":"490G00126B","stopLetter":"B","topMostParentId":"940GZZLUKBN","zone":"2"},{"icsId":"1001038","id":"490001038D","lat":51.545348,"lon":-0.201912,"name":"Brondesbury Station","parentId":"490G01038N","stationId":"490G01038N","stopLetter":"D","topMostParentId":"910GBRBY"},{"icsId":"1004565","id":"490004565F","lat":51.544081,"lon":-0.200159,"name":"Buckley Road","parentId":"490G00004565","stationId":"490G00004565","stopLetter":"E","topMostParentId":"490G00004565"},{"icsId":"1008713","id":"490008713H","lat":51.541003,"lon":-0.196517,"name":"Kingsgate Place","parentId":"490G00008713","stationId":"490G00008713","stopLetter":"H","topMostParentId":"490G00008713"},{"icsId":"1011375","id":"490011375K","lat":51.540252,"lon":-0.194427,"name":"Quex Road","parentId":"490G00011375","stationId":"490G00011375","stopLetter":"K","topMostParentId":"490G00011375"},{"icsId":"1011237","id":"490011237S","lat":51.541132,"lon":-0.190859,"name":"Priory Road","parentId":"490G00011237","stationId":"490G00011237","stopLetter":"G","topMostParentId":"490G00011237"},{"icsId":"1018983","id":"490003027S","lat":51.540205,"lon":-0.187896,"name":"Belsize Road","parentId":"490G00018983","stationId":"490G00018983","stopLetter":"P","topMostParentId":"490G00018983"},{"icsId":"1004187","id":"490004187S","lat":51.5382,"lon":-0.185005,"name":"Boundary Road","parentId":"490G00004187","stationId":"490G00004187","stopLetter":"R","topMostParentId":"490G00004187"},{"icsId":"1004800","id":"490004800S","lat":51.536002,"lon":-0.181863,"name":"Carlton Hill","parentId":"490G00004800","stationId":"490G00004800","stopLetter":"S","topMostParentId":"490G00004800"},{"icsId":"1009675","id":"490009675S","lat":51.535086,"lon":-0.180775,"name":"Marlborough Place","parentId":"490G00009675","stationId":"490G00009675","stopLetter":"T","topMostParentId":"490G00009675"},{"icsId":"1015334","id":"490007557G","lat":51.531255,"lon":-0.176689,"name":"Hall Road","parentId":"490G00015334","stationId":"490G00015334","stopLetter":"S","topMostParentId":"490G00015334"},{"icsId":"1006984","id":"490015334H","lat":51.528468,"lon":-0.174984,"name":"St John's Wood Road / Lord's Cricket Grd","parentId":"490G00006984","stationId":"490G00006984","stopLetter":"H","topMostParentId":"490G00006984"},{"icsId":"1006979","id":"490006979S","lat":51.525927,"lon":-0.170645,"name":"Frampton Street","parentId":"490G00006979","stationId":"490G00006979","stopLetter":"LH","topMostParentId":"490G00006979"},{"icsId":"1005311","id":"490005311S1","lat":51.524388,"lon":-0.167708,"name":"Church Street Market","parentId":"490G00005311","stationId":"490G00005311","stopLetter":"LJ","topMostParentId":"490G00005311"},{"icsId":"1011717","id":"490011717S","lat":51.524646,"lon":-0.166343,"name":"Rossmore Road / Lisson Grove","parentId":"490G00011717","stationId":"490G00011717","stopLetter":"LK","topMostParentId":"490G00011717"},{"icsId":"1010797","id":"490010797E","lat":51.525604,"lon":-0.16208,"name":"Park Road / London Business School","parentId":"490G00010797","stationId":"490G00010797","stopLetter":"LL","topMostParentId":"490G00010797"},{"icsId":"1000011","id":"490000011A","lat":51.52351,"lon":-0.158114,"name":"Baker Street Station","parentId":"490G00011B","stationId":"490G00011B","stopLetter":"A","topMostParentId":"940GZZLUBST","zone":"1"},{"icsId":"1009990","id":"490015021G","lat":51.521055,"lon":-0.156959,"name":"Dorset Street","parentId":"490G00009990","stationId":"490G00009990","stopLetter":"G","topMostParentId":"490G00009990"},{"icsId":"1020105","id":"490004096H","lat":51.517123,"lon":-0.155143,"name":"Portman Square","parentId":"490G00020105","stationId":"490G00020105","stopLetter":"H","topMostParentId":"490G00020105"},{"icsId":"1010622","id":"490010622L","lat":51.514379,"lon":-0.153914,"name":"Orchard Street / Selfridges","parentId":"490G00010622","stationId":"490G00010622","stopLetter":"BZ","topMostParentId":"490G00010622"},{"icsId":"1000144","id":"490000144P","lat":51.513457,"lon":-0.157612,"name":"Marble Arch Station","parentId":"490G00144L","stationId":"490G00144L","stopLetter":"P","topMostParentId":"940GZZLUMBA","zone":"1"}]}]}