{"direction":"outbound","lineId":"191","lineName":"191","mode":"bus","stopPointSequences":[{"stopPoint":[{"icsId":"1009983","id":"490009983C","lat":51.625511,"lon":-0.058227,"name":"Edmonton Green Bus Station","parentId":"490G00009983","stationId":"490G00009983","stopLetter":"C","topMostParentId":"490G00009983"},{"icsId":"1004181","id":"490009983P","lat":51.626663,"lon":-0.057253,"name":"Monmouth Road","parentId":"490G00004181","stationId":"490G00004181","stopLetter":"P","topMostParentId":"490G00004181"},{"icsId":"1004180","id":"490004180N1","lat":51.627714,"lon":-0.05663,"name":"Bounces Road","parentId":"490G00004180","stationId":"490G00004180","stopLetter":"LJ","topMostParentId":"490G00004180"},{"icsId":"1019080","id":"490004180E","lat":51.628777,"lon":-0.055125,"name":"St Edmunds Catholic Primary School","parentId":"490G00019080","stationId":"490G00019080","stopLetter":"LS","topMostParentId":"490G00019080"},{"icsId":"1005134","id":"490005136E","lat":51.628294,"lon":-0.051491,"name":"Chester Road","parentId":"490G00005134","stationId":"490G00005134","stopLetter":"LU","topMostParentId":"490G00005134"},{"icsId":"1006686","id":"490006686E","lat":51.628176,"lon":-0.048678,"name":"Exeter Road","parentId":"490G00006686","stationId":"490G00006686","stopLetter":"LV","topMostParentId":"490G00006686"},{"icsId":"1009993","id":"490009991E","lat":51.628044,"lon":-0.04617,"name":"Montagu Road","parentId":"490G00009993","stationId":"490G00009993","stopLetter":"->E","topMostParentId":"490G00009993"},{"icsId":"1012802","id":"490012802N","lat":51.630478,"lon":-0.04384,"name":"St Mary's Road","parentId":"490G00012802","stationId":"490G00012802","stopLetter":"->N","topMostParentId":"490G00012802"},{"icsId":"1012095","id":"490012095N","lat":51.63462,"lon":-0.044717,"name":"Shirley Grove","parentId":"490G00012095","stationId":"490G00012095","stopLetter":"->N","topMostParentId":"490G00012095"},{"icsId":"1011941","id":"490011941N","lat":51.637766,"lon":-0.046258,"name":"Scarborough Road","parentId":"490G00011941","stationId":"490G00011941","stopLetter":"->N","topMostParentId":"490G00011941"},{"icsId":"1007087","id":"490007087N","lat":51.640472,"lon":-0.047803,"name":"Nightingale Road","parentId":"490G00007087","stationId":"490G00007087","stopLetter":"LR","topMostParentId":"490G00007087"},{"icsId":"1010364","id":"490012335N","lat":51.642778,"lon":-0.046953,"name":"Orchard Road","parentId":"490G00010364","stationId":"490G00010364","stopLetter":"->N","topMostParentId":"490G00010364"},{"icsId":"1006723","id":"490006723E","lat":51.643418,"lon":-0.040595,"name":"Falcon Road","parentId":"490G00006723","stationId":"490G00006723","stopLetter":"PX","topMostParentId":"490G00006723"},{"icsId":"1001228","id":"490001228E","lat":51.642611,"lon":-0.036958,"name":"Ponders End Stn  / Oasis Academy Hadley","parentId":"490G01228S","stationId":"490G01228S","stopLetter":"PZ","topMostParentId":"910GPNDRSEN"},{"icsId":"1011951","id":"490011951N","lat":51.646317,"lon":-0.034356,"name":"Scotland Green Road","parentId":"490G00011951","stationId":"490G00011951","stopLetter":"PR","topMostParentId":"490G00011951"},{"icsId":"1015127","id":"490015127W","lat":51.647729,"lon":-0.037026,"name":"Alexandra Road","parentId":"490G00015127","stationId":"490G00015127","stopLetter":"PO","topMostParentId":"490G00015127"},{"icsId":"1003219","id":"490003219W","lat":51.647092,"lon":-0.038702,"name":"Scotland Green Road","parentId":"490G00003219","stationId":"490G00003219","stopLetter":"PL","topMostParentId":"490G00003219"},{"icsId":"1008101","id":"490008101E","lat":51.648162,"lon":-0.045218,"name":"Ponders End High Street","parentId":"490G000592","stationId":"490G000592","stopLetter":"E","topMostParentId":"490G000592"},{"icsId":"1007258","id":"490007258D","lat":51.648508,"lon":-0.048138,"name":"Glyn Road","parentId":"490G000534","stationId":"490G000534","stopLetter":"D","topMostParentId":"490G000534"},{"icsId":"1006576","id":"490006576B","lat":51.648643,"lon":-0.050315,"name":"Enfield Bus Garage / Southbury Station","parentId":"490G000504","stationId":"490G000504","stopLetter":"B","topMostParentId":"490G000504"},{"icsId":"1005843","id":"490005843W","lat":51.649004,"lon":-0.055301,"name":"Crown Road","parentId":"490G00005843","stationId":"490G00005843","stopLetter":"T","topMostParentId":"490G00005843"},{"icsId":"1015329","id":"490015329W","lat":51.649075,"lon":-0.057972,"name":"Baird Road","parentId":"490G00015329","stationId":"490G00015329","stopLetter":"H","topMostParentId":"490G00015329"},{"icsId":"1007396","id":"490007396W2","lat":51.649822,"lon":-0.061814,"name":"Great Cambridge Road","parentId":"490G00007396","stationId":"490G00007396","stopLetter":"J","topMostParentId":"490G00007396"},{"icsId":"1003937","id":"490003937W","lat":51.65051,"lon":-0.065341,"name":"Percival Road","parentId":"490G00003937","stationId":"490G00003937","stopLetter":"K","topMostParentId":"490G00003937"},{"icsId":"1004902","id":"490004902W","lat":51.651151,"lon":-0.069318,"name":"Cecil Avenue","parentId":"490G00004902","stationId":"490G00004902","stopLetter":"L","topMostParentId":"490G00004902"},{"icsId":"1008903","id":"490008903W","lat":51.652188,"lon":-0.074955,"name":"Ladysmith Road","parentId":"490G00008903","stationId":"490G00008903","stopLetter":"->W","topMostParentId":"490G00008903"},{"icsId":"1001101","id":"490001101M","lat":51.652188,"lon":-0.078815,"name":"Enfield Town Station","parentId":"490G01101L","stationId":"490G01101L","stopLetter":"M","topMostParentId":"910GENFLDTN"},{"icsId":"1006586","id":"490006586X","lat":51.650633,"lon":-0.081034,"name":"Enfield Town / Cecil Road","parentId":"490G00006586","stationId":"490G00006586","stopLetter":"X","topMostParentId":"490G00006586"},{"icsId":"1014762","id":"490014762D","lat":51.653864,"lon":-0.088386,"name":"Windmill Hill / Enfield War Memorial","parentId":"490G000838","stationId":"490G000838","stopLetter":"CD","topMostParentId":"490G000838"},{"icsId":"1010857","id":"490010857N2","lat":51.659018,"lon":-0.087938,"name":"Parsonage Lane","parentId":"490G00010857","stationId":"490G00010857","stopLetter":"W","topMostParentId":"490G00010857"},{"icsId":"1007306","id":"490007306N","lat":51.660928,"lon":-0.087034,"name":"Gordon Hill","parentId":"490G00007306","stationId":"490G00007306","stopLetter":"X","topMostParentId":"490G00007306"},{"icsId":"1009008","id":"490009006N","lat":51.663501,"lon":-0.086578,"name":"Lavender Hill","parentId":"490G00009008","stationId":"490G00009008","stopLetter":"Y","topMostParentId":"490G00009008"},{"icsId":"1003382","id":"490004509E","lat":51.664044,"lon":-0.08294,"name":"Browning Road","parentId":"490G00003382","stationId":"490G00003382","stopLetter":"E","topMostParentId":"490G00003382"},{"icsId":"1003547","id":"490003547E2","lat":51.663223,"lon":-0.077798,"name":"Baker Street","parentId":"490G00003547","stationId":"490G00003547","stopLetter":"G","topMostParentId":"490G00003547"},{"icsId":"1008625","id":"490008625N","lat":51.66529,"lon":-0.074428,"name":"Kenilworth Crescent","parentId":"490G00008625","stationId":"490G00008625","stopLetter":"H","topMostParentId":"490G00008625"},{"icsId":"1006955","id":"490006955E","lat":51.666176,"lon":-0.07199,"name":"Forty Hill","parentId":"490G00006955","stationId":"490G00006955","stopLetter":"J","topMostParentId":"490G00006955"},{"icsId":"1014707","id":"490014707E","lat":51.663943,"lon":-0.067964,"name":"Willow Road","parentId":"490G00014707","stationId":"490G00014707","stopLetter":"K","topMostParentId":"490G00014707"},{"icsId":"1019950","id":"490005985E","lat":51.661396,"lon":-0.062939,"name":"Linwood Crescent","parentId":"490G00019950","stationId":"490G00019950","stopLetter":"L","topMostParentId":"490G00019950"},{"icsId":"1007588","id":"490007588E","lat":51.660137,"lon":-0.060217,"name":"Baynes Close","parentId":"490G00007588","stationId":"490G00007588","stopLetter":"M","topMostParentId":"490G00007588"},{"icsId":"1004831","id":"490004831E","lat":51.660094,"lon":-0.057616,"name":"Great Cambridge Road","parentId":"490G00004831","stationId":"490G00004831","stopLetter":"N","topMostParentId":"490G00004831"},{"icsId":"1010895","id":"490010895E","lat":51.659979,"lon":-0.050652,"name":"Larksfield Grove","parentId":"490G00010895","stationId":"490G00010895","stopLetter":"EP","topMostParentId":"490G00010895"},{"icsId":"1012075","id":"490004828E","lat":51.659959,"lon":-0.047848,"name":"Sherborne Avenue","parentId":"490G00012075","stationId":"490G00012075","stopLetter":"ER","topMostParentId":"490G00012075"},{"icsId":"1003254","id":"490004828N","lat":51.661281,"lon":-0.046244,"name":"Oatlands Road","parentId":"490G00003254","stationId":"490G00003254","stopLetter":"EM","topMostParentId":"490G00003254"},{"icsId":"1012493","id":"490012493N","lat":51.663279,"lon":-0.045247,"name":"Durants School","parentId":"490G00012493","stationId":"490G00012493","stopLetter":"EN","topMostParentId":"490G00012493"},{"icsId":"1005757","id":"490005757N","lat":51.665262,"lon":-0.043875,"name":"Ingersoll Road","parentId":"490G00005757","stationId":"490G00005757","stopLetter":"E","topMostParentId":"490G00005757"},{"icsId":"1006348","id":"490006348E","lat":51.666336,"lon":-0.040329,"name":"Hertford Road","parentId":"490G00006348","stationId":"490G00006348","stopLetter":"P","topMostParentId":"490G00006348"},{"icsId":"1003145","id":"490003145E","lat":51.665785,"lon":-0.036463,"name":"Albany Park Avenue","parentId":"490G00003145","stationId":"490G00003145","stopLetter":"R","topMostParentId":"490G00003145"},{"icsId":"1003135","id":"490003135E","lat":51.66547,"lon":-0.031054,"name":"Castle Road","parentId":"490G00003135","stationId":"490G00003135","stopLetter":"->E","topMostParentId":"490G00003135"},{"icsId":"1009127","id":"490009127S","lat":51.663447,"lon":-0.03052,"name":"Leys Road East","parentId":"490G00009127","stationId":"490G00009127","stopLetter":"H","topMostParentId":"490G00009127"},{"icsId":"1006964","id":"490006964S","lat":51.660422,"lon":-0.030853,"name":"Fouracres","parentId":"490G00006964","stationId":"490G00006964","stopLetter":"J","topMostParentId":"490G00006964"},{"icsId":"1001033","id":"490001033S","lat":51.656149,"lon":-0.031328,"name":"Brimsdown Station","parentId":"490G01033S","stationId":"490G01033S","stopLetter":"K","topMostParentId":"910GBRIMSDN"}]}]}