{"direction":"outbound","lineId":"193","lineName":"193","mode":"bus","stopPointSequences":[{"stopPoint":[{"icsId":"1016444","id":"490016444HN","lat":51.568771,"lon":0.181143,"name":"Queen's Hospital","parentId":"490G00016444","stationId":"490G00016444","stopLetter":"HN","topMostParentId":"490G00016444"},{"icsId":"1013271","id":"490013271R","lat":51.574924,"lon":0.178119,"name":"The Brewery","parentId":"490G00013271","stationId":"490G00013271","stopLetter":"R","topMostParentId":"490G00013271"},{"icsId":"1009721","id":"490009721A","lat":51.577069,"lon":0.176922,"name":"Mawney Road","parentId":"490G00009721","stationId":"490G00009721","stopLetter":"A","topMostParentId":"490G00009721"},{"icsId":"1010407","id":"490010407C","lat":51.579486,"lon":0.177528,"name":"North Street","parentId":"490G00010407","stationId":"490G00010407","stopLetter":"C","topMostParentId":"490G00010407"},{"icsId":"1011659","id":"490011659G","lat":51.580596,"lon":0.183095,"name":"Romford Market","parentId":"490G00011659","stationId":"490G00011659","stopLetter":"G","topMostParentId":"490G00011659"},{"icsId":"1009810","id":"490009810M","lat":51.579466,"lon":0.18486,"name":"Mercury Gardens","parentId":"490G00009810","stationId":"490G00009810","stopLetter":"M","topMostParentId":"490G00009810"},{"icsId":"1014452","id":"490014448S","lat":51.577501,"lon":0.185097,"name":"Western Road","parentId":"490G00014452","stationId":"490G00014452","stopLetter":"QQ","topMostParentId":"490G00014452"},{"icsId":"1001243","id":"490001243Y","lat":51.573602,"lon":0.183929,"name":"Romford Station","parentId":"490G01243W","stationId":"490G01243W","stopLetter":"Y","topMostParentId":"910GROMFORD"},{"icsId":"1013654","id":"490013654S","lat":51.571419,"lon":0.184762,"name":"Thurloe Gardens","parentId":"490G00013654","stationId":"490G00013654","stopLetter":"C","topMostParentId":"490G00013654"},{"icsId":"1013482","id":"490013482E","lat":51.571062,"lon":0.187025,"name":"South Street","parentId":"490G00013482","stationId":"490G00013482","stopLetter":"E","topMostParentId":"490G00013482"},{"icsId":"1015118","id":"490015118E","lat":51.572376,"lon":0.192313,"name":"Albert Road","parentId":"490G00015118","stationId":"490G00015118","stopLetter":"F","topMostParentId":"490G00015118"},{"icsId":"1011214","id":"490011214E","lat":51.573611,"lon":0.19598,"name":"Princes Road","parentId":"490G00011214","stationId":"490G00011214","stopLetter":"->E","topMostParentId":"490G00011214"},{"icsId":"1006980","id":"490006980E","lat":51.574319,"lon":0.19994,"name":"Frances Bardsley Academy","parentId":"490G00006980","stationId":"490G00006980","topMostParentId":"490G00006980"},{"icsId":"1016072","id":"490016072E1","lat":51.570709,"lon":0.208756,"name":"Elmhurst Drive","parentId":"490G00016072","stationId":"490G00016072","stopLetter":"->E","topMostParentId":"490G00016072"},{"icsId":"1003049","id":"490003049E","lat":51.56309,"lon":0.214605,"name":"Abbs Cross Lane","parentId":"490G00003049","stationId":"490G00003049","stopLetter":"X","topMostParentId":"490G00003049"},{"icsId":"1004001","id":"490004001A","lat":51.563134,"lon":0.216541,"name":"Billet Lane","parentId":"490G00004001","stationId":"490G00004001","stopLetter":"A","topMostParentId":"490G00004001"},{"icsId":"1015350","id":"490015350F","lat":51.561641,"lon":0.22133,"name":"Hornchurch Town Centre","parentId":"490G00015350","stationId":"490G00015350","stopLetter":"F","topMostParentId":"490G00015350"},{"icsId":"1013249","id":"490013249J","lat":51.560026,"lon":0.220646,"name":"The Avenue","parentId":"490G00013249","stationId":"490G00013249","stopLetter":"J","topMostParentId":"490G00013249"},{"icsId":"1006068","id":"490006068K","lat":51.55761,"lon":0.220499,"name":"Devonshire Road","parentId":"490G00006068","stationId":"490G00006068","stopLetter":"K","topMostParentId":"490G00006068"},{"icsId":"1000115","id":"490000115M","lat":51.554694,"lon":0.21965,"name":"Hornchurch Station","parentId":"490G00115L","stationId":"490G00115L","stopLetter":"M","topMostParentId":"940GZZLUHCH","zone":"6"},{"icsId":"1004921","id":"490004921N1","lat":51.552216,"lon":0.229396,"name":"Central Drive","parentId":"490G00004921","stationId":"490G00004921","topMostParentId":"490G00004921"},{"icsId":"1003258","id":"490003258N","lat":51.555132,"lon":0.229741,"name":"Alma Avenue","parentId":"490G00003258","stationId":"490G00003258","topMostParentId":"490G00003258"},{"icsId":"1011436","id":"490011436N","lat":51.558348,"lon":0.228989,"name":"Ravenscourt Grove","parentId":"490G00011436","stationId":"490G00011436","stopLetter":"H","topMostParentId":"490G00011436"},{"icsId":"1007919","id":"490007919N","lat":51.561758,"lon":0.232215,"name":"Havering Sixth Form College","parentId":"490G00007919","stationId":"490G00007919","stopLetter":"J","topMostParentId":"490G00007919"},{"icsId":"1009059","id":"490009059N","lat":51.56471,"lon":0.234928,"name":"Lee Gardens Avenue","parentId":"490G00009059","stationId":"490G00009059","stopLetter":"->N","topMostParentId":"490G00009059"},{"icsId":"1008078","id":"490008078N","lat":51.568494,"lon":0.237379,"name":"Herbert Road","parentId":"490G00008078","stationId":"490G00008078","topMostParentId":"490G00008078"},{"icsId":"1005598","id":"490011665N","lat":51.573596,"lon":0.236273,"name":"Copthorne Gardens","parentId":"490G00005598","stationId":"490G00005598","stopLetter":"->N","topMostParentId":"490G00005598"},{"icsId":"1008413","id":"490008413E","lat":51.575981,"lon":0.236679,"name":"Hubbards Chase / Wingletye Lane","parentId":"490G00008413","stationId":"490G00008413","topMostParentId":"490G00008413"},{"icsId":"1008414","id":"490008414N","lat":51.577082,"lon":0.239749,"name":"Hubbards Close","parentId":"490G00008414","stationId":"490G00008414","topMostParentId":"490G00008414"},{"icsId":"1006640","id":"490006640W","lat":51.578221,"lon":0.235201,"name":"Essex Gardens","parentId":"490G00006640","stationId":"490G00006640","topMostParentId":"490G00006640"}]}]}