{"direction":"outbound","lineId":"194","lineName":"194","mode":"bus","stopPointSequences":[{"stopPoint":[{"icsId":"1003849","id":"490003849W1","lat":51.430615,"lon":-0.0356,"name":"Bell Green / Sainsbury's","parentId":"490G00003849","stationId":"490G00003849","stopLetter":"LN","topMostParentId":"490G00003849"},{"icsId":"1003848","id":"490003848S","lat":51.429672,"lon":-0.037295,"name":"Bell Green / Southend Lane","parentId":"490G00003848","stationId":"490G00003848","stopLetter":"LQ","topMostParentId":"490G00003848"},{"icsId":"1012281","id":"490012281F","lat":51.428236,"lon":-0.038004,"name":"Southend Lane","parentId":"490G00012281","stationId":"490G00012281","stopLetter":"LP","topMostParentId":"490G00012281"},{"icsId":"1008147","id":"490008147W","lat":51.426691,"lon":-0.041335,"name":"Highclere Street","parentId":"490G00008147","stationId":"490G00008147","stopLetter":"LR","topMostParentId":"490G00008147"},{"icsId":"1008872","id":"490008872W","lat":51.42559,"lon":-0.04541,"name":"Knighton Park Road","parentId":"490G00008872","stationId":"490G00008872","stopLetter":"R","topMostParentId":"490G00008872"},{"icsId":"1009750","id":"490009750P","lat":51.425666,"lon":-0.048356,"name":"Sydenham Rd / Mayow Rd","parentId":"490G00009750","stationId":"490G00009750","stopLetter":"P","topMostParentId":"490G00009750"},{"icsId":"1010226","id":"490010226H","lat":51.426154,"lon":-0.052276,"name":"Newlands Park","parentId":"490G000676","stationId":"490G000676","stopLetter":"H","topMostParentId":"490G000676"},{"icsId":"1012963","id":"490012963S","lat":51.42236,"lon":-0.051805,"name":"Studland Road","parentId":"490G00012963","stationId":"490G00012963","stopLetter":"U","topMostParentId":"490G00012963"},{"icsId":"1001224","id":"490001224B","lat":51.419508,"lon":-0.05276,"name":"Penge East Station","parentId":"490G01224A","stationId":"490G01224A","stopLetter":"V","topMostParentId":"910GPNGEE"},{"icsId":"1010908","id":"490010908S","lat":51.418029,"lon":-0.051428,"name":"Penge Lane","parentId":"490G00010908","stationId":"490G00010908","stopLetter":"U","topMostParentId":"490G00010908"},{"icsId":"1010746","id":"490010746W","lat":51.415134,"lon":-0.048819,"name":"Parish Lane","parentId":"490G00010746","stationId":"490G00010746","stopLetter":"N","topMostParentId":"490G00010746"},{"icsId":"1010907","id":"490010906J","lat":51.413523,"lon":-0.051404,"name":"Penge / Sainsbury's","parentId":"490G00010907","stationId":"490G00010907","stopLetter":"J","topMostParentId":"490G00010907"},{"icsId":"1005393","id":"490005393E","lat":51.4119,"lon":-0.049014,"name":"Clevedon Road","parentId":"490G00005393","stationId":"490G00005393","stopLetter":"->E","topMostParentId":"490G00005393"},{"icsId":"1001163","id":"490001163E","lat":51.410258,"lon":-0.045949,"name":"Kent House Station","parentId":"490G01163W","stationId":"490G01163W","stopLetter":"BA","topMostParentId":"910GKENTHOS"},{"icsId":"1002010","id":"490002010A","lat":51.409352,"lon":-0.043443,"name":"Beckenham Road Tram Stop","parentId":"490G02010B","stationId":"490G02010B","stopLetter":"BB","topMostParentId":"940GZZCRBRD"},{"icsId":"1001071","id":"490001071B","lat":51.408765,"lon":-0.040045,"name":"Clock House Station","parentId":"490G01071A","stationId":"490G01071A","stopLetter":"BC","topMostParentId":"910GCLOCKHS"},{"icsId":"1006516","id":"490006516E","lat":51.408526,"lon":-0.038143,"name":"Beckenham Library","parentId":"490G00006516","stationId":"490G00006516","stopLetter":"BD","topMostParentId":"490G00006516"},{"icsId":"1015349","id":"490015349E1","lat":51.407959,"lon":-0.035407,"name":"Hayne Road","parentId":"490G00015349","stationId":"490G00015349","stopLetter":"BE","topMostParentId":"490G00015349"},{"icsId":"1003743","id":"490003743S","lat":51.406582,"lon":-0.032647,"name":"Croydon Road / War Memorial","parentId":"490G00003743","stationId":"490G00003743","stopLetter":"S","topMostParentId":"490G00003743"},{"icsId":"1003742","id":"490003742S","lat":51.404762,"lon":-0.034063,"name":"Beckenham Hospital","parentId":"490G00003742","stationId":"490G00003742","stopLetter":"B","topMostParentId":"490G00003742"},{"icsId":"1005796","id":"490005796S","lat":51.402819,"lon":-0.03672,"name":"Cromwell Road","parentId":"490G00005796","stationId":"490G00005796","stopLetter":"->S","topMostParentId":"490G00005796"},{"icsId":"1006409","id":"490006409S","lat":51.399505,"lon":-0.040714,"name":"Eden Park Avenue","parentId":"490G00006409","stationId":"490G00006409","stopLetter":"L","topMostParentId":"490G00006409"},{"icsId":"1006506","id":"490006506BC1","lat":51.398601,"lon":-0.043168,"name":"Elmers End Green","parentId":"490G00006506","stationId":"490G00006506","stopLetter":"M","topMostParentId":"490G00006506"},{"icsId":"1003046","id":"490003046W","lat":51.393117,"lon":-0.041088,"name":"Abbots Way","parentId":"490G00003046","stationId":"490G00003046","stopLetter":"N","topMostParentId":"490G00003046"},{"icsId":"1013532","id":"490015526E","lat":51.392,"lon":-0.037183,"name":"Altyre Way","parentId":"490G00013532","stationId":"490G00013532","stopLetter":"->E","topMostParentId":"490G00013532"},{"icsId":"1009249","id":"490009249E","lat":51.392108,"lon":-0.033484,"name":"Lodge Gardens","parentId":"490G00009249","stationId":"490G00009249","stopLetter":"P","topMostParentId":"490G00009249"},{"icsId":"1006408","id":"490006408E1","lat":51.391115,"lon":-0.028941,"name":"Eden Park","parentId":"490G00006408","stationId":"490G00006408","stopLetter":"Q","topMostParentId":"490G00006408"},{"icsId":"1001091","id":"490001091B","lat":51.390217,"lon":-0.02691,"name":"Eden Park Station","parentId":"490G01091B","stationId":"490G01091B","stopLetter":"B","topMostParentId":"910GEDPK"},{"icsId":"1009192","id":"490009192E","lat":51.387188,"lon":-0.024338,"name":"Links Way","parentId":"490G00009192","stationId":"490G00009192","stopLetter":"J","topMostParentId":"490G00009192"},{"icsId":"1012277","id":"490012277S","lat":51.384436,"lon":-0.021137,"name":"South Eden Park Road","parentId":"490G00012277","stationId":"490G00012277","stopLetter":"->S","topMostParentId":"490G00012277"},{"icsId":"1012650","id":"490012650S","lat":51.382859,"lon":-0.018259,"name":"St David's Close","parentId":"490G00012650","stationId":"490G00012650","topMostParentId":"490G00012650"},{"icsId":"1019721","id":"490001334B","lat":51.379437,"lon":-0.014254,"name":"Station Road / West Wickham Station","parentId":"490G000942","stationId":"490G000942","stopLetter":"B","topMostParentId":"490G000942"},{"icsId":"1019895","id":"490014529H","lat":51.375852,"lon":-0.015501,"name":"High Street / Wickham Court Road","parentId":"490G00019895","stationId":"490G00019895","stopLetter":"H","topMostParentId":"490G00019895"},{"icsId":"1012087","id":"490012087K","lat":51.37657,"lon":-0.01912,"name":"Sherwood Way","parentId":"490G00012087","stationId":"490G00012087","stopLetter":"K","topMostParentId":"490G00012087"},{"icsId":"1014528","id":"490014528M","lat":51.377347,"lon":-0.023067,"name":"High Street / Manor Road","parentId":"490G00014528","stationId":"490G00014528","stopLetter":"M","topMostParentId":"490G00014528"},{"icsId":"1009979","id":"490009979Q","lat":51.377215,"lon":-0.028073,"name":"West Wickham and Shirley Baptist Church","parentId":"490G00009979","stationId":"490G00009979","stopLetter":"Q","topMostParentId":"490G00009979"},{"icsId":"1009978","id":"490009978S","lat":51.37689,"lon":-0.029035,"name":"Monks Orchard Road","parentId":"490G00009978","stationId":"490G00009978","stopLetter":"R","topMostParentId":"490G00009978"},{"icsId":"1007335","id":"490007335S","lat":51.374798,"lon":-0.030835,"name":"Ash Road","parentId":"490G00007335","stationId":"490G00007335","topMostParentId":"490G00007335"},{"icsId":"1013378","id":"490013378W","lat":51.36934,"lon":-0.031428,"name":"Shirley Youth and Community Centre","parentId":"490G00013378","stationId":"490G00013378","stopLetter":"->W","topMostParentId":"490G00013378"},{"icsId":"1012102","id":"490012102N","lat":51.371449,"lon":-0.03118,"name":"Links View Road","parentId":"490G00012102","stationId":"490G00012102","topMostParentId":"490G00012102"},{"icsId":"1004338","id":"490004338W","lat":51.37247,"lon":-0.031438,"name":"Shirley Way / Bridle Road","parentId":"490G00004338","stationId":"490G00004338","topMostParentId":"490G00004338"},{"icsId":"1009891","id":"490009891W","lat":51.372186,"lon":-0.035415,"name":"Millers Pond","parentId":"490G00009891","stationId":"490G00009891","stopLetter":"->W","topMostParentId":"490G00009891"},{"icsId":"1003899","id":"490003899W","lat":51.37154,"lon":-0.04086,"name":"Bennetts Avenue","parentId":"490G00003899","stationId":"490G00003899","stopLetter":"->W","topMostParentId":"490G00003899"},{"icsId":"1003908","id":"490003908N","lat":51.370853,"lon":-0.043935,"name":"Benson School","parentId":"490G00003908","stationId":"490G00003908","stopLetter":"->N","topMostParentId":"490G00003908"},{"icsId":"1003902","id":"490003902N","lat":51.373144,"lon":-0.044857,"name":"Bennetts Way","parentId":"490G00003902","stationId":"490G00003902","stopLetter":"->N","topMostParentId":"490G00003902"},{"icsId":"1012096","id":"490012096W","lat":51.375197,"lon":-0.046624,"name":"Shirley Library","parentId":"490G00012096","stationId":"490G00012096","stopLetter":"K","topMostParentId":"490G00012096"},{"icsId":"1013551","id":"490013551W","lat":51.374266,"lon":-0.051175,"name":"Shirley Oaks Road","parentId":"490G00013551","stationId":"490G00013551","stopLetter":"L","topMostParentId":"490G00013551"},{"icsId":"1013945","id":"490013945W","lat":51.373749,"lon":-0.055263,"name":"Upper Shirley Road","parentId":"490G00013945","stationId":"490G00013945","stopLetter":"M","topMostParentId":"490G00013945"},{"icsId":"1012099","id":"490012099E2","lat":51.375958,"lon":-0.062138,"name":"Trinity School","parentId":"490G00012099","stationId":"490G00012099","stopLetter":"P","topMostParentId":"490G00012099"},{"icsId":"1004014","id":"490004014W","lat":51.374884,"lon":-0.06625,"name":"Birch Tree Way","parentId":"490G00004014","stationId":"490G00004014","stopLetter":"R","topMostParentId":"490G00004014"},{"icsId":"1009623","id":"490009623W","lat":51.374175,"lon":-0.070159,"name":"Mapledale Avenue","parentId":"490G00009623","stationId":"490G00009623","stopLetter":"S","topMostParentId":"490G00009623"},{"icsId":"1003420","id":"490003420W2","lat":51.374494,"lon":-0.074212,"name":"Ashburton Road","parentId":"490G00003420","stationId":"490G00003420","stopLetter":"T","topMostParentId":"490G00003420"},{"icsId":"1002072","id":"490002072A","lat":51.375085,"lon":-0.077938,"name":"Sandilands Tram Stop","parentId":"490G02072A","stationId":"490G02072A","stopLetter":"U","topMostParentId":"940GZZCRSAN"},{"icsId":"1004747","id":"490004747W","lat":51.375018,"lon":-0.082036,"name":"Canning Road","parentId":"490G00004747","stationId":"490G00004747","stopLetter":"V","topMostParentId":"490G00004747"},{"icsId":"1002052","id":"490002052W","lat":51.375022,"lon":-0.084507,"name":"Lebanon Road Tram Stop","parentId":"490G02052E","stationId":"490G02052E","stopLetter":"W","topMostParentId":"940GZZCRLEB"},{"icsId":"1001089","id":"490001089E6","lat":51.374669,"lon":-0.092654,"name":"East Croydon Station","parentId":"490G01089E7","stationId":"490G01089E7","stopLetter":"E6","topMostParentId":"HUBECY"},{"icsId":"1006466","id":"490006466E16","lat":51.374711,"lon":-0.097437,"name":"Electric House","parentId":"490G00006466","stationId":"490G00006466","stopLetter":"WY","topMostParentId":"490G00006466"},{"icsId":"1014614","id":"490014614E14","lat":51.376465,"lon":-0.098528,"name":"Whitgift Centre","parentId":"490G00014614","stationId":"490G00014614","stopLetter":"WM","topMostParentId":"490G00014614"},{"icsId":"1014420","id":"490014420B8","lat":51.3787,"lon":-0.10108,"name":"West Croydon Bus Station","parentId":"490G000824","stationId":"490G000824","stopLetter":"B8","topMostParentId":"HUBWCY"}]}]}