{"direction":"outbound","lineId":"195","lineName":"195","mode":"bus","stopPointSequences":[{"stopPoint":[{"icsId":"1011666","id":"490011666N","lat":51.536001,"lon":-0.433661,"name":"Romney Road","parentId":"490G00011666","stationId":"490G00011666","stopLetter":"A","topMostParentId":"490G00011666"},{"icsId":"1005031","id":"490005031S","lat":51.536673,"lon":-0.428793,"name":"Charville School","parentId":"490G00005031","stationId":"490G00005031","stopLetter":"B","topMostParentId":"490G00005031"},{"icsId":"1004631","id":"490004631D","lat":51.535681,"lon":-0.425857,"name":"Charville Library","parentId":"490G00004631","stationId":"490G00004631","stopLetter":"C","topMostParentId":"490G00004631"},{"icsId":"1014544","id":"490014544E","lat":51.535448,"lon":-0.423226,"name":"Weymouth Road","parentId":"490G00014544","stationId":"490G00014544","stopLetter":"D","topMostParentId":"490G00014544"},{"icsId":"1003111","id":"490003111S","lat":51.533386,"lon":-0.425028,"name":"Adelphi Crescent","parentId":"490G00003111","stationId":"490G00003111","stopLetter":"E","topMostParentId":"490G00003111"},{"icsId":"1003113","id":"490003113S","lat":51.532041,"lon":-0.42196,"name":"Adelphi Way","parentId":"490G00003113","stationId":"490G00003113","stopLetter":"F","topMostParentId":"490G00003113"},{"icsId":"1008963","id":"490008783S","lat":51.531359,"lon":-0.418725,"name":"The Brook House","parentId":"490G00008963","stationId":"490G00008963","stopLetter":"K","topMostParentId":"490G00008963"},{"icsId":"1006715","id":"490006715S","lat":51.529983,"lon":-0.417418,"name":"Fairholme Crescent","parentId":"490G00006715","stationId":"490G00006715","stopLetter":"L","topMostParentId":"490G00006715"},{"icsId":"1007002","id":"490007003S","lat":51.528244,"lon":-0.417132,"name":"Fredora Avenue","parentId":"490G00007002","stationId":"490G00007002","stopLetter":"M","topMostParentId":"490G00007002"},{"icsId":"1003572","id":"490003572D","lat":51.525734,"lon":-0.419742,"name":"Balmoral Drive","parentId":"490G00003572","stationId":"490G00003572","stopLetter":"D","topMostParentId":"490G00003572"},{"icsId":"1008962","id":"490008962E","lat":51.522376,"lon":-0.420117,"name":"Uxbridge County Court","parentId":"490G00008962","stationId":"490G00008962","stopLetter":"E","topMostParentId":"490G00008962"},{"icsId":"1013977","id":"490013977H","lat":51.520757,"lon":-0.417406,"name":"Adam & Eve","parentId":"490G00013977","stationId":"490G00013977","stopLetter":"H","topMostParentId":"490G00013977"},{"icsId":"1005262","id":"490005262S","lat":51.517863,"lon":-0.418847,"name":"Church Green","parentId":"490G00005262","stationId":"490G00005262","stopLetter":"SK","topMostParentId":"490G00005262"},{"icsId":"1009334","id":"490009334S","lat":51.515396,"lon":-0.419955,"name":"Longmead Road","parentId":"490G00009334","stationId":"490G00009334","stopLetter":"SL","topMostParentId":"490G00009334"},{"icsId":"1013751","id":"490013751S","lat":51.512951,"lon":-0.419982,"name":"Townfield Road","parentId":"490G00013751","stationId":"490G00013751","stopLetter":"SM","topMostParentId":"490G00013751"},{"icsId":"1004178","id":"490004178S","lat":51.509303,"lon":-0.420858,"name":"Botwell Lane","parentId":"490G00004178","stationId":"490G00004178","stopLetter":"SN","topMostParentId":"490G00004178"},{"icsId":"1004177","id":"490004177E","lat":51.507618,"lon":-0.419331,"name":"Botwell Green","parentId":"490G00004177","stationId":"490G00004177","stopLetter":"SP","topMostParentId":"490G00004177"},{"icsId":"1000828","id":"490000828Y","lat":51.506542,"lon":-0.418864,"name":"Hayes Town","parentId":"490G000162","stationId":"490G000162","stopLetter":"D","topMostParentId":"490G000162"},{"icsId":"1001144","id":"490001144M","lat":51.503061,"lon":-0.420771,"name":"Hayes and Harlington Station","parentId":"490G01144N","stationId":"490G01144N","stopLetter":"E","topMostParentId":"910GHAYESAH"},{"icsId":"1010579","id":"490010579E","lat":51.50095,"lon":-0.422962,"name":"Old Station Road","parentId":"490G00010579","stationId":"490G00010579","stopLetter":"G","topMostParentId":"490G00010579"},{"icsId":"1007825","id":"490007825E","lat":51.498959,"lon":-0.417326,"name":"Harold Avenue","parentId":"490G00007825","stationId":"490G00007825","stopLetter":"H","topMostParentId":"490G00007825"},{"icsId":"1013312","id":"490013312E","lat":51.498037,"lon":-0.413007,"name":"Roseville Road","parentId":"490G00013312","stationId":"490G00013312","stopLetter":"->E","topMostParentId":"490G00013312"},{"icsId":"1004573","id":"490004573E","lat":51.49809,"lon":-0.4056,"name":"Hayes Road / Tesco","parentId":"490G00004573","stationId":"490G00004573","stopLetter":"BA","topMostParentId":"490G00004573"},{"icsId":"1014393","id":"490012242E","lat":51.497372,"lon":-0.399761,"name":"Wentworth Road","parentId":"490G00014393","stationId":"490G00014393","stopLetter":"BB","topMostParentId":"490G00014393"},{"icsId":"1012133","id":"490012133E","lat":51.497892,"lon":-0.395075,"name":"Brent Road","parentId":"490G00012133","stationId":"490G00012133","stopLetter":"BC","topMostParentId":"490G00012133"},{"icsId":"1006056","id":"490006056E","lat":51.499145,"lon":-0.391357,"name":"Derley Road","parentId":"490G00006056","stationId":"490G00006056","stopLetter":"BD","topMostParentId":"490G00006056"},{"icsId":"1013052","id":"490013052E","lat":51.500465,"lon":-0.387968,"name":"Sussex Road","parentId":"490G00013052","stationId":"490G00013052","stopLetter":"->E","topMostParentId":"490G00013052"},{"icsId":"1014162","id":"490014162E","lat":51.500943,"lon":-0.384753,"name":"Waltham Road","parentId":"490G00014162","stationId":"490G00014162","stopLetter":"H","topMostParentId":"490G00014162"},{"icsId":"1008833","id":"490008833E","lat":51.501613,"lon":-0.382525,"name":"King Street","parentId":"490G00008833","stationId":"490G00008833","stopLetter":"E","topMostParentId":"490G00008833"},{"icsId":"1013388","id":"490013388L","lat":51.502905,"lon":-0.38101,"name":"The Green","parentId":"490G00013388","stationId":"490G00013388","stopLetter":"L","topMostParentId":"490G00013388"},{"icsId":"1001255","id":"490001255N","lat":51.506031,"lon":-0.378809,"name":"Southall Station","parentId":"490G012554","stationId":"490G012554","stopLetter":"N","topMostParentId":"910GSTHALL"},{"icsId":"1010754","id":"490010754P","lat":51.50758,"lon":-0.378308,"name":"Park Avenue","parentId":"490G00010754","stationId":"490G00010754","stopLetter":"P","topMostParentId":"490G00010754"},{"icsId":"1012241","id":"490012241N","lat":51.510687,"lon":-0.37605,"name":"Southall Broadway","parentId":"490G00012241","stationId":"490G00012241","stopLetter":"N","topMostParentId":"490G00012241"},{"icsId":"1013594","id":"490013594R","lat":51.511035,"lon":-0.373228,"name":"Southall Police Station","parentId":"490G00013594","stationId":"490G00013594","stopLetter":"R","topMostParentId":"490G00013594"},{"icsId":"1012244","id":"490012244T","lat":51.511146,"lon":-0.369563,"name":"Southall Park","parentId":"490G00012244","stationId":"490G00012244","stopLetter":"UA","topMostParentId":"490G00012244"},{"icsId":"1015281","id":"490015281V","lat":51.511078,"lon":-0.36468,"name":"Dormer's Wells Lane","parentId":"490G00015281","stationId":"490G00015281","stopLetter":"UB","topMostParentId":"490G00015281"},{"icsId":"1009465","id":"490009465E","lat":51.510492,"lon":-0.361387,"name":"Lyndhurst Avenue","parentId":"490G00009465","stationId":"490G00009465","stopLetter":"UC","topMostParentId":"490G00009465"},{"icsId":"1008498","id":"490008498E2","lat":51.509874,"lon":-0.357677,"name":"Iron Bridge","parentId":"490G00008498","stationId":"490G00008498","stopLetter":"UD","topMostParentId":"490G00008498"},{"icsId":"1012638","id":"490012638E","lat":51.509112,"lon":-0.349533,"name":"St Bernard's Gatehouse / Windmill Park","parentId":"490G00012638","stationId":"490G00012638","stopLetter":"UH","topMostParentId":"490G00012638"},{"icsId":"1006292","id":"490015230P","lat":51.509018,"lon":-0.347361,"name":"Ealing Hospital / Wharncliffe Drive","parentId":"490G00006292","stationId":"490G00006292","stopLetter":"P","topMostParentId":"490G00006292"},{"icsId":"1013580","id":"490013580M","lat":51.508547,"lon":-0.340101,"name":"Half Acre Road","parentId":"490G00013580","stationId":"490G00013580","stopLetter":"M","topMostParentId":"490G00013580"},{"icsId":"1007763","id":"490007760K","lat":51.508444,"lon":-0.337857,"name":"Jessamine Road","parentId":"490G00007763","stationId":"490G00007763","stopLetter":"K","topMostParentId":"490G00007763"},{"icsId":"1011772","id":"490011772Z","lat":51.505581,"lon":-0.336361,"name":"Rosebank Road","parentId":"490G00011772","stationId":"490G00011772","stopLetter":"Z","topMostParentId":"490G00011772"},{"icsId":"1005899","id":"490005899S","lat":51.503283,"lon":-0.332238,"name":"Cumberland Road","parentId":"490G00005899","stationId":"490G00005899","stopLetter":"J","topMostParentId":"490G00005899"},{"icsId":"1006549","id":"490006549S","lat":51.502246,"lon":-0.330792,"name":"Elthorne Park Road","parentId":"490G00006549","stationId":"490G00006549","stopLetter":"K","topMostParentId":"490G00006549"},{"icsId":"1005242","id":"490005242S","lat":51.50041,"lon":-0.328755,"name":"Christopher Avenue","parentId":"490G00005242","stationId":"490G00005242","stopLetter":"L","topMostParentId":"490G00005242"},{"icsId":"1004168","id":"490004168S","lat":51.498207,"lon":-0.326891,"name":"Haslemere Avenue","parentId":"490G00004168","stationId":"490G00004168","stopLetter":"M","topMostParentId":"490G00004168"},{"icsId":"1000027","id":"490000027B","lat":51.495767,"lon":-0.324142,"name":"Boston Manor Station","parentId":"490G00027A","stationId":"490G00027A","stopLetter":"N","topMostParentId":"940GZZLUBOS","zone":"4"},{"icsId":"1004167","id":"490004167S","lat":51.494237,"lon":-0.32028,"name":"Swyncombe Avenue","parentId":"490G00004167","stationId":"490G00004167","stopLetter":"P","topMostParentId":"490G00004167"},{"icsId":"1013524","id":"490013524S","lat":51.492285,"lon":-0.317687,"name":"The Ride","parentId":"490G00013524","stationId":"490G00013524","stopLetter":"R","topMostParentId":"490G00013524"},{"icsId":"1009593","id":"490009593S","lat":51.490571,"lon":-0.316064,"name":"Manor Vale","parentId":"490G00009593","stationId":"490G00009593","topMostParentId":"490G00009593"},{"icsId":"1007424","id":"490007424S","lat":51.488606,"lon":-0.313919,"name":"Great West Road","parentId":"490G00007424","stationId":"490G00007424","stopLetter":"SZ","topMostParentId":"490G00007424"},{"icsId":"1001032","id":"490005314T","lat":51.488025,"lon":-0.312255,"name":"Brentford Station","parentId":"490G05314T","stationId":"490G05314T","stopLetter":"SM","topMostParentId":"910GBNTFORD"},{"icsId":"1014768","id":"490014768L","lat":51.486705,"lon":-0.308616,"name":"Windmill Road","parentId":"490G000839","stationId":"490G000839","stopLetter":"SN","topMostParentId":"490G000839"},{"icsId":"1004294","id":"490004294J","lat":51.483947,"lon":-0.306327,"name":"Half Acre","parentId":"490G00004294","stationId":"490G00004294","stopLetter":"SE","topMostParentId":"490G00004294"},{"icsId":"1004289","id":"490004289D","lat":51.483962,"lon":-0.304267,"name":"Brentford County Court","parentId":"490G00004289","stationId":"490G00004289","stopLetter":"BP","topMostParentId":"490G00004289"}]}]}