{"direction":"outbound","lineId":"199","lineName":"199","mode":"bus","stopPointSequences":[{"stopPoint":[{"icsId":"1004733","id":"490000037S","lat":51.49795,"lon":-0.049995,"name":"Canada Water Bus Station","parentId":"490G000438","stationId":"490G000438","stopLetter":"B2","topMostParentId":"HUBZCW"},{"icsId":"1011723","id":"490011723E","lat":51.495008,"lon":-0.050452,"name":"Rotherhithe Police Station","parentId":"490G00011723","stationId":"490G00011723","stopLetter":"E","topMostParentId":"490G00011723"},{"icsId":"1013042","id":"490013042K","lat":51.494005,"lon":-0.045856,"name":"Surrey Quays Shopping Centre","parentId":"490G000775","stationId":"490G000775","stopLetter":"K","topMostParentId":"490G000775"},{"icsId":"1000229","id":"490000229L","lat":51.493423,"lon":-0.046011,"name":"Surrey Quays Station","parentId":"490G00229S","stationId":"490G00229S","stopLetter":"L","topMostParentId":"910GSURREYQ"},{"icsId":"1011487","id":"490000229S","lat":51.492345,"lon":-0.045553,"name":"Lower Road / Surrey Quays Station","parentId":"490G00011487","stationId":"490G00011487","stopLetter":"M","topMostParentId":"490G00011487"},{"icsId":"1015001","id":"490015001E","lat":51.492756,"lon":-0.041069,"name":"Yeoman Street","parentId":"490G00015001","stationId":"490G00015001","stopLetter":"->E","topMostParentId":"490G00015001"},{"icsId":"1006258","id":"490006258E","lat":51.492535,"lon":-0.035907,"name":"Dunnage Crescent","parentId":"490G00006258","stationId":"490G00006258","stopLetter":"->E","topMostParentId":"490G00006258"},{"icsId":"1016665","id":"490016665S","lat":51.49215,"lon":-0.034397,"name":"Grove Street / Plough Way","parentId":"490G00016665","stationId":"490G00016665","stopLetter":"->S","topMostParentId":"490G00016665"},{"icsId":"1007582","id":"490007582S","lat":51.489994,"lon":-0.034547,"name":"Windlass Place","parentId":"490G00007582","stationId":"490G00007582","stopLetter":"->S","topMostParentId":"490G00007582"},{"icsId":"1011605","id":"490011605W","lat":51.488869,"lon":-0.03448,"name":"Riverside Youth Club","parentId":"490G00011605","stationId":"490G00011605","stopLetter":"X","topMostParentId":"490G00011605"},{"icsId":"1006052","id":"490006052S","lat":51.487902,"lon":-0.037403,"name":"Deptford Park School","parentId":"490G00006052","stationId":"490G00006052","stopLetter":"Y","topMostParentId":"490G00006052"},{"icsId":"1015333","id":"490015333E","lat":51.486985,"lon":-0.036347,"name":"Evelyn Street / Grinstead Road","parentId":"490G00015333","stationId":"490G00015333","stopLetter":"U","topMostParentId":"490G00015333"},{"icsId":"1006049","id":"490006049E","lat":51.48506,"lon":-0.033636,"name":"Deptford Fire Station","parentId":"490G00006049","stationId":"490G00006049","stopLetter":"V","topMostParentId":"490G00006049"},{"icsId":"1007585","id":"490007585E","lat":51.483552,"lon":-0.031122,"name":"Abinger Grove","parentId":"490G00007585","stationId":"490G00007585","stopLetter":"W","topMostParentId":"490G00007585"},{"icsId":"1018861","id":"490018861","lat":51.482135,"lon":-0.028159,"name":"Sayes Court Estate","parentId":"490G00018861","stationId":"490G00018861","topMostParentId":"490G00018861"},{"icsId":"1006050","id":"490006050C","lat":51.481245,"lon":-0.024986,"name":"Deptford High Street","parentId":"490G00006050","stationId":"490G00006050","stopLetter":"C","topMostParentId":"490G00006050"},{"icsId":"1011687","id":"490011687D","lat":51.480989,"lon":-0.021483,"name":"Macmillan Students Village","parentId":"490G00011687","stationId":"490G00011687","stopLetter":"D","topMostParentId":"490G00011687"},{"icsId":"1005736","id":"490005736E","lat":51.481412,"lon":-0.017244,"name":"Creekside","parentId":"490G00005736","stationId":"490G00005736","stopLetter":"Z","topMostParentId":"490G00005736"},{"icsId":"1010309","id":"490010309E","lat":51.481497,"lon":-0.014346,"name":"Creek Road / Norman Road","parentId":"490G00010309","stationId":"490G00010309","stopLetter":"Y","topMostParentId":"490G00010309"},{"icsId":"1002027","id":"490002027A","lat":51.481524,"lon":-0.011119,"name":"Greenwich Tn Ctr / Cutty Sark Stn","parentId":"490G02027A","stationId":"490G02027A","stopLetter":"A","topMostParentId":"HUBCUT","zone":"2+3"},{"icsId":"1007506","id":"490007506E","lat":51.480865,"lon":-0.008872,"name":"Greenwich Town Centre / Nelson Road","parentId":"490G000546","stationId":"490G000546","stopLetter":"E","topMostParentId":"490G000546"},{"icsId":"1007516","id":"490007513K","lat":51.479089,"lon":-0.010216,"name":"Greenwich High Road / Royal Hill","parentId":"490G00007516","stationId":"490G00007516","stopLetter":"K","topMostParentId":"490G00007516"},{"icsId":"1001123","id":"490001123L","lat":51.478265,"lon":-0.011448,"name":"Greenwich Station","parentId":"490G01123L","stationId":"490G01123L","stopLetter":"L","topMostParentId":"HUBGNW","zone":"2+3"},{"icsId":"1003411","id":"490003411S","lat":51.474979,"lon":-0.013347,"name":"Ashburnham Grove","parentId":"490G00003411","stationId":"490G00003411","stopLetter":"A","topMostParentId":"490G00003411"},{"icsId":"1015265","id":"490015265S","lat":51.473449,"lon":-0.014854,"name":"Greenwich South Street / Blackheath Road","parentId":"490G00015265","stationId":"490G00015265","stopLetter":"B","topMostParentId":"490G00015265"},{"icsId":"1012371","id":"490012371S","lat":51.471369,"lon":-0.014743,"name":"Sparta Street","parentId":"490G00012371","stationId":"490G00012371","stopLetter":"C","topMostParentId":"490G00012371"},{"icsId":"1010022","id":"490010022D","lat":51.469176,"lon":-0.013196,"name":"Morden Hill","parentId":"490G00010022","stationId":"490G00010022","stopLetter":"EE","topMostParentId":"490G00010022"},{"icsId":"1004068","id":"490004068S","lat":51.467604,"lon":-0.01171,"name":"Blackheath Rise","parentId":"490G00004068","stationId":"490G00004068","stopLetter":"EF","topMostParentId":"490G00004068"},{"icsId":"1001177","id":"490001177Z","lat":51.464228,"lon":-0.012547,"name":"Lewisham Station","parentId":"490GA00005","stationId":"490GA00005","stopLetter":"B","topMostParentId":"HUBLEW","zone":"2+3"},{"icsId":"1009105","id":"490009110W","lat":51.460808,"lon":-0.010781,"name":"Lewisham Centre","parentId":"490G00009105","stationId":"490G00009105","stopLetter":"W","topMostParentId":"490G00009105"},{"icsId":"1010038","id":"490010038Z","lat":51.458705,"lon":-0.012456,"name":"Morley Road","parentId":"490G00010038","stationId":"490G00010038","stopLetter":"Z","topMostParentId":"490G00010038"},{"icsId":"1009111","id":"490009111HN","lat":51.456697,"lon":-0.013897,"name":"Lewisham Fire Station","parentId":"490G00009111","stationId":"490G00009111","stopLetter":"HN","topMostParentId":"490G00009111"},{"icsId":"1009113","id":"490009113S","lat":51.454268,"lon":-0.015974,"name":"Lewisham Park","parentId":"490G00009113","stationId":"490G00009113","stopLetter":"HP","topMostParentId":"490G00009113"},{"icsId":"1009109","id":"490009109S","lat":51.452888,"lon":-0.016278,"name":"Lewisham Hospital","parentId":"490G00009109","stationId":"490G00009109","stopLetter":"HR","topMostParentId":"490G00009109"},{"icsId":"1000914","id":"490007163HS","lat":51.451197,"lon":-0.016784,"name":"Mount Pleasant Road","parentId":"490G000231","stationId":"490G000231","stopLetter":"HS","topMostParentId":"490G000231"},{"icsId":"1011703","id":"490011703O","lat":51.44807,"lon":-0.017423,"name":"Rosenthal Road","parentId":"490G00011703","stationId":"490G00011703","stopLetter":"G","topMostParentId":"490G00011703"},{"icsId":"1013282","id":"490013282D","lat":51.444766,"lon":-0.019868,"name":"The Catford Centre","parentId":"490G00013282","stationId":"490G00013282","stopLetter":"D","topMostParentId":"490G00013282"},{"icsId":"1015150","id":"490015150Z","lat":51.443388,"lon":-0.020302,"name":"Bromley Road / Lewisham Town Hall","parentId":"490G00015150","stationId":"490G00015150","stopLetter":"Z","topMostParentId":"490G00015150"},{"icsId":"1005020","id":"490003596S","lat":51.439268,"lon":-0.019689,"name":"Inchmery Road","parentId":"490G00005020","stationId":"490G00005020","topMostParentId":"490G00005020"},{"icsId":"1010248","id":"490010248S","lat":51.43709,"lon":-0.018546,"name":"Newquay Road","parentId":"490G00010248","stationId":"490G00010248","stopLetter":"BM","topMostParentId":"490G00010248"},{"icsId":"1004865","id":"490004865S1","lat":51.434902,"lon":-0.017806,"name":"Catford Garage","parentId":"490G00004865","stationId":"490G00004865","stopLetter":"->S","topMostParentId":"490G00004865"}]}]}