{"direction":"outbound","lineId":"200","lineName":"200","mode":"bus","stopPointSequences":[{"stopPoint":[{"icsId":"1015156","id":"490015156D","lat":51.410068,"lon":-0.230461,"name":"Lambton Road","parentId":"490G000864","stationId":"490G000864","stopLetter":"C","topMostParentId":"490G000864"},{"icsId":"1011457","id":"490011457E","lat":51.410627,"lon":-0.228743,"name":"Raynes Park Methodist Church","parentId":"490G00011457","stationId":"490G00011457","stopLetter":"D","topMostParentId":"490G00011457"},{"icsId":"1001237","id":"490001237A","lat":51.409269,"lon":-0.231139,"name":"Raynes Park Station","parentId":"490G01237A","stationId":"490G01237A","stopLetter":"H","topMostParentId":"910GRAYNSPK"},{"icsId":"1012382","id":"490012382N","lat":51.411878,"lon":-0.233584,"name":"Spencer Road","parentId":"490G00012382","stationId":"490G00012382","stopLetter":"K","topMostParentId":"490G00012382"},{"icsId":"1010614","id":"490010614N","lat":51.415338,"lon":-0.234026,"name":"Orchard Lane","parentId":"490G00010614","stationId":"490G00010614","stopLetter":"->N","topMostParentId":"490G00010614"},{"icsId":"1020386","id":"490014531N","lat":51.417613,"lon":-0.229882,"name":"Copse Hill / Christ Church","parentId":"490G000004","stationId":"490G000004","stopLetter":"->N","topMostParentId":"490G000004"},{"icsId":"1005594","id":"490005592W","lat":51.418155,"lon":-0.232997,"name":"High Cedar Drive","parentId":"490G00005594","stationId":"490G00005594","topMostParentId":"490G00005594"},{"icsId":"1003470","id":"490003470W","lat":51.418262,"lon":-0.239536,"name":"Atkinson Close / Copse Hill","parentId":"490G00003470","stationId":"490G00003470","topMostParentId":"490G00003470"},{"icsId":"1005592","id":"490005592E","lat":51.418415,"lon":-0.230556,"name":"Woodhayes Road","parentId":"490G00005592","stationId":"490G00005592","topMostParentId":"490G00005592"},{"icsId":"1006419","id":"490006419E","lat":51.419668,"lon":-0.224208,"name":"Edge Hill","parentId":"490G00006419","stationId":"490G00006419","stopLetter":"L","topMostParentId":"490G00006419"},{"icsId":"1014741","id":"490014741E","lat":51.422005,"lon":-0.21881,"name":"Wimbledon Telephone Exchange","parentId":"490G00014741","stationId":"490G00014741","stopLetter":"M","topMostParentId":"490G00014741"},{"icsId":"1014744","id":"490014744E","lat":51.423805,"lon":-0.21595,"name":"Wimbledon Village / Ridgway","parentId":"490G00014744","stationId":"490G00014744","stopLetter":"N","topMostParentId":"490G00014744"},{"icsId":"1014734","id":"490014734S","lat":51.422419,"lon":-0.208798,"name":"Wimbledon Hill Road","parentId":"490G00014734","stationId":"490G00014734","stopLetter":"S","topMostParentId":"HUBWIM"},{"icsId":"1014738","id":"490014738J","lat":51.421009,"lon":-0.20425,"name":"Wimbledon Police Station","parentId":"490G00014738","stationId":"490G00014738","stopLetter":"J","topMostParentId":"HUBWIM"},{"icsId":"1013806","id":"490013806E","lat":51.424175,"lon":-0.196675,"name":"Trinity Road","parentId":"490G00013806","stationId":"490G00013806","stopLetter":"HA","topMostParentId":"490G00013806"},{"icsId":"1005719","id":"490005719E","lat":51.424636,"lon":-0.193335,"name":"Craven Gardens","parentId":"490G00005719","stationId":"490G00005719","stopLetter":"HB","topMostParentId":"490G00005719"},{"icsId":"1001143","id":"490001143A","lat":51.425002,"lon":-0.189609,"name":"Haydons Road Station","parentId":"490G01143B","stationId":"490G01143B","stopLetter":"HC","topMostParentId":"910GHYDNSRD"},{"icsId":"1009931","id":"490009931S","lat":51.422475,"lon":-0.187868,"name":"Milton Road","parentId":"490G00009931","stationId":"490G00009931","stopLetter":"HD","topMostParentId":"490G00009931"},{"icsId":"1011376","id":"490011376S","lat":51.41954,"lon":-0.187092,"name":"Quicks Road","parentId":"490G00011376","stationId":"490G00011376","stopLetter":"SA","topMostParentId":"490G00011376"},{"icsId":"1009832","id":"490009832H","lat":51.416746,"lon":-0.187246,"name":"Haydons Road / Merton High Street","parentId":"490G00009832","stationId":"490G00009832","stopLetter":"SB","topMostParentId":"490G00009832"},{"icsId":"1007938","id":"490007938F","lat":51.416114,"lon":-0.185358,"name":"Abbey Road","parentId":"490G00007938","stationId":"490G00007938","stopLetter":"SH","topMostParentId":"490G00007938"},{"icsId":"1009830","id":"490009830E","lat":51.416424,"lon":-0.181535,"name":"Merton Abbey","parentId":"490G00009830","stationId":"490G00009830","stopLetter":"E","topMostParentId":"490G00009830"},{"icsId":"1000055","id":"490015237B","lat":51.417654,"lon":-0.177934,"name":"Colliers Wood Station","parentId":"490G00055A","stationId":"490G00055A","stopLetter":"B","topMostParentId":"940GZZLUCSD","zone":"3"},{"icsId":"1005223","id":"490005223K","lat":51.415983,"lon":-0.178072,"name":"Christ Church","parentId":"490G00005223","stationId":"490G00005223","stopLetter":"K","topMostParentId":"490G00005223"},{"icsId":"1011789","id":"490011789H","lat":51.413301,"lon":-0.178509,"name":"Runnymede","parentId":"490G00011789","stationId":"490G00011789","stopLetter":"H","topMostParentId":"490G00011789"},{"icsId":"1010093","id":"490010093S","lat":51.410453,"lon":-0.178076,"name":"Mount Road","parentId":"490G00010093","stationId":"490G00010093","stopLetter":"S","topMostParentId":"490G00010093"},{"icsId":"1004461","id":"490004461W","lat":51.408402,"lon":-0.180372,"name":"Haslemere Avenue","parentId":"490G00004461","stationId":"490G00004461","topMostParentId":"490G00004461"},{"icsId":"1007016","id":"490007016S","lat":51.405478,"lon":-0.182573,"name":"Frensham Court","parentId":"490G00007016","stationId":"490G00007016","stopLetter":"->S","topMostParentId":"490G00007016"},{"icsId":"1010707","id":"490010707E","lat":51.404319,"lon":-0.179743,"name":"Oxted Close","parentId":"490G00010707","stationId":"490G00010707","stopLetter":"B","topMostParentId":"490G00010707"},{"icsId":"1009876","id":"490009876S","lat":51.403495,"lon":-0.175909,"name":"Miles Road","parentId":"490G00009876","stationId":"490G00009876","stopLetter":"->S","topMostParentId":"490G00009876"},{"icsId":"1007678","id":"490007678E","lat":51.402568,"lon":-0.171244,"name":"Hall Place","parentId":"490G00007678","stationId":"490G00007678","stopLetter":"->E","topMostParentId":"490G00007678"},{"icsId":"1009946","id":"490009946P","lat":51.402657,"lon":-0.167732,"name":"Mitcham / Lower Green","parentId":"490G00009946","stationId":"490G00009946","stopLetter":"L","topMostParentId":"490G00009946"},{"icsId":"1007213","id":"490007213N1","lat":51.403854,"lon":-0.165485,"name":"Glebe Court","parentId":"490G00007213","stationId":"490G00007213","stopLetter":"J","topMostParentId":"490G00007213"},{"icsId":"1009949","id":"490009949Z","lat":51.406787,"lon":-0.163901,"name":"Mitcham Fair Green","parentId":"490G00009949","stationId":"490G00009949","stopLetter":"D","topMostParentId":"490G00009949"}]}]}