{"direction":"outbound","lineId":"202","lineName":"202","mode":"bus","stopPointSequences":[{"stopPoint":[{"icsId":"1005869","id":"490005869B","lat":51.421903,"lon":-0.07747,"name":"Crystal Palace Parade","parentId":"490G00005869","stationId":"490G00005869","stopLetter":"B","topMostParentId":"490G00005869"},{"icsId":"1005494","id":"490005494N1","lat":51.42461,"lon":-0.07586,"name":"Crystal Palace Parade / College Road","parentId":"490G00005494","stationId":"490G00005494","stopLetter":"V","topMostParentId":"490G00005494"},{"icsId":"1020095","id":"490014532N","lat":51.426593,"lon":-0.07395,"name":"Westwood Hill","parentId":"490G00020095","stationId":"490G00020095","stopLetter":"F","topMostParentId":"490G00020095"},{"icsId":"1006101","id":"490006101N","lat":51.429639,"lon":-0.074887,"name":"Dome Hill Park","parentId":"490G00006101","stationId":"490G00006101","stopLetter":"G","topMostParentId":"490G00006101"},{"icsId":"1014370","id":"490014370A","lat":51.431833,"lon":-0.073241,"name":"Wells Park Road","parentId":"490G00014370","stationId":"490G00014370","stopLetter":"H","topMostParentId":"490G00014370"},{"icsId":"1004742","id":"490004742E","lat":51.431726,"lon":-0.070541,"name":"Canbury Mews","parentId":"490G00004742","stationId":"490G00004742","stopLetter":"U","topMostParentId":"490G00004742"},{"icsId":"1013129","id":"490013129UB","lat":51.431322,"lon":-0.067321,"name":"Sydenham Hill Estate","parentId":"490G00013129","stationId":"490G00013129","stopLetter":"V","topMostParentId":"490G00013129"},{"icsId":"1005576","id":"490005576E","lat":51.430907,"lon":-0.065022,"name":"Coombe Road","parentId":"490G00005576","stationId":"490G00005576","stopLetter":"W","topMostParentId":"490G00005576"},{"icsId":"1005278","id":"490005278E","lat":51.430861,"lon":-0.060089,"name":"Churchley Road","parentId":"490G00005278","stationId":"490G00005278","stopLetter":"X","topMostParentId":"490G00005278"},{"icsId":"1010871","id":"490010871S","lat":51.429529,"lon":-0.058405,"name":"Peak Hill","parentId":"490G00010871","stationId":"490G00010871","stopLetter":"Z","topMostParentId":"490G00010871"},{"icsId":"1009034","id":"490005453F","lat":51.427498,"lon":-0.056305,"name":"Sydenham Station  / Kirkdale","parentId":"490G000630","stationId":"490G000630","stopLetter":"F","topMostParentId":"HUBSYD"},{"icsId":"1010226","id":"490010226G","lat":51.426228,"lon":-0.051842,"name":"Newlands Park","parentId":"490G000676","stationId":"490G000676","stopLetter":"G","topMostParentId":"490G000676"},{"icsId":"1009750","id":"490009750N","lat":51.425751,"lon":-0.047518,"name":"Sydenham Road / Mayow Road","parentId":"490G00009750","stationId":"490G00009750","stopLetter":"N","topMostParentId":"490G00009750"},{"icsId":"1008147","id":"490008147E","lat":51.426628,"lon":-0.04187,"name":"Highclere Street","parentId":"490G00008147","stationId":"490G00008147","stopLetter":"LU","topMostParentId":"490G00008147"},{"icsId":"1004974","id":"490004974E","lat":51.428428,"lon":-0.038197,"name":"Kirtley Road","parentId":"490G00004974","stationId":"490G00004974","stopLetter":"LV","topMostParentId":"490G00004974"},{"icsId":"1003848","id":"490003848N1","lat":51.429496,"lon":-0.037504,"name":"Bell Green / Southend Lane","parentId":"490G00003848","stationId":"490G00003848","stopLetter":"LZ","topMostParentId":"490G00003848"},{"icsId":"1003368","id":"490003368W","lat":51.431909,"lon":-0.037703,"name":"Ardley Close","parentId":"490G00003368","stationId":"490G00003368","stopLetter":"LW","topMostParentId":"490G00003368"},{"icsId":"1008404","id":"490008404N","lat":51.433726,"lon":-0.036661,"name":"Houston Road","parentId":"490G00008404","stationId":"490G00008404","topMostParentId":"490G00008404"},{"icsId":"1004846","id":"490004846N","lat":51.43675,"lon":-0.034128,"name":"Castlands Road","parentId":"490G00004846","stationId":"490G00004846","stopLetter":"Z","topMostParentId":"490G00004846"},{"icsId":"1006510","id":"490006510E","lat":51.439384,"lon":-0.032433,"name":"Elm Lane","parentId":"490G00006510","stationId":"490G00006510","stopLetter":"S","topMostParentId":"490G00006510"},{"icsId":"1003812","id":"490003812E","lat":51.440272,"lon":-0.030682,"name":"Beechfield Road","parentId":"490G00003812","stationId":"490G00003812","stopLetter":"T","topMostParentId":"490G00003812"},{"icsId":"1004862","id":"490001053M","lat":51.44459,"lon":-0.024409,"name":"Catford & Catford Bridge Stations","parentId":"490G000444","stationId":"490G000444","stopLetter":"M","topMostParentId":"490G000444"},{"icsId":"1009117","id":"490009117J","lat":51.445114,"lon":-0.020285,"name":"Catford Road / Lewisham Town Hall","parentId":"490G00009117","stationId":"490G00009117","stopLetter":"J","topMostParentId":"490G00009117"},{"icsId":"1013287","id":"490013282E","lat":51.44623,"lon":-0.018179,"name":"Brownhill Road / The Catford Centre","parentId":"490G00013287","stationId":"490G00013287","stopLetter":"E","topMostParentId":"490G00013287"},{"icsId":"1008598","id":"490008598E","lat":51.445305,"lon":-0.012448,"name":"Laleham Road","parentId":"490G00008598","stationId":"490G00008598","stopLetter":"C","topMostParentId":"490G00008598"},{"icsId":"1015457","id":"490015457E","lat":51.445137,"lon":-0.008325,"name":"Brownhill Road / St Fillans Road","parentId":"490G00015457","stationId":"490G00015457","stopLetter":"D","topMostParentId":"490G00015457"},{"icsId":"1013717","id":"490013717E","lat":51.445155,"lon":-0.001489,"name":"Torridon Road","parentId":"490G00013717","stationId":"490G00013717","stopLetter":"G","topMostParentId":"490G00013717"},{"icsId":"1010762","id":"490010762E","lat":51.445684,"lon":0.008075,"name":"Parkcroft Road","parentId":"490G00010762","stationId":"490G00010762","stopLetter":"J","topMostParentId":"490G00010762"},{"icsId":"1003599","id":"490003599E","lat":51.446002,"lon":0.013126,"name":"Baring Road","parentId":"490G00003599","stationId":"490G00003599","stopLetter":"V","topMostParentId":"490G00003599"},{"icsId":"1014480","id":"490014480N","lat":51.447079,"lon":0.013807,"name":"Westhorne Avenue","parentId":"490G00014480","stationId":"490G00014480","stopLetter":"C","topMostParentId":"490G00014480"},{"icsId":"1001176","id":"490001176N","lat":51.448396,"lon":0.013044,"name":"Lee Station","parentId":"490G01176N","stationId":"490G01176N","stopLetter":"A","topMostParentId":"910GLEEE"},{"icsId":"1009847","id":"490009847N","lat":51.451594,"lon":0.012149,"name":"Micheldever Road","parentId":"490G00009847","stationId":"490G00009847","stopLetter":"G","topMostParentId":"490G00009847"},{"icsId":"1009063","id":"490009060C","lat":51.456131,"lon":0.01137,"name":"Burnt Ash Road / Lee Road","parentId":"490G00009063","stationId":"490G00009063","stopLetter":"H","topMostParentId":"490G00009063"},{"icsId":"1009599","id":"490009599N","lat":51.459267,"lon":0.009938,"name":"Manor Way","parentId":"490G00009599","stationId":"490G00009599","stopLetter":"P","topMostParentId":"490G00009599"},{"icsId":"1011233","id":"490011233N","lat":51.462076,"lon":0.009759,"name":"Priory Park","parentId":"490G00011233","stationId":"490G00011233","stopLetter":"R","topMostParentId":"490G00011233"},{"icsId":"1001029","id":"490001029C","lat":51.465129,"lon":0.008987,"name":"Blackheath Station","parentId":"490G01029C","stationId":"490G01029C","stopLetter":"C","topMostParentId":"910GBLKHTH"},{"icsId":"1011771","id":"490011771G","lat":51.467671,"lon":0.007586,"name":"Royal Parade","parentId":"490G00011771","stationId":"490G00011771","stopLetter":"G","topMostParentId":"490G00011771"},{"icsId":"1013300","id":"490013290H","lat":51.469049,"lon":0.009015,"name":"The Clarendon Hotel","parentId":"490G00013300","stationId":"490G00013300","stopLetter":"H","topMostParentId":"490G00013300"},{"icsId":"1009755","id":"490009755P","lat":51.474406,"lon":0.009711,"name":"Maze Hill","parentId":"490G00009755","stationId":"490G00009755","stopLetter":"P","topMostParentId":"490G00009755"},{"icsId":"1003708","id":"490003708E1","lat":51.477112,"lon":0.014467,"name":"Vanbrugh Park / Beaconsfield Road","parentId":"490G00003708","stationId":"490G00003708","stopLetter":"BU","topMostParentId":"490G00003708"},{"icsId":"1004065","id":"490004065BB","lat":51.478016,"lon":0.019965,"name":"Blackheath / Royal Standard","parentId":"490G00004065","stationId":"490G00004065","stopLetter":"BB","topMostParentId":"490G00004065"}]}]}