{"direction":"outbound","lineId":"209","lineName":"209","mode":"bus","stopPointSequences":[{"stopPoint":[{"icsId":"1010047","id":"490010047N","lat":51.468011,"lon":-0.259579,"name":"Mortlake Bus Station","parentId":"490G00010047","stationId":"490G00010047","stopLetter":"P","topMostParentId":"490G00010047"},{"icsId":"1003516","id":"490003516E","lat":51.469926,"lon":-0.259534,"name":"Avondale Road","parentId":"490G00003516","stationId":"490G00003516","stopLetter":"S","topMostParentId":"490G00003516"},{"icsId":"1014596","id":"490014596E","lat":51.470498,"lon":-0.256878,"name":"White Hart Lane","parentId":"490G00014596","stationId":"490G00014596","stopLetter":"T","topMostParentId":"490G00014596"},{"icsId":"1001015","id":"490001015BK","lat":51.472608,"lon":-0.253039,"name":"Barnes Bridge Station","parentId":"490G01015BK","stationId":"490G01015BK","stopLetter":"BK","topMostParentId":"910GBNSBDGE"},{"icsId":"1018231","id":"490018231S","lat":51.470509,"lon":-0.244927,"name":"Beverley Road","parentId":"490G00018231","stationId":"490G00018231","stopLetter":"->S","topMostParentId":"490G00018231"},{"icsId":"1012375","id":"490012375E","lat":51.468498,"lon":-0.227813,"name":"Commondale","parentId":"490G00012375","stationId":"490G00012375","stopLetter":"E","topMostParentId":"490G00012375"},{"icsId":"1006825","id":"490006825E","lat":51.468296,"lon":-0.223415,"name":"Festing Road","parentId":"490G00006825","stationId":"490G00006825","stopLetter":"F","topMostParentId":"490G00006825"},{"icsId":"1011828","id":"490011828E","lat":51.467324,"lon":-0.219206,"name":"Ruvigny Gardens","parentId":"490G00011828","stationId":"490G00011828","stopLetter":"G","topMostParentId":"490G00011828"},{"icsId":"1002026","id":"490013344Q","lat":51.466386,"lon":-0.21488,"name":"Putney Pier","parentId":"490G13344P","stationId":"490G13344P","stopLetter":"Q","topMostParentId":"930GPUT"},{"icsId":"1011278","id":"490011278N","lat":51.466492,"lon":-0.213594,"name":"St Mary's Church / Putney Pier","parentId":"490G00011278","stationId":"490G00011278","stopLetter":"T","topMostParentId":"490G00011278"},{"icsId":"1007281","id":"490015157V","lat":51.468039,"lon":-0.211835,"name":"Putney Bridge Stn  / Gonville Street","parentId":"490G000536","stationId":"490G000536","stopLetter":"FH","topMostParentId":"490G000536"}]}]}