{"direction":"outbound","lineId":"209","lineName":"209","mode":"bus","stopPointSequences":[{"stopPoint":[{"icsId":"1010047","id":"490010047N","lat":51.468011,"lon":-0.259579,"name":"Mortlake Bus Station","parentId":"490G00010047","stationId":"490G00010047","stopLetter":"P","topMostParentId":"490G00010047"},{"icsId":"1003516","id":"490003516E","lat":51.469926,"lon":-0.259534,"name":"Avondale Road","parentId":"490G00003516","stationId":"490G00003516","stopLetter":"S","topMostParentId":"490G00003516"},{"icsId":"1014596","id":"490014596E","lat":51.470498,"lon":-0.256878,"name":"White Hart Lane","parentId":"490G00014596","stationId":"490G00014596","stopLetter":"T","topMostParentId":"490G00014596"},{"icsId":"1001015","id":"490001015BK","lat":51.472608,"lon":-0.253039,"name":"Barnes Bridge Station","parentId":"490G01015BK","stationId":"490G01015BK","stopLetter":"BK","topMostParentId":"910GBNSBDGE"},{"icsId":"1003632","id":"490003632BF","lat":51.473881,"lon":-0.24677,"name":"Barnes Pond","parentId":"490G00003632","stationId":"490G00003632","stopLetter":"BF","topMostParentId":"490G00003632"},{"icsId":"1007216","id":"490007216BE","lat":51.474429,"lon":-0.243711,"name":"Glebe Road","parentId":"490G00007216","stationId":"490G00007216","stopLetter":"BE","topMostParentId":"490G00007216"},{"icsId":"1003628","id":"490003628WR","lat":51.475649,"lon":-0.239315,"name":"Barnes / Red Lion","parentId":"490G00003628","stationId":"490G00003628","stopLetter":"WR","topMostParentId":"490G00003628"},{"icsId":"1010246","id":"490010246WP","lat":51.478329,"lon":-0.238103,"name":"Newport Road","parentId":"490G00010246","stationId":"490G00010246","stopLetter":"WP","topMostParentId":"490G00010246"},{"icsId":"1014260","id":"490014260N","lat":51.481161,"lon":-0.236871,"name":"Washington Road","parentId":"490G00014260","stationId":"490G00014260","stopLetter":"G","topMostParentId":"490G00014260"},{"icsId":"1013558","id":"490013558N","lat":51.483637,"lon":-0.235277,"name":"The Spinney","parentId":"490G00013558","stationId":"490G00013558","stopLetter":"H","topMostParentId":"490G00013558"},{"icsId":"1009353","id":"490009353N","lat":51.485194,"lon":-0.233575,"name":"Lonsdale Road","parentId":"490G00009353","stationId":"490G00009353","stopLetter":"J","topMostParentId":"490G00009353"},{"icsId":"1018948","id":"490018948N","lat":51.489648,"lon":-0.229038,"name":"Hammersmith Bridge / North Side","parentId":"490G00018948","stationId":"490G00018948","topMostParentId":"490G00018948"},{"icsId":"1007703","id":"490007703M","lat":51.492136,"lon":-0.225816,"name":"Hammersmith Bridge Road","parentId":"490G000564","stationId":"490G000564","stopLetter":"T","topMostParentId":"490G000564"},{"icsId":"1007705","id":"490007705J","lat":51.49291,"lon":-0.223481,"name":"Hammersmith Bus Station","parentId":"490G000565","stationId":"490G000565","stopLetter":"J","topMostParentId":"HUBHMS"}]}]}