{"direction":"outbound","lineId":"213","lineName":"213","mode":"bus","stopPointSequences":[{"stopPoint":[{"icsId":"1006705","id":"490006705B2","lat":51.410447,"lon":-0.299741,"name":"Fairfield Bus Station","parentId":"490G00006705","stationId":"490G00006705","stopLetter":"D","topMostParentId":"490G00006705"},{"icsId":"1006412","id":"490006412E2","lat":51.410154,"lon":-0.302513,"name":"Eden Street","parentId":"490G00006412","stationId":"490G00006412","stopLetter":"E2","topMostParentId":"490G00006412"},{"icsId":"1005800","id":"490005800A1","lat":51.412371,"lon":-0.299109,"name":"Cromwell Road Bus Station","parentId":"490G000476","stationId":"490G000476","stopLetter":"A1","topMostParentId":"490G000476"},{"icsId":"1013664","id":"490013664C1","lat":51.410752,"lon":-0.295991,"name":"Tiffin School / London Road","parentId":"490G00013664","stationId":"490G00013664","stopLetter":"B","topMostParentId":"490G00013664"},{"icsId":"1010295","id":"490010295E","lat":51.410971,"lon":-0.293122,"name":"Norbiton Church","parentId":"490G00010295","stationId":"490G00010295","stopLetter":"->E","topMostParentId":"490G00010295"},{"icsId":"1018701","id":"4900018701N","lat":51.412588,"lon":-0.289351,"name":"Gordon Road","parentId":"490G00018701","stationId":"490G00018701","stopLetter":"NZ","topMostParentId":"490G00018701"},{"icsId":"1010799","id":"490010799NP","lat":51.414621,"lon":-0.286931,"name":"Park Road","parentId":"490G00010799","stationId":"490G00010799","stopLetter":"NP","topMostParentId":"490G00010799"},{"icsId":"1011351","id":"490011351NM","lat":51.416379,"lon":-0.283529,"name":"Queens Road / Kingston Hospital","parentId":"490G00011351","stationId":"490G00011351","stopLetter":"NM","topMostParentId":"490G00011351"},{"icsId":"1015315","id":"490015315NK","lat":51.415384,"lon":-0.280647,"name":"Kingston Hospital","parentId":"490G00015315","stationId":"490G00015315","stopLetter":"NK","topMostParentId":"490G00015315"},{"icsId":"1007247","id":"490007247S","lat":51.411883,"lon":-0.280448,"name":"Gloucester Road","parentId":"490G00007247","stationId":"490G00007247","stopLetter":"NC","topMostParentId":"490G00007247"},{"icsId":"1008632","id":"490008632W","lat":51.41074,"lon":-0.278578,"name":"Kenley Road","parentId":"490G00008632","stationId":"490G00008632","stopLetter":"Q","topMostParentId":"490G00008632"},{"icsId":"1017195","id":"490013574E","lat":51.408807,"lon":-0.2731,"name":"The Triangle","parentId":"490G00017195","stationId":"490G00017195","stopLetter":"R","topMostParentId":"490G00017195"},{"icsId":"1010500","id":"490010500E","lat":51.409463,"lon":-0.267583,"name":"Oak Road","parentId":"490G00010500","stationId":"490G00010500","stopLetter":"S","topMostParentId":"490G00010500"},{"icsId":"1005569","id":"490005569E","lat":51.409873,"lon":-0.261902,"name":"Coombe Girls School","parentId":"490G00005569","stationId":"490G00005569","topMostParentId":"490G00005569"},{"icsId":"1008953","id":"490008953S","lat":51.409547,"lon":-0.258665,"name":"Langley Grove","parentId":"490G00008953","stationId":"490G00008953","stopLetter":"->S","topMostParentId":"490G00008953"},{"icsId":"1004693","id":"490004693S","lat":51.406176,"lon":-0.257556,"name":"Cambridge Avenue","parentId":"490G00004693","stationId":"490G00004693","topMostParentId":"490G00004693"},{"icsId":"1001206","id":"490001206B","lat":51.403249,"lon":-0.25669,"name":"New Malden Station","parentId":"490G01206H","stationId":"490G01206H","stopLetter":"B","topMostParentId":"910GNEWMLDN"},{"icsId":"1010234","id":"490010234D","lat":51.400636,"lon":-0.255725,"name":"New Malden High Street","parentId":"490G00010234","stationId":"490G00010234","stopLetter":"D","topMostParentId":"490G00010234"},{"icsId":"1015206","id":"490015206J","lat":51.398167,"lon":-0.255374,"name":"New Malden / The Fountain","parentId":"490G000880","stationId":"490G000880","stopLetter":"J","topMostParentId":"490G000880"},{"icsId":"1012723","id":"490012723S","lat":51.395442,"lon":-0.254169,"name":"St James Church / Kingston By-Pass","parentId":"490G00012723","stationId":"490G00012723","stopLetter":"MA","topMostParentId":"490G00012723"},{"icsId":"1004091","id":"490004091S","lat":51.393508,"lon":-0.252906,"name":"Blakes Lane","parentId":"490G00004091","stationId":"490G00004091","stopLetter":"MB","topMostParentId":"490G00004091"},{"icsId":"1010058","id":"490010058S","lat":51.389859,"lon":-0.253031,"name":"Motspur Park","parentId":"490G00010058","stationId":"490G00010058","stopLetter":"MC","topMostParentId":"490G00010058"},{"icsId":"1009467","id":"490009467S","lat":51.387988,"lon":-0.253016,"name":"Lyndhurst Drive","parentId":"490G00009467","stationId":"490G00009467","stopLetter":"MD","topMostParentId":"490G00009467"},{"icsId":"1013501","id":"490013501S","lat":51.385323,"lon":-0.252154,"name":"Plough Green","parentId":"490G00013501","stationId":"490G00013501","stopLetter":"ME","topMostParentId":"490G00013501"},{"icsId":"1009521","id":"490009521E","lat":51.383296,"lon":-0.249544,"name":"Malden Green Avenue","parentId":"490G00009521","stationId":"490G00009521","stopLetter":"MF","topMostParentId":"490G00009521"},{"icsId":"1001346","id":"490001346B","lat":51.38144,"lon":-0.246281,"name":"Worcester Park Station","parentId":"490G01346A","stationId":"490G01346A","stopLetter":"B","topMostParentId":"910GWRCSTRP"},{"icsId":"1009304","id":"490014261E","lat":51.37885,"lon":-0.24204,"name":"Longfellow Road","parentId":"490G00009304","stationId":"490G00009304","stopLetter":"E","topMostParentId":"490G00009304"},{"icsId":"1009181","id":"490009181S","lat":51.376737,"lon":-0.237322,"name":"Lindsay Road","parentId":"490G00009181","stationId":"490G00009181","stopLetter":"->E","topMostParentId":"490G00009181"},{"icsId":"1014815","id":"490014815S","lat":51.373327,"lon":-0.232396,"name":"Woodbine Lane","parentId":"490G00014815","stationId":"490G00014815","stopLetter":"->S","topMostParentId":"490G00014815"},{"icsId":"1010323","id":"490009283B","lat":51.371526,"lon":-0.228686,"name":"North Cheam / Queen Victoria","parentId":"490G00010323","stationId":"490G00010323","stopLetter":"B","topMostParentId":"490G00010323"},{"icsId":"1010335","id":"490010323J","lat":51.369896,"lon":-0.226723,"name":"Church Hill Road","parentId":"490G00010335","stationId":"490G00010335","stopLetter":"J","topMostParentId":"490G00010335"},{"icsId":"1005059","id":"490005059S","lat":51.368029,"lon":-0.225172,"name":"Cheam Leisure Centre","parentId":"490G00005059","stationId":"490G00005059","stopLetter":"T","topMostParentId":"490G00005059"},{"icsId":"1009524","id":"490009524R","lat":51.365677,"lon":-0.223065,"name":"Malden Road / Priory Road","parentId":"490G00009524","stationId":"490G00009524","stopLetter":"R","topMostParentId":"490G00009524"},{"icsId":"1013668","id":"490013668S","lat":51.363548,"lon":-0.220232,"name":"Tilehurst Road","parentId":"490G00013668","stationId":"490G00013668","stopLetter":"->S","topMostParentId":"490G00013668"},{"icsId":"1009451","id":"490009451P","lat":51.361635,"lon":-0.218625,"name":"Lumley Road","parentId":"490G00009451","stationId":"490G00009451","stopLetter":"P","topMostParentId":"490G00009451"},{"icsId":"1005056","id":"490005056C","lat":51.3585,"lon":-0.216506,"name":"Cheam Broadway","parentId":"490G00005056","stationId":"490G00005056","stopLetter":"C","topMostParentId":"490G00005056"},{"icsId":"1012437","id":"490012437H","lat":51.359101,"lon":-0.211671,"name":"St Dunstan's Hill","parentId":"490G00012437","stationId":"490G00012437","stopLetter":"H","topMostParentId":"490G00012437"},{"icsId":"1007103","id":"490007103E","lat":51.359878,"lon":-0.206656,"name":"Cheam Road / Gander Green Lane","parentId":"490G00007103","stationId":"490G00007103","stopLetter":"C","topMostParentId":"490G00007103"},{"icsId":"1014453","id":"490014453E","lat":51.360555,"lon":-0.202666,"name":"Western Road","parentId":"490G00014453","stationId":"490G00014453","stopLetter":"D","topMostParentId":"490G00014453"},{"icsId":"1011969","id":"490011969U","lat":51.361274,"lon":-0.197395,"name":"Secombe Centre","parentId":"490G00011969","stationId":"490G00011969","stopLetter":"U","topMostParentId":"490G00011969"},{"icsId":"1013064","id":"490013064V","lat":51.361913,"lon":-0.194497,"name":"Sutton Civic Centre","parentId":"490G00013064","stationId":"490G00013064","stopLetter":"V","topMostParentId":"490G00013064"},{"icsId":"1011856","id":"490011856W","lat":51.365479,"lon":-0.195405,"name":"St Nicholas Centre","parentId":"490G00011856","stationId":"490G00011856","stopLetter":"W","topMostParentId":"490G00011856"},{"icsId":"1005844","id":"490005844X","lat":51.367396,"lon":-0.197858,"name":"Crown Road","parentId":"490G00005844","stationId":"490G00005844","stopLetter":"X","topMostParentId":"490G00005844"},{"icsId":"1013063","id":"490013063NE","lat":51.368932,"lon":-0.199479,"name":"Sutton Bus Garage","parentId":"490G00013063","stationId":"490G00013063","topMostParentId":"490G00013063"}]}]}