{"direction":"outbound","lineId":"221","lineName":"221","mode":"bus","stopPointSequences":[{"stopPoint":[{"icsId":"1000070","id":"490015287E","lat":51.612734,"lon":-0.274197,"name":"Edgware Bus Station","parentId":"490G00070C","stationId":"490G00070C","stopLetter":"E","topMostParentId":"940GZZLUEGW","zone":"5"},{"icsId":"1000070","id":"490000070A","lat":51.614772,"lon":-0.275824,"name":"Edgware Station","parentId":"490G00070S","stationId":"490G00070S","stopLetter":"A","topMostParentId":"940GZZLUEGW","zone":"5"},{"icsId":"1004366","id":"490004366E","lat":51.618247,"lon":-0.271807,"name":"Broadfields Avenue","parentId":"490G00004366","stationId":"490G00004366","stopLetter":"N","topMostParentId":"490G00004366"},{"icsId":"1006748","id":"490008197E","lat":51.617846,"lon":-0.266564,"name":"Farm Road","parentId":"490G00006748","stationId":"490G00006748","stopLetter":"A","topMostParentId":"490G00006748"},{"icsId":"1005442","id":"490005442E","lat":51.617193,"lon":-0.261302,"name":"Cloister Gardens","parentId":"490G00005442","stationId":"490G00005442","stopLetter":"B","topMostParentId":"490G00005442"},{"icsId":"1003407","id":"490003407E","lat":51.615488,"lon":-0.255488,"name":"Ashbourne Grove","parentId":"490G00003407","stationId":"490G00003407","stopLetter":"C","topMostParentId":"490G00003407"},{"icsId":"1007665","id":"490007665E","lat":51.614373,"lon":-0.251877,"name":"Hale Grove Gardens","parentId":"490G00007665","stationId":"490G00007665","stopLetter":"D","topMostParentId":"490G00007665"},{"icsId":"1001193","id":"490015207F","lat":51.614407,"lon":-0.248106,"name":"Mill Hill Broadway Station","parentId":"490G01193A","stationId":"490G01193A","stopLetter":"F","topMostParentId":"910GMLHB"},{"icsId":"1012811","id":"490012811K","lat":51.614782,"lon":-0.244914,"name":"St Michaels Church","parentId":"490G00012811","stationId":"490G00012811","stopLetter":"K","topMostParentId":"490G00012811"},{"icsId":"1010791","id":"490010791S","lat":51.611858,"lon":-0.244232,"name":"Parkmead Gardens","parentId":"490G00010791","stationId":"490G00010791","stopLetter":"->S","topMostParentId":"490G00010791"},{"icsId":"1004580","id":"490004580E","lat":51.607552,"lon":-0.238896,"name":"Bunns Lane Bridge","parentId":"490G00004580","stationId":"490G00004580","stopLetter":"->E","topMostParentId":"490G00004580"},{"icsId":"1005595","id":"490005595E","lat":51.608175,"lon":-0.234265,"name":"Copthall Gardens / Page Street","parentId":"490G00005595","stationId":"490G00005595","stopLetter":"->E","topMostParentId":"490G00005595"},{"icsId":"1010722","id":"490010722E","lat":51.607909,"lon":-0.232138,"name":"Page Street","parentId":"490G00010722","stationId":"490G00010722","stopLetter":"->E","topMostParentId":"490G00010722"},{"icsId":"1005596","id":"490005596E","lat":51.608443,"lon":-0.227005,"name":"Copthall Sports Centre","parentId":"490G00005596","stationId":"490G00005596","stopLetter":"->E","topMostParentId":"490G00005596"},{"icsId":"1011859","id":"490011859E","lat":51.608692,"lon":-0.222056,"name":"Salcombe Gardens","parentId":"490G00011859","stationId":"490G00011859","topMostParentId":"490G00011859"},{"icsId":"1011794","id":"490011794N","lat":51.611636,"lon":-0.218171,"name":"Rushden Gardens","parentId":"490G00011794","stationId":"490G00011794","stopLetter":"->N","topMostParentId":"490G00011794"},{"icsId":"1004049","id":"490004049E","lat":51.613061,"lon":-0.215486,"name":"Bittacy Hill","parentId":"490G00004049","stationId":"490G00004049","stopLetter":"->E","topMostParentId":"490G00004049"},{"icsId":"1011892","id":"490011892S","lat":51.610218,"lon":-0.212435,"name":"Sanders Lane","parentId":"490G00011892","stationId":"490G00011892","topMostParentId":"490G00011892"},{"icsId":"1000147","id":"490000147B","lat":51.608293,"lon":-0.209406,"name":"Mill Hill East Station","parentId":"490G00147E","stationId":"490G00147E","stopLetter":"B","topMostParentId":"940GZZLUMHL","zone":"4"},{"icsId":"1003052","id":"490003052N","lat":51.606638,"lon":-0.207059,"name":"Abercorn Road","parentId":"490G00003052","stationId":"490G00003052","stopLetter":"C","topMostParentId":"490G00003052"},{"icsId":"1006835","id":"490006835N","lat":51.611395,"lon":-0.204676,"name":"Finchley Golf Club","parentId":"490G00006835","stationId":"490G00006835","stopLetter":"->N","topMostParentId":"490G00006835"},{"icsId":"1010862","id":"490010862E","lat":51.61547,"lon":-0.201843,"name":"Partingdale Lane","parentId":"490G00010862","stationId":"490G00010862","topMostParentId":"490G00010862"},{"icsId":"1005321","id":"490005321E","lat":51.616209,"lon":-0.196123,"name":"Cissbury Ring / Western Arm","parentId":"490G00005321","stationId":"490G00005321","stopLetter":"->E","topMostParentId":"490G00005321"},{"icsId":"1013049","id":"490013049E","lat":51.615213,"lon":-0.190962,"name":"Sussex Ring","parentId":"490G00013049","stationId":"490G00013049","stopLetter":"->E","topMostParentId":"490G00013049"},{"icsId":"1003373","id":"490003373E","lat":51.613559,"lon":-0.186392,"name":"Argyle Road / Avondale Avenue","parentId":"490G000392","stationId":"490G000392","stopLetter":"TT","topMostParentId":"490G000392"},{"icsId":"1010182","id":"490010182O","lat":51.613223,"lon":-0.184961,"name":"Nether Street","parentId":"490G00010182","stationId":"490G00010182","stopLetter":"QQ","topMostParentId":"490G00010182"},{"icsId":"1014813","id":"490014813J","lat":51.61129,"lon":-0.179203,"name":"Woodberry Grove","parentId":"490G00014813","stationId":"490G00014813","stopLetter":"L","topMostParentId":"490G00014813"},{"icsId":"1013149","id":"490013149K","lat":51.61372,"lon":-0.17704,"name":"Tally Ho Corner","parentId":"490G00013149","stationId":"490G00013149","stopLetter":"K","topMostParentId":"490G00013149"},{"icsId":"1015443","id":"490015518E","lat":51.613344,"lon":-0.175943,"name":"North Finchley Bus Station","parentId":"490G00015443","stationId":"490G00015443","stopLetter":"E","topMostParentId":"490G00015443"},{"icsId":"1010369","id":"490010369G","lat":51.612369,"lon":-0.174596,"name":"North Finchley High Road","parentId":"490G00010369","stationId":"490G00010369","stopLetter":"J","topMostParentId":"490G00010369"},{"icsId":"1007575","id":"490007575E","lat":51.611637,"lon":-0.171462,"name":"Grove Road","parentId":"490G00007575","stationId":"490G00007575","stopLetter":"F","topMostParentId":"490G00007575"},{"icsId":"1008250","id":"490008250E","lat":51.611551,"lon":-0.167075,"name":"Woodhouse College","parentId":"490G00008250","stationId":"490G00008250","stopLetter":"FU","topMostParentId":"490G00008250"},{"icsId":"1009102","id":"490009102E","lat":51.611759,"lon":-0.164293,"name":"Lewes Road","parentId":"490G00009102","stationId":"490G00009102","stopLetter":"FV","topMostParentId":"490G00009102"},{"icsId":"1007030","id":"490007030E","lat":51.612417,"lon":-0.159775,"name":"Colney Hatch Lane","parentId":"490G00007030","stationId":"490G00007030","stopLetter":"FW","topMostParentId":"490G00007030"},{"icsId":"1012733","id":"490012733E","lat":51.61348,"lon":-0.155904,"name":"St John's Church","parentId":"490G00012733","stationId":"490G00012733","stopLetter":"FZ","topMostParentId":"490G00012733"},{"icsId":"1012541","id":"490012541E","lat":51.614111,"lon":-0.151444,"name":"Stanford Road","parentId":"490G00012541","stationId":"490G00012541","topMostParentId":"490G00012541"},{"icsId":"1003846","id":"490003846E","lat":51.614819,"lon":-0.148397,"name":"Bellevue Road","parentId":"490G00003846","stationId":"490G00003846","stopLetter":"->E","topMostParentId":"490G00003846"},{"icsId":"1003712","id":"490003712E","lat":51.615325,"lon":-0.145704,"name":"Beaconsfield Road","parentId":"490G00003712","stationId":"490G00003712","stopLetter":"->E","topMostParentId":"490G00003712"},{"icsId":"1001207","id":"490001207E","lat":51.614969,"lon":-0.143118,"name":"New Southgate Station","parentId":"490G01207E","stationId":"490G01207E","stopLetter":"J","topMostParentId":"910GNEWSGAT"},{"icsId":"1014618","id":"490014618E","lat":51.613582,"lon":-0.141846,"name":"Whitmore Close","parentId":"490G000833","stationId":"490G000833","stopLetter":"L","topMostParentId":"490G000833"},{"icsId":"1009427","id":"490009427E","lat":51.612383,"lon":-0.139353,"name":"Lower Park Road","parentId":"490G00009427","stationId":"490G00009427","stopLetter":"->E","topMostParentId":"490G00009427"},{"icsId":"1008265","id":"490008265E","lat":51.611574,"lon":-0.136555,"name":"Hobart Corner","parentId":"490G00008265","stationId":"490G00008265","stopLetter":"GG","topMostParentId":"490G00008265"},{"icsId":"1009852","id":"490009852E","lat":51.610238,"lon":-0.131714,"name":"Cline Road","parentId":"490G00009852","stationId":"490G00009852","stopLetter":"GH","topMostParentId":"490G00009852"},{"icsId":"1014255","id":"490014255E","lat":51.609418,"lon":-0.129336,"name":"Warwick Road","parentId":"490G00014255","stationId":"490G00014255","stopLetter":"GA","topMostParentId":"490G00014255"},{"icsId":"1000028","id":"490000028A","lat":51.60704,"lon":-0.124567,"name":"Bounds Green Station","parentId":"490G00028A","stationId":"490G00028A","stopLetter":"BA","topMostParentId":"940GZZLUBDS","zone":"3+4"},{"icsId":"1010729","id":"490010729E","lat":51.606004,"lon":-0.122804,"name":"Palace Road","parentId":"490G00010729","stationId":"490G00010729","stopLetter":"BC","topMostParentId":"490G00010729"},{"icsId":"1010277","id":"490010277E","lat":51.602167,"lon":-0.119569,"name":"Nightingale Road","parentId":"490G00010277","stationId":"490G00010277","stopLetter":"BD","topMostParentId":"490G00010277"},{"icsId":"1010753","id":"490010753E","lat":51.600365,"lon":-0.114864,"name":"Park Avenue","parentId":"490G00010753","stationId":"490G00010753","stopLetter":"BE","topMostParentId":"490G00010753"},{"icsId":"1007797","id":"490007797E","lat":51.599544,"lon":-0.112486,"name":"Haringey Civic Centre","parentId":"490G00007797","stationId":"490G00007797","stopLetter":"BF","topMostParentId":"490G00007797"},{"icsId":"1000275","id":"490000275D","lat":51.597592,"lon":-0.110185,"name":"Wood Green Station","parentId":"490G00275D","stationId":"490G00275D","stopLetter":"D","topMostParentId":"940GZZLUWOG","zone":"3"},{"icsId":"1009469","id":"490014854GB","lat":51.595593,"lon":-0.108896,"name":"Wood Green Shopping City","parentId":"490G00009469","stationId":"490G00009469","stopLetter":"GB","topMostParentId":"490G00009469"},{"icsId":"1009461","id":"490009461K","lat":51.593141,"lon":-0.106284,"name":"Brampton Park Road","parentId":"490G00009461","stationId":"490G00009461","stopLetter":"K","topMostParentId":"490G00009461"},{"icsId":"1014669","id":"490000241MA","lat":51.591089,"lon":-0.104002,"name":"Coleraine Road","parentId":"490G000835","stationId":"490G000835","stopLetter":"MA","topMostParentId":"490G000835"},{"icsId":"1000241","id":"490015475Y","lat":51.589626,"lon":-0.102475,"name":"Turnpike Lane Station","parentId":"490G00241M","stationId":"490G00241M","stopLetter":"Y","topMostParentId":"940GZZLUTPN","zone":"3"}]}]}