{"direction":"outbound","lineId":"222","lineName":"222","mode":"bus","stopPointSequences":[{"stopPoint":[{"icsId":"1000246","id":"490000246M","lat":51.546719,"lon":-0.478722,"name":"Uxbridge Station","parentId":"490G00246H","stationId":"490G00246H","stopLetter":"M","topMostParentId":"940GZZLUUXB","zone":"6"},{"icsId":"1013969","id":"490013969B","lat":51.547966,"lon":-0.481291,"name":"Uxbridge High Street","parentId":"490G00013969","stationId":"490G00013969","stopLetter":"B","topMostParentId":"490G00013969"},{"icsId":"1005845","id":"490010686Q","lat":51.545769,"lon":-0.482403,"name":"Crown Walk","parentId":"490G00005845","stationId":"490G00005845","stopLetter":"Q","topMostParentId":"490G00005845"},{"icsId":"1008257","id":"490008257S","lat":51.54297,"lon":-0.481515,"name":"Hinton Road","parentId":"490G00008257","stationId":"490G00008257","stopLetter":"V","topMostParentId":"490G00008257"},{"icsId":"1014592","id":"490014592S","lat":51.54059,"lon":-0.481767,"name":"Whitehall School","parentId":"490G00014592","stationId":"490G00014592","stopLetter":"U","topMostParentId":"490G00014592"},{"icsId":"1005688","id":"490005688S","lat":51.538318,"lon":-0.482031,"name":"Cowley Mill Road","parentId":"490G00005688","stationId":"490G00005688","stopLetter":"BU","topMostParentId":"490G00005688"},{"icsId":"1006802","id":"490006802S","lat":51.533404,"lon":-0.482367,"name":"Ferndale Crescent","parentId":"490G00006802","stationId":"490G00006802","stopLetter":"BV","topMostParentId":"490G00006802"},{"icsId":"1012611","id":"490012611S","lat":51.529846,"lon":-0.481865,"name":"Station Road","parentId":"490G00012611","stationId":"490G00012611","stopLetter":"BW","topMostParentId":"490G00012611"},{"icsId":"1003887","id":"490003887S","lat":51.525531,"lon":-0.482643,"name":"Benbow Waye","parentId":"490G00003887","stationId":"490G00003887","stopLetter":"Q","topMostParentId":"490G00003887"},{"icsId":"1010244","id":"490010244S","lat":51.522684,"lon":-0.481585,"name":"New Peachey Lane","parentId":"490G00010244","stationId":"490G00010244","stopLetter":"R","topMostParentId":"490G00010244"},{"icsId":"1010708","id":"490010708S","lat":51.519878,"lon":-0.478738,"name":"Packet Boat Lane","parentId":"490G00010708","stationId":"490G00010708","stopLetter":"S","topMostParentId":"490G00010708"},{"icsId":"1010986","id":"490010986S","lat":51.517705,"lon":-0.476922,"name":"Philpots Bridge","parentId":"490G00010986","stationId":"490G00010986","stopLetter":"T","topMostParentId":"490G00010986"},{"icsId":"1015006","id":"490006729S","lat":51.515088,"lon":-0.474112,"name":"Yiewsley Library","parentId":"490G00015006","stationId":"490G00015006","stopLetter":"W","topMostParentId":"490G00015006"},{"icsId":"1015005","id":"490015005B","lat":51.512423,"lon":-0.472486,"name":"Yiewsley High Street","parentId":"490G00015005","stationId":"490G00015005","stopLetter":"B","topMostParentId":"490G00015005"},{"icsId":"1001325","id":"490001325F","lat":51.510204,"lon":-0.47331,"name":"West Drayton Station","parentId":"490G01325Z1","stationId":"490G01325Z1","stopLetter":"F","topMostParentId":"910GWDRYTON"},{"icsId":"1006815","id":"490006815H","lat":51.508387,"lon":-0.47327,"name":"Ferrers Avenue","parentId":"490G00006815","stationId":"490G00006815","stopLetter":"H","topMostParentId":"490G00006815"},{"icsId":"1004259","id":"490004259J","lat":51.507329,"lon":-0.471475,"name":"Brandville Road","parentId":"490G00004259","stationId":"490G00004259","stopLetter":"J","topMostParentId":"490G00004259"},{"icsId":"1005291","id":"490005291S","lat":51.504779,"lon":-0.468319,"name":"Church Road","parentId":"490G00005291","stationId":"490G00005291","topMostParentId":"490G00005291"},{"icsId":"1014424","id":"490014424S","lat":51.503087,"lon":-0.466776,"name":"Porters Way","parentId":"490G00014424","stationId":"490G00014424","stopLetter":"->S","topMostParentId":"490G00014424"},{"icsId":"1009727","id":"490009727S","lat":51.499814,"lon":-0.464062,"name":"Maxwell Road","parentId":"490G00009727","stationId":"490G00009727","stopLetter":"->S","topMostParentId":"490G00009727"},{"icsId":"1005095","id":"490005095E","lat":51.498358,"lon":-0.459285,"name":"Cherry Lane School","parentId":"490G00005095","stationId":"490G00005095","stopLetter":"->E","topMostParentId":"490G00005095"},{"icsId":"1013500","id":"490013500S","lat":51.493522,"lon":-0.458108,"name":"The Plough","parentId":"490G00013500","stationId":"490G00013500","stopLetter":"->S","topMostParentId":"490G00013500"},{"icsId":"1007821","id":"490007821S","lat":51.489939,"lon":-0.457105,"name":"Harmondsworth Lane","parentId":"490G00007821","stationId":"490G00007821","stopLetter":"->S","topMostParentId":"490G00007821"},{"icsId":"1012175","id":"490012175S","lat":51.487584,"lon":-0.455802,"name":"Sipson Close","parentId":"490G00012175","stationId":"490G00012175","stopLetter":"->S","topMostParentId":"490G00012175"},{"icsId":"1012180","id":"490012177S","lat":51.485364,"lon":-0.453818,"name":"Sipson Way","parentId":"490G00012180","stationId":"490G00012180","stopLetter":"BH","topMostParentId":"490G00012180"},{"icsId":"1012176","id":"490012176E","lat":51.481325,"lon":-0.448237,"name":"Nene Road","parentId":"490G00012176","stationId":"490G00012176","stopLetter":"BJ","topMostParentId":"490G00012176"},{"icsId":"1004139","id":"490004139E","lat":51.481172,"lon":-0.444843,"name":"Bolton's Lane","parentId":"490G00004139","stationId":"490G00004139","stopLetter":"BK","topMostParentId":"490G00004139"},{"icsId":"1010251","id":"490010251G","lat":51.480971,"lon":-0.43919,"name":"New Road","parentId":"490G00010251","stationId":"490G00010251","stopLetter":"D","topMostParentId":"490G00010251"},{"icsId":"1007811","id":"490007811C","lat":51.480745,"lon":-0.433092,"name":"Harlington Corner","parentId":"490G00007811","stationId":"490G00007811","stopLetter":"E","topMostParentId":"490G00007811"},{"icsId":"1015397","id":"490015397E","lat":51.480801,"lon":-0.426523,"name":"Nobel Drive","parentId":"490G00015397","stationId":"490G00015397","stopLetter":"F","topMostParentId":"490G00015397"},{"icsId":"1010677","id":"490010677W2","lat":51.481064,"lon":-0.422626,"name":"Oxford Avenue","parentId":"490G00010677","stationId":"490G00010677","stopLetter":"CA","topMostParentId":"490G00010677"},{"icsId":"1013596","id":"490013596E","lat":51.481313,"lon":-0.419737,"name":"Craneswater","parentId":"490G00013596","stationId":"490G00013596","stopLetter":"CB","topMostParentId":"490G00013596"},{"icsId":"1005704","id":"490005704E","lat":51.480085,"lon":-0.412031,"name":"Waye Avenue","parentId":"490G00005704","stationId":"490G00005704","stopLetter":"CC","topMostParentId":"490G00005704"},{"icsId":"1013235","id":"490013235E","lat":51.479535,"lon":-0.409962,"name":"The Avenue","parentId":"490G00013235","stationId":"490G00013235","stopLetter":"CD","topMostParentId":"490G00013235"},{"icsId":"1013495","id":"490013495E","lat":51.478195,"lon":-0.405314,"name":"The Parkway","parentId":"490G00013495","stationId":"490G00013495","stopLetter":"CE","topMostParentId":"490G00013495"},{"icsId":"1011470","id":"490011470E","lat":51.477032,"lon":-0.401136,"name":"Rectory Road","parentId":"490G00011470","stationId":"490G00011470","stopLetter":"CF","topMostParentId":"490G00011470"},{"icsId":"1015462","id":"490013776E1","lat":51.475914,"lon":-0.396956,"name":"Henlys Roundabout","parentId":"490G00015462","stationId":"490G00015462","stopLetter":"CH","topMostParentId":"490G00015462"},{"icsId":"1000391","id":"490007425E","lat":51.474448,"lon":-0.39106,"name":"Great West Road / Renfrew Road","parentId":"490G000040","stationId":"490G000040","stopLetter":"M","topMostParentId":"490G000040"},{"icsId":"1000118","id":"490000118A","lat":51.472944,"lon":-0.385656,"name":"Hounslow West Station","parentId":"490G00118B","stationId":"490G00118B","stopLetter":"A","topMostParentId":"940GZZLUHWT","zone":"5"},{"icsId":"1012458","id":"490014357E","lat":51.471179,"lon":-0.380895,"name":"St Paul's Church","parentId":"490G00012458","stationId":"490G00012458","stopLetter":"E","topMostParentId":"490G00012458"},{"icsId":"1006406","id":"490006406E","lat":51.469717,"lon":-0.376584,"name":"Wellington Road North","parentId":"490G00006406","stationId":"490G00006406","stopLetter":"F","topMostParentId":"490G00006406"},{"icsId":"1012454","id":"490005431E","lat":51.468967,"lon":-0.373126,"name":"St Michael & St Martin Church","parentId":"490G00012454","stationId":"490G00012454","stopLetter":"G","topMostParentId":"490G00012454"},{"icsId":"1013259","id":"490013259V","lat":51.467293,"lon":-0.366505,"name":"The Bell","parentId":"490G00013259","stationId":"490G00013259","stopLetter":"V","topMostParentId":"490G00013259"},{"icsId":"1013777","id":"490013777P","lat":51.467281,"lon":-0.363065,"name":"Treaty Centre","parentId":"490G00013777","stationId":"490G00013777","stopLetter":"P","topMostParentId":"490G00013777"},{"icsId":"1008399","id":"490008399K","lat":51.469449,"lon":-0.358006,"name":"Hounslow High Street","parentId":"490G00008399","stationId":"490G00008399","stopLetter":"K","topMostParentId":"490G00008399"},{"icsId":"1008392","id":"490008392Z1","lat":51.470928,"lon":-0.354454,"name":"Hounslow Bus Station","parentId":"490G000601","stationId":"490G000601","stopLetter":"Z1","topMostParentId":"490G000601"}]}]}