{"direction":"outbound","lineId":"227","lineName":"227","mode":"bus","stopPointSequences":[{"stopPoint":[{"icsId":"1001036","id":"490001036E","lat":51.408189,"lon":0.016685,"name":"Bromley North Station","parentId":"490G01036EB","stationId":"490G01036EB","stopLetter":"E","topMostParentId":"910GBROMLYN"},{"icsId":"1004435","id":"4900004408P","lat":51.406046,"lon":0.016849,"name":"Bromley Town Hall","parentId":"490G00004435","stationId":"490G00004435","stopLetter":"P","topMostParentId":"490G00004435"},{"icsId":"1004409","id":"490004408Z","lat":51.406161,"lon":0.013288,"name":"High Street / Market Square","parentId":"490G00004409","stationId":"490G00004409","stopLetter":"Z","topMostParentId":"490G00004409"},{"icsId":"1004419","id":"4900004419G","lat":51.407056,"lon":0.010409,"name":"Bromley Magistrates Court","parentId":"490G00004419","stationId":"490G00004419","stopLetter":"G","topMostParentId":"490G00004419"},{"icsId":"1018960","id":"490001248A","lat":51.406387,"lon":0.003248,"name":"Meadow Road","parentId":"490G00018960","stationId":"490G00018960","stopLetter":"A","topMostParentId":"490G00018960"},{"icsId":"1012122","id":"490012122B","lat":51.406382,"lon":0.000386,"name":"Bromley Road / Shortlands Station","parentId":"490G000745","stationId":"490G000745","stopLetter":"B","topMostParentId":"490G000745"},{"icsId":"1003147","id":"490003147W","lat":51.407255,"lon":-0.004939,"name":"Albemarle Road","parentId":"490G00003147","stationId":"490G00003147","stopLetter":"K","topMostParentId":"490G00003147"},{"icsId":"1011957","id":"490011957W","lat":51.406847,"lon":-0.006841,"name":"Bromley Road / Scotts Lane","parentId":"490G00011957","stationId":"490G00011957","stopLetter":"L","topMostParentId":"490G00011957"},{"icsId":"1010510","id":"490010510W","lat":51.406216,"lon":-0.014144,"name":"Oakwood Avenue","parentId":"490G00010510","stationId":"490G00010510","stopLetter":"H","topMostParentId":"490G00010510"},{"icsId":"1014462","id":"490014462W","lat":51.40707,"lon":-0.018924,"name":"Westgate Road","parentId":"490G00014462","stationId":"490G00014462","stopLetter":"K","topMostParentId":"490G00014462"},{"icsId":"1012691","id":"490012691F","lat":51.408668,"lon":-0.024635,"name":"Bromley Road / St George's Church","parentId":"490G00012691","stationId":"490G00012691","stopLetter":"F","topMostParentId":"490G00012691"},{"icsId":"1009580","id":"490009580H","lat":51.408014,"lon":-0.02531,"name":"Manor Road","parentId":"490G00009580","stationId":"490G00009580","stopLetter":"H","topMostParentId":"490G00009580"},{"icsId":"1003740","id":"490003740K","lat":51.40673,"lon":-0.028097,"name":"Beckenham High Street / Kelsey Square","parentId":"490G00003740","stationId":"490G00003740","stopLetter":"K","topMostParentId":"490G00003740"},{"icsId":"1003744","id":"490003744R","lat":51.40673,"lon":-0.031318,"name":"Beckenham High Street / War Memorial","parentId":"490G00003744","stationId":"490G00003744","stopLetter":"R","topMostParentId":"490G00003744"},{"icsId":"1015349","id":"490015349BF","lat":51.407886,"lon":-0.03587,"name":"Hayne Road","parentId":"490G00015349","stationId":"490G00015349","stopLetter":"BP","topMostParentId":"490G00015349"},{"icsId":"1001071","id":"490001071A","lat":51.408666,"lon":-0.039489,"name":"Clock House Station","parentId":"490G01071A","stationId":"490G01071A","stopLetter":"BN","topMostParentId":"910GCLOCKHS"},{"icsId":"1002010","id":"490002010B","lat":51.409435,"lon":-0.044072,"name":"Beckenham Road Tram Stop","parentId":"490G02010B","stationId":"490G02010B","stopLetter":"BK","topMostParentId":"940GZZCRBRD"},{"icsId":"1001163","id":"490001163W","lat":51.410885,"lon":-0.047418,"name":"Kent House Station","parentId":"490G01163W","stationId":"490G01163W","stopLetter":"BL","topMostParentId":"910GKENTHOS"},{"icsId":"1005393","id":"490005393W","lat":51.411905,"lon":-0.049273,"name":"Clevedon Road","parentId":"490G00005393","stationId":"490G00005393","stopLetter":"->W","topMostParentId":"490G00005393"},{"icsId":"1010907","id":"490015420K","lat":51.412996,"lon":-0.051096,"name":"Penge / Sainsbury's","parentId":"490G00010907","stationId":"490G00010907","stopLetter":"K","topMostParentId":"490G00010907"},{"icsId":"1010905","id":"490010905E","lat":51.415728,"lon":-0.053683,"name":"High Street / Maple Road","parentId":"490G00010905","stationId":"490G00010905","stopLetter":"E","topMostParentId":"490G00010905"},{"icsId":"1009027","id":"490001225B","lat":51.417739,"lon":-0.058934,"name":"High Street / Penge West Station","parentId":"490G00009027","stationId":"490G00009027","stopLetter":"B","topMostParentId":"490G00009027"},{"icsId":"1009025","id":"490009025N","lat":51.41933,"lon":-0.061556,"name":"Thicket Road","parentId":"490G000628","stationId":"490G000628","stopLetter":"P","topMostParentId":"490G000628"},{"icsId":"1013126","id":"490013126N","lat":51.423381,"lon":-0.064002,"name":"Sydenham Avenue","parentId":"490G00013126","stationId":"490G00013126","stopLetter":"Q","topMostParentId":"490G00013126"},{"icsId":"1019799","id":"490014535W","lat":51.425641,"lon":-0.069114,"name":"Crystal Palace Park Road / Westwood Hill","parentId":"490G00019799","stationId":"490G00019799","stopLetter":"R","topMostParentId":"490G00019799"},{"icsId":"1006963","id":"490006963S","lat":51.425255,"lon":-0.075128,"name":"Crystal Palace Parade / Fountain Drive","parentId":"490G00006963","stationId":"490G00006963","stopLetter":"T","topMostParentId":"490G00006963"},{"icsId":"1005494","id":"490005494S2","lat":51.4232,"lon":-0.076509,"name":"Crystal Palace Parade / College Road","parentId":"490G00005494","stationId":"490G00005494","stopLetter":"S","topMostParentId":"490G00005494"},{"icsId":"1005869","id":"490005869S3","lat":51.421706,"lon":-0.077507,"name":"Crystal Palace","parentId":"490G00005869","stationId":"490G00005869","topMostParentId":"490G00005869"}]}]}