{"direction":"outbound","lineId":"24","lineName":"24","mode":"bus","stopPointSequences":[{"stopPoint":[{"icsId":"1015832","id":"490015832E","lat":51.485519,"lon":-0.143471,"name":"Grosvenor Road","parentId":"490G00015832","stationId":"490G00015832","stopLetter":"CM","topMostParentId":"490G00015832"},{"icsId":"1015832","id":"490011003E","lat":51.485209,"lon":-0.141495,"name":"Grosvenor Road","parentId":"490G00015832","stationId":"490G00015832","stopLetter":"CP","topMostParentId":"490G00015832"},{"icsId":"1005367","id":"490005367N","lat":51.486022,"lon":-0.137746,"name":"Claverton Street / Churchill Gardens","parentId":"490G00005367","stationId":"490G00005367","stopLetter":"A","topMostParentId":"490G00005367"},{"icsId":"1011004","id":"490011004N","lat":51.487643,"lon":-0.138429,"name":"Pimlico Academy & Library","parentId":"490G00011004","stationId":"490G00011004","stopLetter":"B","topMostParentId":"490G00011004"},{"icsId":"1012708","id":"490012708F","lat":51.488944,"lon":-0.135438,"name":"St George's Square / Pimlico Station","parentId":"490G00012708","stationId":"490G00012708","stopLetter":"F","topMostParentId":"490G00012708"},{"icsId":"1003837","id":"490003837N","lat":51.490488,"lon":-0.138659,"name":"Belgrave Road","parentId":"490G00003837","stationId":"490G00003837","stopLetter":"S","topMostParentId":"490G00003837"},{"icsId":"1014259","id":"490014259N","lat":51.493539,"lon":-0.141647,"name":"Warwick Way","parentId":"490G00014259","stationId":"490G00014259","stopLetter":"T","topMostParentId":"490G00014259"},{"icsId":"1000248","id":"490000248J","lat":51.494831,"lon":-0.142588,"name":"Victoria Station","parentId":"490G00248J","stationId":"490G00248J","stopLetter":"J","topMostParentId":"HUBVIC","zone":"1"},{"icsId":"1014496","id":"490014496N","lat":51.496835,"lon":-0.140259,"name":"Westminster Cathedral","parentId":"490G00014496","stationId":"490G00014496","stopLetter":"N","topMostParentId":"490G00014496"},{"icsId":"1003384","id":"490003384SA","lat":51.497425,"lon":-0.136633,"name":"Westminster City Hall","parentId":"490G000394","stationId":"490G000394","stopLetter":"SA","topMostParentId":"490G000394"},{"icsId":"1000221","id":"490010260SC","lat":51.497727,"lon":-0.13469,"name":"St James's Park Station","parentId":"490G00221V","stationId":"490G00221V","stopLetter":"SC","topMostParentId":"940GZZLUSJP","zone":"1"},{"icsId":"1014495","id":"490014495R","lat":51.499035,"lon":-0.130992,"name":"Westminster Abbey","parentId":"490G000828","stationId":"490G000828","stopLetter":"R","topMostParentId":"490G000828"},{"icsId":"1015048","id":"490015048C","lat":51.501569,"lon":-0.126407,"name":"Westminster Stn  / Parliament Square","parentId":"490G000852","stationId":"490G000852","stopLetter":"C","topMostParentId":"HUBWSM"},{"icsId":"1008376","id":"490008376N","lat":51.504051,"lon":-0.126406,"name":"Horse Guards Parade","parentId":"490G00008376","stationId":"490G00008376","stopLetter":"->N","topMostParentId":"490G00008376"},{"icsId":"1013767","id":"490013767C","lat":51.508123,"lon":-0.127406,"name":"Trafalgar Sq / Charing Cross Stn","parentId":"490G000804","stationId":"490G000804","stopLetter":"C","topMostParentId":"490G000804"},{"icsId":"1000135","id":"490000135A","lat":51.51055,"lon":-0.128474,"name":"Leicester Square Station","parentId":"490G00135B","stationId":"490G00135B","stopLetter":"L","topMostParentId":"940GZZLULSQ","zone":"1"},{"icsId":"1004695","id":"490004695N","lat":51.512514,"lon":-0.128711,"name":"Cambridge Circus","parentId":"490G00004695","stationId":"490G00004695","stopLetter":"M","topMostParentId":"490G00004695"},{"icsId":"1019157","id":"490004695A","lat":51.514339,"lon":-0.129803,"name":"Denmark Street","parentId":"490G00019157","stationId":"490G00019157","stopLetter":"A","topMostParentId":"490G00019157"},{"icsId":"1000235","id":"490000235C","lat":51.517676,"lon":-0.131541,"name":"Tottenham Court Road Station","parentId":"490G00235C","stationId":"490G00235C","stopLetter":"C","topMostParentId":"940GZZLUTCR","zone":"1"},{"icsId":"1000089","id":"490000089A","lat":51.521131,"lon":-0.135046,"name":"Goodge Street Station","parentId":"490G00089B","stationId":"490G00089B","stopLetter":"A","topMostParentId":"940GZZLUGDG","zone":"1"},{"icsId":"1000252","id":"490000252X","lat":51.524113,"lon":-0.137649,"name":"Warren Street Station","parentId":"490G00252X","stationId":"490G00252X","stopLetter":"X","topMostParentId":"940GZZLUWRR","zone":"1"},{"icsId":"1015042","id":"490000252S","lat":51.525946,"lon":-0.138684,"name":"Hampstead Road / Drummond Street","parentId":"490G000850","stationId":"490G000850","stopLetter":"S","topMostParentId":"490G000850"},{"icsId":"1010158","id":"490010158N","lat":51.527376,"lon":-0.138741,"name":"Robert Street","parentId":"490G00010158","stationId":"490G00010158","stopLetter":"J","topMostParentId":"490G00010158"},{"icsId":"1012158","id":"490012158N","lat":51.530796,"lon":-0.138919,"name":"Silverdale","parentId":"490G00012158","stationId":"490G00012158","stopLetter":"B","topMostParentId":"490G00012158"},{"icsId":"1000152","id":"490000152A","lat":51.534031,"lon":-0.13932,"name":"Mornington Crescent Station","parentId":"490G00152G","stationId":"490G00152G","stopLetter":"A","topMostParentId":"940GZZLUMTC","zone":"2"},{"icsId":"1004714","id":"490004714J","lat":51.536515,"lon":-0.140574,"name":"Camden High Street","parentId":"490G000437","stationId":"490G000437","stopLetter":"J","topMostParentId":"490G000437"},{"icsId":"1000036","id":"490015041X","lat":51.538314,"lon":-0.142318,"name":"Camden Town Station","parentId":"490G00036N","stationId":"490G00036N","stopLetter":"X","topMostParentId":"940GZZLUCTN","zone":"2"},{"icsId":"1007876","id":"490007876O","lat":51.54229,"lon":-0.146929,"name":"Hartland Road / Camden Market","parentId":"490G00007876","stationId":"490G00007876","stopLetter":"CQ","topMostParentId":"490G00007876"},{"icsId":"1006798","id":"490006798CK","lat":51.54427,"lon":-0.149315,"name":"Ferdinand Street","parentId":"490G00006798","stationId":"490G00006798","stopLetter":"CK","topMostParentId":"490G00006798"},{"icsId":"1011200","id":"490011200N","lat":51.545513,"lon":-0.150029,"name":"Prince Of Wales Road","parentId":"490G00011200","stationId":"490G00011200","stopLetter":"KS","topMostParentId":"490G00011200"},{"icsId":"1012765","id":"490012765N","lat":51.546531,"lon":-0.151286,"name":"Malden Road","parentId":"490G00012765","stationId":"490G00012765","stopLetter":"KT","topMostParentId":"490G00012765"},{"icsId":"1011330","id":"490011330N","lat":51.548514,"lon":-0.152705,"name":"Queen's Crescent","parentId":"490G00011330","stationId":"490G00011330","stopLetter":"KZ","topMostParentId":"490G00011330"},{"icsId":"1012651","id":"490012651N","lat":51.550755,"lon":-0.156278,"name":"St Dominic's Priory","parentId":"490G00012651","stationId":"490G00012651","stopLetter":"GD","topMostParentId":"490G00012651"},{"icsId":"1009204","id":"490009616N","lat":51.552343,"lon":-0.157743,"name":"Mansfield Road","parentId":"490G00009204","stationId":"490G00009204","stopLetter":"GT","topMostParentId":"490G00009204"},{"icsId":"1009017","id":"490009017N","lat":51.553274,"lon":-0.160908,"name":"Lawn Road","parentId":"490G00009017","stationId":"490G00009017","stopLetter":"GU","topMostParentId":"490G00009017"},{"icsId":"1011760","id":"490011760W","lat":51.55399,"lon":-0.16473,"name":"Royal Free Hospital","parentId":"490G000732","stationId":"490G000732","stopLetter":"Z","topMostParentId":"490G000732"}]}]}