{"direction":"outbound","lineId":"244","lineName":"244","mode":"bus","stopPointSequences":[{"stopPoint":[{"icsId":"1011307","id":"490011309Z","lat":51.47626,"lon":0.050114,"name":"Queen Elizabeth Hospital / West Entrance","parentId":"490G00011307","stationId":"490G00011307","stopLetter":"H4","topMostParentId":"490G00011307"},{"icsId":"1007509","id":"490007509S","lat":51.474599,"lon":0.047938,"name":"Greenwich Heights","parentId":"490G00007509","stationId":"490G00007509","stopLetter":"H6","topMostParentId":"490G00007509"},{"icsId":"1004460","id":"490004460E","lat":51.472313,"lon":0.049059,"name":"Shooters Hill Road / Baker Road","parentId":"490G00004460","stationId":"490G00004460","stopLetter":"SB","topMostParentId":"490G00004460"},{"icsId":"1012108","id":"490012108E","lat":51.471706,"lon":0.052401,"name":"Shooters Hill Road / Academy Road","parentId":"490G00012108","stationId":"490G00012108","stopLetter":"SC","topMostParentId":"490G00012108"},{"icsId":"1011486","id":"490011486E","lat":51.470703,"lon":0.057814,"name":"Red Lion Lane","parentId":"490G00011486","stationId":"490G00011486","stopLetter":"SD","topMostParentId":"490G00011486"},{"icsId":"1009805","id":"490009803E","lat":51.469396,"lon":0.065631,"name":"Memorial Hospital","parentId":"490G00009805","stationId":"490G00009805","stopLetter":"SE","topMostParentId":"490G00009805"},{"icsId":"1006970","id":"490006969N","lat":51.471924,"lon":0.068668,"name":"Shrewsbury Lane / Occupation Lane","parentId":"490G00006970","stationId":"490G00006970","stopLetter":"WE","topMostParentId":"490G00006970"},{"icsId":"1012107","id":"490012107N","lat":51.474317,"lon":0.069612,"name":"Eaglesfield Road","parentId":"490G00012107","stationId":"490G00012107","stopLetter":"->N","topMostParentId":"490G00012107"},{"icsId":"1004299","id":"490004299N","lat":51.475846,"lon":0.068557,"name":"Brent Road","parentId":"490G00004299","stationId":"490G00004299","stopLetter":"->N","topMostParentId":"490G00004299"},{"icsId":"1013452","id":"490013452N","lat":51.479232,"lon":0.068826,"name":"Eglinton Road","parentId":"490G00013452","stationId":"490G00013452","stopLetter":"WG","topMostParentId":"490G00013452"},{"icsId":"1011074","id":"490011074N","lat":51.481305,"lon":0.069597,"name":"Herbert Road / Plumstead Common Road","parentId":"490G00011074","stationId":"490G00011074","stopLetter":"WH","topMostParentId":"490G00011074"},{"icsId":"1010281","id":"490010281W","lat":51.482207,"lon":0.066872,"name":"Nightingale Vale","parentId":"490G00010281","stationId":"490G00010281","stopLetter":"P","topMostParentId":"490G00010281"},{"icsId":"1020088","id":"490014926W","lat":51.482368,"lon":0.06338,"name":"Woolwich Common / Ha Ha Road","parentId":"490G00020088","stationId":"490G00020088","stopLetter":"R","topMostParentId":"490G00020088"},{"icsId":"1007601","id":"490010273N","lat":51.483012,"lon":0.062012,"name":"Gunner Lane","parentId":"490G00007601","stationId":"490G00007601","stopLetter":"C","topMostParentId":"490G00007601"},{"icsId":"1010145","id":"490010145N","lat":51.486376,"lon":0.062984,"name":"Naafi Messing Store","parentId":"490G00010145","stationId":"490G00010145","stopLetter":"D","topMostParentId":"490G00010145"},{"icsId":"1001344","id":"490001344N2","lat":51.489933,"lon":0.068331,"name":"Woolwich Arsenal Station","parentId":"490G01344G","stationId":"490G01344G","stopLetter":"Q","topMostParentId":"HUBWWA"},{"icsId":"1014934","id":"490014934E","lat":51.491399,"lon":0.071379,"name":"Plumstead Road / Woolwich Public Market","parentId":"490G00014934","stationId":"490G00014934","stopLetter":"K","topMostParentId":"490G00014934"},{"icsId":"1009723","id":"490009723E","lat":51.49117,"lon":0.077232,"name":"Maxey Road","parentId":"490G00009723","stationId":"490G00009723","stopLetter":"->E","topMostParentId":"490G00009723"},{"icsId":"1011069","id":"490011069N","lat":51.491428,"lon":0.082444,"name":"Plumstead Bus Garage","parentId":"490G00011069","stationId":"490G00011069","stopLetter":"WW","topMostParentId":"490G00011069"},{"icsId":"1013703","id":"490013703N","lat":51.492706,"lon":0.079866,"name":"Tom Cribb Road","parentId":"490G00013703","stationId":"490G00013703","stopLetter":"S","topMostParentId":"490G00013703"},{"icsId":"1004816","id":"490004816N","lat":51.494242,"lon":0.080944,"name":"Carronade Place","parentId":"490G00004816","stationId":"490G00004816","topMostParentId":"490G00004816"},{"icsId":"1008098","id":"490008098N","lat":51.494294,"lon":0.083597,"name":"Heronsgate Primary School","parentId":"490G00008098","stationId":"490G00008098","stopLetter":"->N","topMostParentId":"490G00008098"},{"icsId":"1014663","id":"490014663N","lat":51.496049,"lon":0.084023,"name":"Wigeon Path","parentId":"490G00014663","stationId":"490G00014663","stopLetter":"->N","topMostParentId":"490G00014663"},{"icsId":"1007091","id":"490007091N","lat":51.498454,"lon":0.08432,"name":"Gallions Park","parentId":"490G00007091","stationId":"490G00007091","stopLetter":"->N","topMostParentId":"490G00007091"},{"icsId":"1011572","id":"490011572N","lat":51.499932,"lon":0.084661,"name":"Ridge Close","parentId":"490G00011572","stationId":"490G00011572","stopLetter":"->N","topMostParentId":"490G00011572"},{"icsId":"1004119","id":"490004119E","lat":51.500262,"lon":0.086305,"name":"Bluebird Way","parentId":"490G00004119","stationId":"490G00004119","stopLetter":"->E","topMostParentId":"490G00004119"},{"icsId":"1009807","id":"490009807S","lat":51.499705,"lon":0.088325,"name":"Merbury Road","parentId":"490G00009807","stationId":"490G00009807","stopLetter":"D","topMostParentId":"490G00009807"},{"icsId":"1003692","id":"490003692S","lat":51.49838,"lon":0.088956,"name":"Goldfinch Road","parentId":"490G00003692","stationId":"490G00003692","stopLetter":"E","topMostParentId":"490G00003692"},{"icsId":"1019029","id":"490003857E","lat":51.49805,"lon":0.08982,"name":"Princess Alice","parentId":"490G00019029","stationId":"490G00019029","stopLetter":"F","topMostParentId":"490G00019029"}]},{"stopPoint":[{"icsId":"1019029","id":"490003857E","lat":51.49805,"lon":0.08982,"name":"Princess Alice","parentId":"490G00019029","stationId":"490G00019029","stopLetter":"F","topMostParentId":"490G00019029"},{"icsId":"1003857","id":"490003857W","lat":51.497303,"lon":0.089872,"name":"Belmarsh Prison","parentId":"490G00003857","stationId":"490G00003857","stopLetter":"G","topMostParentId":"490G00003857"},{"icsId":"1019029","id":"490003857E","lat":51.49805,"lon":0.08982,"name":"Princess Alice","parentId":"490G00019029","stationId":"490G00019029","stopLetter":"F","topMostParentId":"490G00019029"}]},{"stopPoint":[{"icsId":"1019029","id":"490003857E","lat":51.49805,"lon":0.08982,"name":"Princess Alice","parentId":"490G00019029","stationId":"490G00019029","stopLetter":"F","topMostParentId":"490G00019029"},{"icsId":"1007382","id":"490007382N","lat":51.502368,"lon":0.102856,"name":"Grasshaven Way","parentId":"490G00007382","stationId":"490G00007382","stopLetter":"Y","topMostParentId":"490G00007382"},{"icsId":"1014285","id":"490014285N","lat":51.505131,"lon":0.104712,"name":"Watersmeet Place","parentId":"490G00014285","stationId":"490G00014285","stopLetter":"->N","topMostParentId":"490G00014285"},{"icsId":"1016617","id":"490013214B","lat":51.505977,"lon":0.106711,"name":"Central Way / Thamesmead Town Centre","parentId":"490G00016617","stationId":"490G00016617","stopLetter":"B","topMostParentId":"490G00016617"},{"icsId":"1007092","id":"490007092G","lat":51.505902,"lon":0.110829,"name":"Gallions Reach Health Centre","parentId":"490G00007092","stationId":"490G00007092","stopLetter":"G","topMostParentId":"490G00007092"},{"icsId":"1007923","id":"490007923S","lat":51.503883,"lon":0.111615,"name":"Hawksmoor School","parentId":"490G00007923","stationId":"490G00007923","stopLetter":"SA","topMostParentId":"490G00007923"},{"icsId":"1012364","id":"490012364S","lat":51.50227,"lon":0.112808,"name":"Southwood Road","parentId":"490G00012364","stationId":"490G00012364","stopLetter":"SB","topMostParentId":"490G00012364"},{"icsId":"1013459","id":"490013459E","lat":51.503668,"lon":0.117556,"name":"Titmuss Avenue","parentId":"490G00013459","stationId":"490G00013459","stopLetter":"SC","topMostParentId":"490G00013459"},{"icsId":"1004130","id":"490004130S","lat":51.503737,"lon":0.119202,"name":"Carlyle Road / Crossway","parentId":"490G00004130","stationId":"490G00004130","stopLetter":"SJ","topMostParentId":"490G00004130"},{"icsId":"1010190","id":"490010190S","lat":51.497482,"lon":0.121476,"name":"Newacres Library","parentId":"490G00010190","stationId":"490G00010190","stopLetter":"->S","topMostParentId":"490G00010190"},{"icsId":"1013257","id":"490013257B","lat":51.49523,"lon":0.121199,"name":"Harrow Manorway / Yarnton Way","parentId":"490G00013257","stationId":"490G00013257","stopLetter":"B","topMostParentId":"490G00013257"},{"icsId":"1010675","id":"490010675BA","lat":51.493486,"lon":0.121175,"name":"Overton Road","parentId":"490G00010675","stationId":"490G00010675","stopLetter":"BA","topMostParentId":"490G00010675"},{"icsId":"1019855","id":"490001001D","lat":51.490915,"lon":0.122093,"name":"Harrow Manorway / Abbey Wood Station","parentId":"490G000957","stationId":"490G000957","stopLetter":"D","topMostParentId":"490G000957"},{"icsId":"1003039","id":"490003039E","lat":51.48934,"lon":0.121184,"name":"Abbey Wood Road","parentId":"490G000378","stationId":"490G000378","stopLetter":"E","topMostParentId":"490G000378"}]}]}