{"direction":"outbound","lineId":"252","lineName":"252","mode":"bus","stopPointSequences":[{"stopPoint":[{"icsId":"1005444","id":"490005438A","lat":51.598742,"lon":0.161324,"name":"Collier Row Library","parentId":"490G00005444","stationId":"490G00005444","stopLetter":"ET","topMostParentId":"490G00005444"},{"icsId":"1009801","id":"490009801W","lat":51.598287,"lon":0.159194,"name":"Melville Road","parentId":"490G00009801","stationId":"490G00009801","stopLetter":"WH","topMostParentId":"490G00009801"},{"icsId":"1014595","id":"490014594S","lat":51.596332,"lon":0.155911,"name":"Collier Row Road","parentId":"490G00014595","stationId":"490G00014595","stopLetter":"WJ","topMostParentId":"490G00014595"},{"icsId":"1008411","id":"490008411S","lat":51.594263,"lon":0.155986,"name":"Howe Close","parentId":"490G00008411","stationId":"490G00008411","stopLetter":"WK","topMostParentId":"490G00008411"},{"icsId":"1013995","id":"490013995S","lat":51.592712,"lon":0.156692,"name":"Valiant Close","parentId":"490G00013995","stationId":"490G00013995","stopLetter":"WL","topMostParentId":"490G00013995"},{"icsId":"1005814","id":"490005814E","lat":51.590424,"lon":0.159861,"name":"Cross Road","parentId":"490G00005814","stationId":"490G00005814","stopLetter":"A","topMostParentId":"490G00005814"},{"icsId":"1010936","id":"490010936S","lat":51.588786,"lon":0.161386,"name":"Percy Road","parentId":"490G00010936","stationId":"490G00010936","stopLetter":"B","topMostParentId":"490G00010936"},{"icsId":"1004010","id":"490004010S","lat":51.586607,"lon":0.162524,"name":"Birch Road","parentId":"490G00004010","stationId":"490G00004010","stopLetter":"C","topMostParentId":"490G00004010"},{"icsId":"1013045","id":"490013045S","lat":51.584709,"lon":0.163502,"name":"Susan Close","parentId":"490G00013045","stationId":"490G00013045","stopLetter":"D","topMostParentId":"490G00013045"},{"icsId":"1009720","id":"490006340S","lat":51.58233,"lon":0.164717,"name":"Eastern Avenue","parentId":"490G00009720","stationId":"490G00009720","stopLetter":"E","topMostParentId":"490G00009720"},{"icsId":"1010507","id":"490010507S","lat":51.579975,"lon":0.168588,"name":"Oak Street","parentId":"490G00010507","stationId":"490G00010507","stopLetter":"F","topMostParentId":"490G00010507"},{"icsId":"1005096","id":"490005529S","lat":51.578716,"lon":0.17296,"name":"Como Street","parentId":"490G00005096","stationId":"490G00005096","stopLetter":"G","topMostParentId":"490G00005096"},{"icsId":"1010407","id":"490010407C","lat":51.579486,"lon":0.177528,"name":"North Street","parentId":"490G00010407","stationId":"490G00010407","stopLetter":"C","topMostParentId":"490G00010407"},{"icsId":"1011659","id":"490011659G","lat":51.580596,"lon":0.183095,"name":"Romford Market","parentId":"490G00011659","stationId":"490G00011659","stopLetter":"G","topMostParentId":"490G00011659"},{"icsId":"1009810","id":"490009810M","lat":51.579466,"lon":0.18486,"name":"Mercury Gardens","parentId":"490G00009810","stationId":"490G00009810","stopLetter":"M","topMostParentId":"490G00009810"},{"icsId":"1014452","id":"490014452Q","lat":51.577133,"lon":0.184084,"name":"Western Road","parentId":"490G00014452","stationId":"490G00014452","stopLetter":"Q","topMostParentId":"490G00014452"},{"icsId":"1001243","id":"490001243Y","lat":51.573602,"lon":0.183929,"name":"Romford Station","parentId":"490G01243W","stationId":"490G01243W","stopLetter":"Y","topMostParentId":"910GROMFORD"},{"icsId":"1013654","id":"490013654S","lat":51.571419,"lon":0.184762,"name":"Thurloe Gardens","parentId":"490G00013654","stationId":"490G00013654","stopLetter":"C","topMostParentId":"490G00013654"},{"icsId":"1013483","id":"490013483S","lat":51.570336,"lon":0.186442,"name":"Brentwood Road","parentId":"490G00013483","stationId":"490G00013483","stopLetter":"D","topMostParentId":"490G00013483"},{"icsId":"1005450","id":"490005450S","lat":51.567318,"lon":0.186701,"name":"Clydesdale Road","parentId":"490G00005450","stationId":"490G00005450","stopLetter":"RZ","topMostParentId":"490G00005450"},{"icsId":"1011669","id":"490011669E","lat":51.56557,"lon":0.187397,"name":"Roneo Corner","parentId":"490G00011669","stationId":"490G00011669","stopLetter":"RA","topMostParentId":"490G00011669"},{"icsId":"1007930","id":"490007930S","lat":51.564217,"lon":0.188573,"name":"Hayburn Way","parentId":"490G00007930","stationId":"490G00007930","stopLetter":"RH","topMostParentId":"490G00007930"},{"icsId":"1007302","id":"490007302S","lat":51.560775,"lon":0.188956,"name":"Gordon Avenue","parentId":"490G00007302","stationId":"490G00007302","stopLetter":"RJ","topMostParentId":"490G00007302"},{"icsId":"1005142","id":"490005142S","lat":51.55853,"lon":0.188285,"name":"Chestnut Avenue","parentId":"490G00005142","stationId":"490G00005142","stopLetter":"RK","topMostParentId":"490G00005142"},{"icsId":"1008892","id":"490008892S","lat":51.556205,"lon":0.189515,"name":"Laburnum Avenue","parentId":"490G00008892","stationId":"490G00008892","stopLetter":"RL","topMostParentId":"490G00008892"},{"icsId":"1007852","id":"490007852S","lat":51.551944,"lon":0.19084,"name":"Harrow Lodge Park","parentId":"490G00007852","stationId":"490G00007852","stopLetter":"RM","topMostParentId":"490G00007852"},{"icsId":"1004781","id":"490014235E","lat":51.550862,"lon":0.192922,"name":"Carfax Road","parentId":"490G00004781","stationId":"490G00004781","stopLetter":"J","topMostParentId":"490G00004781"},{"icsId":"1019820","id":"490013471D","lat":51.550814,"lon":0.197897,"name":"Woburn Avenue","parentId":"490G00019820","stationId":"490G00019820","stopLetter":"K","topMostParentId":"490G00019820"},{"icsId":"1000074","id":"490000074A","lat":51.549515,"lon":0.199579,"name":"Elm Park Station","parentId":"490G00074A","stationId":"490G00074A","stopLetter":"M","topMostParentId":"940GZZLUEPK","zone":"6"},{"icsId":"1003354","id":"490003354S","lat":51.547148,"lon":0.200619,"name":"Arbour Way","parentId":"490G00003354","stationId":"490G00003354","stopLetter":"N","topMostParentId":"490G00003354"},{"icsId":"1004675","id":"490004675E","lat":51.545821,"lon":0.202329,"name":"Calbourne Avenue","parentId":"490G00004675","stationId":"490G00004675","stopLetter":"P","topMostParentId":"490G00004675"},{"icsId":"1014870","id":"490014870S","lat":51.543332,"lon":0.202685,"name":"Wood Lane","parentId":"490G00014870","stationId":"490G00014870","stopLetter":"H","topMostParentId":"490G00014870"},{"icsId":"1013382","id":"490013382S","lat":51.540521,"lon":0.202506,"name":"Heron Flight Avenue","parentId":"490G00013382","stationId":"490G00013382","stopLetter":"J","topMostParentId":"490G00013382"},{"icsId":"1006156","id":"490006156E","lat":51.53876,"lon":0.202421,"name":"Dowding Way","parentId":"490G00006156","stationId":"490G00006156","stopLetter":"K","topMostParentId":"490G00006156"},{"icsId":"1007325","id":"490007325N","lat":51.54056,"lon":0.205695,"name":"Gosport Drive","parentId":"490G00007325","stationId":"490G00007325","stopLetter":"L","topMostParentId":"490G00007325"},{"icsId":"1003129","id":"490003129E","lat":51.543561,"lon":0.209171,"name":"Sarre Avenue","parentId":"490G00003129","stationId":"490G00003129","stopLetter":"M","topMostParentId":"490G00003129"},{"icsId":"1008346","id":"490008346N","lat":51.544082,"lon":0.214461,"name":"Hornchurch Country Park","parentId":"490G00008346","stationId":"490G00008346","stopLetter":"N","topMostParentId":"490G00008346"},{"icsId":"1009943","id":"490009943N","lat":51.545761,"lon":0.215538,"name":"Miramar Way","parentId":"490G00009943","stationId":"490G00009943","stopLetter":"C","topMostParentId":"490G00009943"},{"icsId":"1012695","id":"490012695N","lat":51.547839,"lon":0.216937,"name":"St George's Hospital","parentId":"490G00012695","stationId":"490G00012695","stopLetter":"D","topMostParentId":"490G00012695"},{"icsId":"1014015","id":"490014015N","lat":51.550495,"lon":0.218177,"name":"Vaughan Avenue","parentId":"490G00014015","stationId":"490G00014015","stopLetter":"E","topMostParentId":"490G00014015"},{"icsId":"1000115","id":"490000115L","lat":51.554545,"lon":0.21947,"name":"Hornchurch Station","parentId":"490G00115L","stationId":"490G00115L","stopLetter":"L","topMostParentId":"940GZZLUHCH","zone":"6"},{"icsId":"1006068","id":"490006068H","lat":51.558323,"lon":0.220332,"name":"Devonshire Road","parentId":"490G00006068","stationId":"490G00006068","stopLetter":"H","topMostParentId":"490G00006068"},{"icsId":"1015350","id":"490013249N","lat":51.561383,"lon":0.220683,"name":"Hornchurch Town Centre","parentId":"490G00015350","stationId":"490G00015350","topMostParentId":"490G00015350"}]}]}