{"direction":"outbound","lineId":"253","lineName":"253","mode":"bus","stopPointSequences":[{"stopPoint":[{"icsId":"1001127","id":"490001127J","lat":51.547881,"lon":-0.056789,"name":"Hackney Central Station","parentId":"490G01127JA","stationId":"490G01127JA","stopLetter":"J","topMostParentId":"910GHACKNYC"},{"icsId":"1019876","id":"490001128L","lat":51.548655,"lon":-0.058415,"name":"Amhurst Road / Hackney Downs Station","parentId":"490G000961","stationId":"490G000961","stopLetter":"L","topMostParentId":"490G000961"},{"icsId":"1010151","id":"490010151R","lat":51.549577,"lon":-0.055433,"name":"Mare Street / Narrow Way","parentId":"490G00010151","stationId":"490G00010151","stopLetter":"R","topMostParentId":"490G00010151"},{"icsId":"1007619","id":"490007619U","lat":51.550958,"lon":-0.052504,"name":"Hackney Baths","parentId":"490G00007619","stationId":"490G00007619","stopLetter":"U","topMostParentId":"490G00007619"},{"icsId":"1007220","id":"490007220Z","lat":51.551807,"lon":-0.052179,"name":"Glenarm Road","parentId":"490G00007220","stationId":"490G00007220","stopLetter":"Z","topMostParentId":"490G00007220"},{"icsId":"1009195","id":"490009195N","lat":51.553492,"lon":-0.053463,"name":"Clapton Girls' Academy","parentId":"490G00009195","stationId":"490G00009195","stopLetter":"L","topMostParentId":"490G00009195"},{"icsId":"1005340","id":"490005340H","lat":51.555559,"lon":-0.055048,"name":"Clapton Pond","parentId":"490G00005340","stationId":"490G00005340","stopLetter":"H","topMostParentId":"490G00005340"},{"icsId":"1009035","id":"490009035M","lat":51.557554,"lon":-0.05603,"name":"Lea Bridge Roundabout","parentId":"490G00009035","stationId":"490G00009035","stopLetter":"M","topMostParentId":"490G00009035"},{"icsId":"1004451","id":"490004451O","lat":51.559775,"lon":-0.056585,"name":"Upper Clapton Road / Brooke Road","parentId":"490G00004451","stationId":"490G00004451","stopLetter":"O","topMostParentId":"490G00004451"},{"icsId":"1001070","id":"490001070N","lat":51.561795,"lon":-0.057465,"name":"Clapton Station","parentId":"490G01070N","stationId":"490G01070N","stopLetter":"P","topMostParentId":"910GCLAPTON"},{"icsId":"1011710","id":"490011710N","lat":51.563929,"lon":-0.05925,"name":"Rossington Street","parentId":"490G00011710","stationId":"490G00011710","stopLetter":"UE","topMostParentId":"490G00011710"},{"icsId":"1004900","id":"490004900N","lat":51.565826,"lon":-0.060309,"name":"Cazenove Road","parentId":"490G00004900","stationId":"490G00004900","stopLetter":"UF","topMostParentId":"490G00004900"},{"icsId":"1006833","id":"490007176N","lat":51.567164,"lon":-0.060772,"name":"Jessam Avenue","parentId":"490G00006833","stationId":"490G00006833","stopLetter":"UH","topMostParentId":"490G00006833"},{"icsId":"1010648","id":"490010645N","lat":51.568795,"lon":-0.062015,"name":"Forburg Road","parentId":"490G00010648","stationId":"490G00010648","stopLetter":"UJ","topMostParentId":"490G00010648"},{"icsId":"1005339","id":"490005339N","lat":51.57127,"lon":-0.065965,"name":"Clapton Common","parentId":"490G00005339","stationId":"490G00005339","stopLetter":"CU","topMostParentId":"490G00005339"},{"icsId":"1012524","id":"490012524H","lat":51.573081,"lon":-0.071632,"name":"Stamford Hill Broadway","parentId":"490G00012524","stationId":"490G00012524","stopLetter":"CV","topMostParentId":"490G00012524"},{"icsId":"1012529","id":"490012524C","lat":51.573793,"lon":-0.074488,"name":"Amhurst Park / Stamford Lodge","parentId":"490G00012529","stationId":"490G00012529","stopLetter":"CW","topMostParentId":"490G00012529"},{"icsId":"1001265","id":"490001265B","lat":51.57432,"lon":-0.077034,"name":"Stamford Hill Station","parentId":"490G01265B","stationId":"490G01265B","stopLetter":"CX","topMostParentId":"910GSTMFDHL"},{"icsId":"1005718","id":"490005718W","lat":51.574769,"lon":-0.081403,"name":"Cranwich Road","parentId":"490G00005718","stationId":"490G00005718","stopLetter":"CY","topMostParentId":"490G00005718"},{"icsId":"1003304","id":"490003304W","lat":51.5746,"lon":-0.084224,"name":"Bethune Road","parentId":"490G00003304","stationId":"490G00003304","stopLetter":"W","topMostParentId":"490G00003304"},{"icsId":"1003306","id":"490003306W","lat":51.573555,"lon":-0.087414,"name":"Seven Sisters Road / Amhurst Park","parentId":"490G00003306","stationId":"490G00003306","stopLetter":"U","topMostParentId":"490G00003306"},{"icsId":"1014812","id":"490014812W","lat":51.572137,"lon":-0.091485,"name":"Woodberry Grove","parentId":"490G00014812","stationId":"490G00014812","stopLetter":"V","topMostParentId":"490G00014812"},{"icsId":"1000142","id":"490000142H","lat":51.571246,"lon":-0.094192,"name":"Manor House Station","parentId":"490G00142G","stationId":"490G00142G","stopLetter":"H","topMostParentId":"940GZZLUMRH","zone":"2+3"},{"icsId":"1020010","id":"490015076L","lat":51.569828,"lon":-0.097123,"name":"Portland Rise","parentId":"490G00020010","stationId":"490G00020010","stopLetter":"R","topMostParentId":"490G00020010"},{"icsId":"1003208","id":"490003208S","lat":51.567379,"lon":-0.100255,"name":"Alexandra Grove","parentId":"490G00003208","stationId":"490G00003208","stopLetter":"P","topMostParentId":"490G00003208"},{"icsId":"1015078","id":"490015078M","lat":51.565251,"lon":-0.103244,"name":"Finsbury Park / Blackstock Road","parentId":"490G000858","stationId":"490G000858","stopLetter":"M","topMostParentId":"HUBFPK"},{"icsId":"1000083","id":"490000083S","lat":51.563746,"lon":-0.10638,"name":"Finsbury Park Station","parentId":"490G00083S","stationId":"490G00083S","stopLetter":"S","topMostParentId":"HUBFPK","zone":"2"},{"icsId":"1006889","id":"490006889Z","lat":51.562661,"lon":-0.107709,"name":"Isledon Road","parentId":"490G000519","stationId":"490G000519","stopLetter":"T","topMostParentId":"490G000519"},{"icsId":"1003929","id":"490003929S","lat":51.559618,"lon":-0.110274,"name":"Berriman Road","parentId":"490G00003929","stationId":"490G00003929","stopLetter":"NM","topMostParentId":"490G00003929"},{"icsId":"1013695","id":"490008368S","lat":51.557998,"lon":-0.111856,"name":"Sobell Centre","parentId":"490G00013695","stationId":"490G00013695","stopLetter":"NN","topMostParentId":"490G00013695"},{"icsId":"1008298","id":"490008298R","lat":51.556523,"lon":-0.115754,"name":"Holloway Road","parentId":"490G00008298","stationId":"490G00008298","stopLetter":"R","topMostParentId":"490G00008298"},{"icsId":"1004679","id":"490004679X","lat":51.55541,"lon":-0.118671,"name":"Caledonian Road","parentId":"490G00004679","stationId":"490G00004679","stopLetter":"X","topMostParentId":"490G00004679"},{"icsId":"1007614","id":"490008230S","lat":51.553665,"lon":-0.122565,"name":"Hillmarton Road","parentId":"490G00007614","stationId":"490G00007614","stopLetter":"M","topMostParentId":"490G00007614"},{"icsId":"1015052","id":"490015052S","lat":51.550949,"lon":-0.126543,"name":"Hilldrop Road","parentId":"490G00015052","stationId":"490G00015052","stopLetter":"A","topMostParentId":"490G00015052"},{"icsId":"1004278","id":"490004278S","lat":51.549352,"lon":-0.128411,"name":"Brecknock Road","parentId":"490G00004278","stationId":"490G00004278","stopLetter":"B","topMostParentId":"490G00004278"},{"icsId":"1004715","id":"490004715W","lat":51.547062,"lon":-0.131476,"name":"Camden Park Road","parentId":"490G00004715","stationId":"490G00004715","stopLetter":"C","topMostParentId":"490G00004715"},{"icsId":"1011887","id":"490011887W","lat":51.54599,"lon":-0.13302,"name":"Sandall Road","parentId":"490G00011887","stationId":"490G00011887","stopLetter":"D","topMostParentId":"490G00011887"},{"icsId":"1011616","id":"490011616W","lat":51.544133,"lon":-0.135591,"name":"Murray Street","parentId":"490G00011616","stationId":"490G00011616","stopLetter":"->W","topMostParentId":"490G00011616"},{"icsId":"1001045","id":"490001045F","lat":51.542299,"lon":-0.137829,"name":"Camden Road Station","parentId":"490G01045G","stationId":"490G01045G","stopLetter":"F","topMostParentId":"910GCMDNRD"},{"icsId":"1019167","id":"490000036R","lat":51.540005,"lon":-0.140634,"name":"Camden Town Station / Camden Street","parentId":"490G00019167","stationId":"490G00019167","stopLetter":"R","topMostParentId":"490G00019167"},{"icsId":"1000036","id":"490015531T","lat":51.53875,"lon":-0.140916,"name":"Camden Town Station  / Bayham Street","parentId":"490G00036N","stationId":"490G00036N","stopLetter":"T","topMostParentId":"940GZZLUCTN","zone":"2"},{"icsId":"1011168","id":"490011168S1","lat":51.536963,"lon":-0.13933,"name":"Pratt Street","parentId":"490G00011168","stationId":"490G00011168","stopLetter":"W","topMostParentId":"490G00011168"},{"icsId":"1000152","id":"490000152G","lat":51.534138,"lon":-0.138105,"name":"Mornington Cres Stn / Camden Tn Library","parentId":"490G00152G","stationId":"490G00152G","stopLetter":"G","topMostParentId":"940GZZLUMTC","zone":"2"},{"icsId":"1003174","id":"490003174S","lat":51.531996,"lon":-0.135755,"name":"Aldenham Street","parentId":"490G00003174","stationId":"490G00003174","stopLetter":"S","topMostParentId":"490G00003174"},{"icsId":"1000077","id":"490000077B","lat":51.528611,"lon":-0.132131,"name":"Euston Station","parentId":"490G00077B","stationId":"490G00077B","stopLetter":"B","topMostParentId":"HUBEUS","zone":"1"},{"icsId":"1009504","id":"490000077AP","lat":51.527573,"lon":-0.131899,"name":"Euston Bus Station","parentId":"490G000652","stationId":"490G000652","stopLetter":"AP","topMostParentId":"HUBEUS"}]}]}