{"direction":"outbound","lineId":"255","lineName":"255","mode":"bus","stopPointSequences":[{"stopPoint":[{"icsId":"1016323","id":"490016323E","lat":51.398937,"lon":-0.128088,"name":"South Lodge Avenue / Yorkshire Road","parentId":"490G00016323","stationId":"490G00016323","stopLetter":"U","topMostParentId":"490G00016323"},{"icsId":"1017360","id":"490017360E","lat":51.398128,"lon":-0.128682,"name":"Leicester Avenue","parentId":"490G00017360","stationId":"490G00017360","stopLetter":"E","topMostParentId":"490G00017360"},{"icsId":"1000277","id":"4900277S","lat":51.396135,"lon":-0.13115,"name":"Northumberland Gardens","parentId":"490G00000277","stationId":"490G00000277","topMostParentId":"490G00000277"},{"icsId":"1014506","id":"490014506E","lat":51.395761,"lon":-0.132487,"name":"Westmorland Way","parentId":"490G00014506","stationId":"490G00014506","stopLetter":"->W","topMostParentId":"490G00014506"},{"icsId":"1008106","id":"490008106S","lat":51.397409,"lon":-0.132104,"name":"Carisbrooke Road / Hertford Way","parentId":"490G00008106","stationId":"490G00008106","topMostParentId":"490G00008106"},{"icsId":"1005563","id":"490005563F","lat":51.398772,"lon":-0.130711,"name":"Conway Gardens","parentId":"490G00005563","stationId":"490G00005563","stopLetter":"F","topMostParentId":"490G00005563"},{"icsId":"1005148","id":"490005148G","lat":51.399671,"lon":-0.131293,"name":"Pollards Hill Library","parentId":"490G00005148","stationId":"490G00005148","stopLetter":"G","topMostParentId":"490G00005148"},{"icsId":"1008527","id":"490008527K","lat":51.402207,"lon":-0.135215,"name":"Ivy Gardens","parentId":"490G00008527","stationId":"490G00008527","stopLetter":"K","topMostParentId":"490G00008527"},{"icsId":"1010321","id":"490010321P","lat":51.404327,"lon":-0.137372,"name":"Northborough Road","parentId":"490G00010321","stationId":"490G00010321","stopLetter":"P","topMostParentId":"490G00010321"},{"icsId":"1012844","id":"490012844E","lat":51.406392,"lon":-0.138855,"name":"St Olave's Walk","parentId":"490G00012844","stationId":"490G00012844","stopLetter":"VS","topMostParentId":"490G00012844"},{"icsId":"1015359","id":"490015359E","lat":51.407706,"lon":-0.136616,"name":"Longthornton Road","parentId":"490G00015359","stationId":"490G00015359","stopLetter":"->E","topMostParentId":"490G00015359"},{"icsId":"1005957","id":"490005957E","lat":51.408887,"lon":-0.132298,"name":"Darcy Road","parentId":"490G00005957","stationId":"490G00005957","stopLetter":"->E","topMostParentId":"490G00005957"},{"icsId":"1003058","id":"490003058E","lat":51.409053,"lon":-0.127488,"name":"Freeman Court","parentId":"490G00003058","stationId":"490G00003058","stopLetter":"->E","topMostParentId":"490G00003058"},{"icsId":"1010487","id":"490010487E","lat":51.409189,"lon":-0.123068,"name":"Oakhill Road","parentId":"490G00010487","stationId":"490G00010487","stopLetter":"J","topMostParentId":"490G00010487"},{"icsId":"1001209","id":"490001209B","lat":51.410862,"lon":-0.123086,"name":"Norbury Station","parentId":"490G01209B","stationId":"490G01209B","stopLetter":"B","topMostParentId":"910GNORBURY"},{"icsId":"1008080","id":"490008080K","lat":51.413854,"lon":-0.124617,"name":"Hermitage Lane","parentId":"490G00008080","stationId":"490G00008080","stopLetter":"K","topMostParentId":"490G00008080"},{"icsId":"1003389","id":"490003389N","lat":51.416691,"lon":-0.125982,"name":"Arragon Gardens","parentId":"490G00003389","stationId":"490G00003389","stopLetter":"CK","topMostParentId":"490G00003389"},{"icsId":"1008618","id":"490008618N","lat":51.419033,"lon":-0.127972,"name":"Kempshott Road","parentId":"490G00008618","stationId":"490G00008618","stopLetter":"CL","topMostParentId":"490G00008618"},{"icsId":"1012924","id":"490012924N","lat":51.42116,"lon":-0.12882,"name":"Streatham Common / Greyhound Lane","parentId":"490G00012924","stationId":"490G00012924","stopLetter":"CM","topMostParentId":"490G00012924"},{"icsId":"1001279","id":"490012929S4","lat":51.424968,"lon":-0.130736,"name":"Streatham Station","parentId":"490G01279S3","stationId":"490G01279S3","stopLetter":"SH","topMostParentId":"910GSTRETHM"},{"icsId":"1012761","id":"490012761SQ","lat":51.428385,"lon":-0.13133,"name":"St Leonard's Church","parentId":"490G00012761","stationId":"490G00012761","stopLetter":"SK","topMostParentId":"490G00012761"},{"icsId":"1003758","id":"490003758O","lat":51.432563,"lon":-0.129376,"name":"Becmead Avenue","parentId":"490G00003758","stationId":"490G00003758","stopLetter":"O","topMostParentId":"490G00003758"},{"icsId":"1008765","id":"490008765M","lat":51.434493,"lon":-0.128621,"name":"Kingscourt Road","parentId":"490G00008765","stationId":"490G00008765","stopLetter":"M","topMostParentId":"490G00008765"},{"icsId":"1010078","id":"490010078K","lat":51.435944,"lon":-0.12823,"name":"Mount Ephraim Road","parentId":"490G00010078","stationId":"490G00010078","stopLetter":"K","topMostParentId":"490G00010078"},{"icsId":"1001281","id":"490001281Q","lat":51.438554,"lon":-0.128929,"name":"Streatham Hill Station","parentId":"490G01281Q","stationId":"490G01281Q","stopLetter":"Q","topMostParentId":"910GSTRHILL"},{"icsId":"1012675","id":"490012675N","lat":51.440446,"lon":-0.132018,"name":"Criffel Avenue","parentId":"490G00012675","stationId":"490G00012675","stopLetter":"->N","topMostParentId":"490G00012675"},{"icsId":"1015219","id":"490015219N","lat":51.442504,"lon":-0.132481,"name":"New Park Road","parentId":"490G00015219","stationId":"490G00015219","stopLetter":"P","topMostParentId":"490G00015219"},{"icsId":"1020149","id":"490020149F","lat":51.443455,"lon":-0.136859,"name":"Burnbury Road","parentId":"490G00020149","stationId":"490G00020149","stopLetter":"F","topMostParentId":"490G00020149"},{"icsId":"1020143","id":"490020143G","lat":51.445515,"lon":-0.136905,"name":"Hydethorpe Road","parentId":"490G00020143","stationId":"490G00020143","stopLetter":"G","topMostParentId":"490G00020143"},{"icsId":"1020150","id":"490020149E","lat":51.446346,"lon":-0.139951,"name":"Belthorn Crescent","parentId":"490G00020150","stationId":"490G00020150","stopLetter":"->E","topMostParentId":"490G00020150"},{"icsId":"1003561","id":"490003561E","lat":51.446363,"lon":-0.149578,"name":"Balham New Road","parentId":"490G00003561","stationId":"490G00003561","stopLetter":"E","topMostParentId":"490G00003561"},{"icsId":"1000012","id":"490000012C","lat":51.443912,"lon":-0.152066,"name":"Balham Station","parentId":"490G00012C","stationId":"490G00012C","stopLetter":"C","topMostParentId":"HUBBAL","zone":"3"},{"icsId":"1000012","id":"490000012J","lat":51.443021,"lon":-0.150907,"name":"Balham Station  / Balham Station Road","parentId":"490G00012S","stationId":"490G00012S","stopLetter":"J","topMostParentId":"HUBBAL","zone":"3"}]}]}