{"direction":"outbound","lineId":"26","lineName":"26","mode":"bus","stopPointSequences":[{"stopPoint":[{"icsId":"1008264","id":"490008264S","lat":51.545296,"lon":-0.030102,"name":"St Mary Of Eton Church","parentId":"490G00008264","stationId":"490G00008264","stopLetter":"L","topMostParentId":"490G00008264"},{"icsId":"1019925","id":"490008676W","lat":51.545143,"lon":-0.036527,"name":"Wick Road / Kenworthy Road","parentId":"490G00019925","stationId":"490G00019925","stopLetter":"J","topMostParentId":"490G00019925"},{"icsId":"1003622","id":"490003622W","lat":51.54519,"lon":-0.040419,"name":"Barnabas Road","parentId":"490G00003622","stationId":"490G00003622","stopLetter":"K","topMostParentId":"490G00003622"},{"icsId":"1015363","id":"490015363W","lat":51.544916,"lon":-0.045017,"name":"Kenton Road / Well Street","parentId":"490G00015363","stationId":"490G00015363","stopLetter":"L","topMostParentId":"490G00015363"},{"icsId":"1013987","id":"490013987W","lat":51.543562,"lon":-0.046849,"name":"Valentine Road","parentId":"490G00013987","stationId":"490G00013987","stopLetter":"M","topMostParentId":"490G00013987"},{"icsId":"1019199","id":"490008277W","lat":51.541094,"lon":-0.049348,"name":"Holcroft Road","parentId":"490G00019199","stationId":"490G00019199","stopLetter":"N","topMostParentId":"490G00019199"},{"icsId":"1009645","id":"490009645W","lat":51.54007,"lon":-0.053733,"name":"Shore Road","parentId":"490G00009645","stationId":"490G00009645","stopLetter":"LX","topMostParentId":"490G00009645"},{"icsId":"1014373","id":"490014373LA","lat":51.539552,"lon":-0.056077,"name":"Mare Street / Well Street","parentId":"490G00014373","stationId":"490G00014373","stopLetter":"LA","topMostParentId":"490G00014373"},{"icsId":"1008739","id":"490008739S","lat":51.53737,"lon":-0.056847,"name":"King Edward's Road","parentId":"490G00008739","stationId":"490G00008739","stopLetter":"LE","topMostParentId":"490G00008739"},{"icsId":"1003314","id":"490007624S","lat":51.534929,"lon":-0.057139,"name":"Mare Street / Victoria Park Road","parentId":"490G00003314","stationId":"490G00003314","stopLetter":"Q","topMostParentId":"490G00003314"},{"icsId":"1001044","id":"490001044N","lat":51.5324,"lon":-0.058097,"name":"Cambridge Heath Station","parentId":"490G01044M","stationId":"490G01044M","stopLetter":"N","topMostParentId":"910GCAMHTH"},{"icsId":"1011243","id":"490011243W","lat":51.531709,"lon":-0.062005,"name":"Pritchard's Road","parentId":"490G00011243","stationId":"490G00011243","stopLetter":"HC","topMostParentId":"490G00011243"},{"icsId":"1011306","id":"490011306W","lat":51.531309,"lon":-0.064992,"name":"Warner Place","parentId":"490G00011306","stationId":"490G00011306","stopLetter":"HD","topMostParentId":"490G00011306"},{"icsId":"1011325","id":"490011325W","lat":51.530926,"lon":-0.070703,"name":"Queensbridge Road","parentId":"490G00011325","stationId":"490G00011325","stopLetter":"HE","topMostParentId":"490G00011325"},{"icsId":"1001570","id":"490010230W","lat":51.529163,"lon":-0.075016,"name":"Hoxton Station","parentId":"490G05737N","stationId":"490G05737N","stopLetter":"HF","topMostParentId":"910GHOXTON"},{"icsId":"1007625","id":"490003487S","lat":51.527492,"lon":-0.076788,"name":"Shoreditch Church","parentId":"490G00007625","stationId":"490G00007625","stopLetter":"S","topMostParentId":"490G00007625"},{"icsId":"1001571","id":"490012113N","lat":51.524964,"lon":-0.077269,"name":"Shoreditch High Street Station","parentId":"490G16266N","stationId":"490G16266N","stopLetter":"N","topMostParentId":"910GSHRDHST"},{"icsId":"1005524","id":"490005524D","lat":51.52193,"lon":-0.078147,"name":"Commercial Street / Worship Street","parentId":"490G00005524","stationId":"490G00005524","stopLetter":"D","topMostParentId":"490G00005524"},{"icsId":"1012391","id":"490012391S","lat":51.519785,"lon":-0.078972,"name":"Primrose Street","parentId":"490G00012391","stationId":"490G00012391","stopLetter":"J","topMostParentId":"490G00012391"},{"icsId":"1000138","id":"490000138L","lat":51.517957,"lon":-0.079914,"name":"Liverpool Street Station","parentId":"490G00138G","stationId":"490G00138G","stopLetter":"L","topMostParentId":"HUBLST","zone":"1"},{"icsId":"1004043","id":"490004043S","lat":51.515618,"lon":-0.082016,"name":"Wormwood Street","parentId":"490G00004043","stationId":"490G00004043","stopLetter":"Y","topMostParentId":"490G00004043"},{"icsId":"1010527","id":"490010527W","lat":51.51413,"lon":-0.085624,"name":"Old Broad Street","parentId":"490G00010527","stationId":"490G00010527","stopLetter":"LL","topMostParentId":"490G00010527"},{"icsId":"1013195","id":"490013195H","lat":51.512924,"lon":-0.091108,"name":"Bank Station  / Queen Victoria Street","parentId":"490G000780","stationId":"490G000780","stopLetter":"H","topMostParentId":"HUBBAN"},{"icsId":"1010200","id":"490010200C","lat":51.512912,"lon":-0.096959,"name":"St Paul's Churchyard","parentId":"490G00010200","stationId":"490G00010200","stopLetter":"SH","topMostParentId":"490G00010200"},{"icsId":"1012873","id":"490012873B","lat":51.513387,"lon":-0.099635,"name":"St Paul's Cathedral","parentId":"490G00012873","stationId":"490G00012873","stopLetter":"SJ","topMostParentId":"490G00012873"},{"icsId":"1019767","id":"490009443F","lat":51.514124,"lon":-0.103524,"name":"City Thameslink Stn  / Ludgate Circus","parentId":"490G00019767","stationId":"490G00019767","stopLetter":"F","topMostParentId":"490G00019767"},{"icsId":"1012105","id":"490012105HB","lat":51.514084,"lon":-0.106639,"name":"Shoe Lane","parentId":"490G00012105","stationId":"490G00012105","stopLetter":"H","topMostParentId":"490G00012105"},{"icsId":"1006826","id":"490006826W","lat":51.51414,"lon":-0.108395,"name":"Fetter Lane","parentId":"490G00006826","stationId":"490G00006826","stopLetter":"->W","topMostParentId":"490G00006826"},{"icsId":"1015067","id":"490015067W","lat":51.513876,"lon":-0.110438,"name":"Chancery Lane","parentId":"490G00015067","stationId":"490G00015067","stopLetter":"->W","topMostParentId":"490G00015067"},{"icsId":"1011757","id":"490011757P","lat":51.512963,"lon":-0.113531,"name":"The Royal Courts Of Justice","parentId":"490G000731","stationId":"490G000731","stopLetter":"P","topMostParentId":"490G000731"},{"icsId":"1003193","id":"490003193S","lat":51.51186,"lon":-0.11705,"name":"Aldwych / Somerset House","parentId":"490G000386","stationId":"490G000386","stopLetter":"S","topMostParentId":"490G000386"},{"icsId":"1014271","id":"490014271N","lat":51.507076,"lon":-0.115403,"name":"Waterloo Bridge / South Bank","parentId":"490G000819","stationId":"490G000819","stopLetter":"N","topMostParentId":"HUBWAT"},{"icsId":"1003705","id":"490000254E","lat":51.503514,"lon":-0.111414,"name":"Waterloo Station   / Waterloo Road","parentId":"490G000401","stationId":"490G000401","stopLetter":"E","topMostParentId":"HUBWAT"}]}]}