{"direction":"outbound","lineId":"261","lineName":"261","mode":"bus","stopPointSequences":[{"stopPoint":[{"icsId":"1001177","id":"490001177X","lat":51.463821,"lon":-0.012421,"name":"Lewisham Station","parentId":"490GA00005","stationId":"490GA00005","stopLetter":"D","topMostParentId":"HUBLEW","zone":"2+3"},{"icsId":"1003864","id":"490003864N","lat":51.461816,"lon":-0.00662,"name":"Belmont Hill","parentId":"490G00003864","stationId":"490G00003864","stopLetter":"N","topMostParentId":"490G00003864"},{"icsId":"1003868","id":"490003868E","lat":51.459883,"lon":-0.004013,"name":"Belmont Park","parentId":"490G00003868","stationId":"490G00003868","stopLetter":"P","topMostParentId":"490G00003868"},{"icsId":"1009568","id":"490009568E","lat":51.458798,"lon":-0.001512,"name":"Manor Park","parentId":"490G00009568","stationId":"490G00009568","stopLetter":"Q","topMostParentId":"490G00009568"},{"icsId":"1004257","id":"490004257E","lat":51.458653,"lon":0.002743,"name":"Brandram Road","parentId":"490G00004257","stationId":"490G00004257","stopLetter":"R","topMostParentId":"490G00004257"},{"icsId":"1005918","id":"490005918E","lat":51.458682,"lon":0.0063,"name":"Dacre Park","parentId":"490G00005918","stationId":"490G00005918","stopLetter":"S","topMostParentId":"490G00005918"},{"icsId":"1008924","id":"490008924E","lat":51.457041,"lon":0.009193,"name":"Lampmead Road","parentId":"490G00008924","stationId":"490G00008924","stopLetter":"L","topMostParentId":"490G00008924"},{"icsId":"1009063","id":"490009060B","lat":51.45584,"lon":0.011587,"name":"Burnt Ash Road / Lee Road","parentId":"490G00009063","stationId":"490G00009063","stopLetter":"F","topMostParentId":"490G00009063"},{"icsId":"1007747","id":"490007747S","lat":51.453028,"lon":0.011924,"name":"Handen Road","parentId":"490G00007747","stationId":"490G00007747","stopLetter":"E","topMostParentId":"490G00007747"},{"icsId":"1001176","id":"490001176B","lat":51.449514,"lon":0.012849,"name":"Lee Station","parentId":"490G01176N","stationId":"490G01176N","stopLetter":"B","topMostParentId":"910GLEEE"},{"icsId":"1014480","id":"490014480S","lat":51.446882,"lon":0.014273,"name":"Westhorne Avenue","parentId":"490G00014480","stationId":"490G00014480","stopLetter":"D","topMostParentId":"490G00014480"},{"icsId":"1019004","id":"490003599S","lat":51.445237,"lon":0.014244,"name":"St Mildreds Road","parentId":"490G00019004","stationId":"490G00019004","stopLetter":"P","topMostParentId":"490G00019004"},{"icsId":"1007801","id":"490007801S","lat":51.443045,"lon":0.015112,"name":"Harland Road","parentId":"490G00007801","stationId":"490G00007801","stopLetter":"R","topMostParentId":"490G00007801"},{"icsId":"1006743","id":"490006743S","lat":51.440603,"lon":0.016443,"name":"Farmcote Road","parentId":"490G00006743","stationId":"490G00006743","stopLetter":"->S","topMostParentId":"490G00006743"},{"icsId":"1007992","id":"490007992S","lat":51.438564,"lon":0.017375,"name":"Heather Road","parentId":"490G00007992","stationId":"490G00007992","stopLetter":"S","topMostParentId":"490G00007992"},{"icsId":"1015292","id":"490015292S","lat":51.435755,"lon":0.019668,"name":"Baring Road / Coopers Lane","parentId":"490G00015292","stationId":"490G00015292","stopLetter":"T","topMostParentId":"490G00015292"},{"icsId":"1001124","id":"490001124B","lat":51.431067,"lon":0.021404,"name":"Grove Park Station","parentId":"490G01124B","stationId":"490G01124B","stopLetter":"B","topMostParentId":"910GGRVPK"},{"icsId":"1008993","id":"490008993S","lat":51.427429,"lon":0.021157,"name":"Launcelot Road","parentId":"490G00008993","stationId":"490G00008993","stopLetter":"J","topMostParentId":"490G00008993"},{"icsId":"1013782","id":"490013782S","lat":51.425659,"lon":0.0221,"name":"Treewall Gardens","parentId":"490G00013782","stationId":"490G00013782","stopLetter":"P","topMostParentId":"490G00013782"},{"icsId":"1010263","id":"490010263S","lat":51.4213,"lon":0.021965,"name":"New Street Hill","parentId":"490G00010263","stationId":"490G00010263","stopLetter":"Q","topMostParentId":"490G00010263"},{"icsId":"1012325","id":"490012325W","lat":51.419772,"lon":0.018748,"name":"Burnt Ash Lane / Southover","parentId":"490G00012325","stationId":"490G00012325","stopLetter":"R","topMostParentId":"490G00012325"},{"icsId":"1010750","id":"490010750S","lat":51.417112,"lon":0.017077,"name":"Park Avenue","parentId":"490G00010750","stationId":"490G00010750","stopLetter":"S","topMostParentId":"490G00010750"},{"icsId":"1009279","id":"490009279W","lat":51.414105,"lon":0.017276,"name":"Plaistow Green","parentId":"490G00009279","stationId":"490G00009279","stopLetter":"D","topMostParentId":"490G00009279"},{"icsId":"1010031","id":"490010031S","lat":51.412477,"lon":0.015234,"name":"Morgan Road","parentId":"490G00010031","stationId":"490G00010031","stopLetter":"->S","topMostParentId":"490G00010031"},{"icsId":"1015515","id":"490015515S","lat":51.410379,"lon":0.014351,"name":"Hammelton Road","parentId":"490G00015515","stationId":"490G00015515","stopLetter":"C","topMostParentId":"490G00015515"},{"icsId":"1001036","id":"490001036E","lat":51.408189,"lon":0.016685,"name":"Bromley North Station","parentId":"490G01036EB","stationId":"490G01036EB","stopLetter":"E","topMostParentId":"910GBROMLYN"},{"icsId":"1008665","id":"490008665T","lat":51.404326,"lon":0.019103,"name":"Bromley Civic Centre","parentId":"490G00008665","stationId":"490G00008665","stopLetter":"T","topMostParentId":"490G00008665"},{"icsId":"1006507","id":"490006507Y","lat":51.401839,"lon":0.016247,"name":"Bromley High Street / The Mall","parentId":"490G00006507","stationId":"490G00006507","stopLetter":"X","topMostParentId":"490G00006507"},{"icsId":"1001037","id":"490001037Z","lat":51.400493,"lon":0.017122,"name":"Bromley South Station","parentId":"490G01037U","stationId":"490G01037U","stopLetter":"Z","topMostParentId":"910GBROMLYS"},{"icsId":"1004423","id":"490004423G","lat":51.398924,"lon":0.018908,"name":"Cromwell Avenue","parentId":"490G00004423","stationId":"490G00004423","stopLetter":"G","topMostParentId":"490G00004423"},{"icsId":"1003934","id":"490003934S","lat":51.39701,"lon":0.023553,"name":"Bertha James Day Centre","parentId":"490G00003934","stationId":"490G00003934","stopLetter":"BA","topMostParentId":"490G00003934"},{"icsId":"1008330","id":"490008330S","lat":51.396041,"lon":0.024934,"name":"Homesdale Road","parentId":"490G00008330","stationId":"490G00008330","stopLetter":"BB","topMostParentId":"490G00008330"},{"icsId":"1012309","id":"490012309S","lat":51.392688,"lon":0.031096,"name":"Southlands Road","parentId":"490G00012309","stationId":"490G00012309","stopLetter":"BA","topMostParentId":"490G00012309"},{"icsId":"1008573","id":"490008573S","lat":51.390209,"lon":0.034551,"name":"Bromley Common / The Crown","parentId":"490G00008573","stationId":"490G00008573","stopLetter":"BB","topMostParentId":"490G00008573"},{"icsId":"1013856","id":"490013856S","lat":51.3826,"lon":0.040292,"name":"Bromley Common / Turpington Lane","parentId":"490G00013856","stationId":"490G00013856","stopLetter":"BL","topMostParentId":"490G00013856"},{"icsId":"1019738","id":"490010498S","lat":51.378677,"lon":0.042992,"name":"Oakley Road / Holy Trinity Church","parentId":"490G00019738","stationId":"490G00019738","stopLetter":"BM","topMostParentId":"490G00019738"},{"icsId":"1004413","id":"490004413S","lat":51.375748,"lon":0.044428,"name":"Bromley Bus Garage","parentId":"490G00004413","stationId":"490G00004413","stopLetter":"BN","topMostParentId":"490G00004413"},{"icsId":"1008913","id":"490010752S","lat":51.370609,"lon":0.047733,"name":"Lakeside Drive","parentId":"490G00008913","stationId":"490G00008913","stopLetter":"->S","topMostParentId":"490G00008913"},{"icsId":"1006757","id":"490006757E","lat":51.368406,"lon":0.049747,"name":"Farnborough Park","parentId":"490G00006757","stationId":"490G00006757","stopLetter":"->E","topMostParentId":"490G00006757"},{"icsId":"1006756","id":"490006756W2","lat":51.365596,"lon":0.058212,"name":"Princess Royal University Hospital","parentId":"490G000511","stationId":"490G000511","stopLetter":"HA","topMostParentId":"490G000511"}]}]}