{"direction":"outbound","lineId":"263","lineName":"263","mode":"bus","stopPointSequences":[{"stopPoint":[{"icsId":"1000333","id":"490008616S","lat":51.55286,"lon":-0.098322,"name":"Highbury Barn","parentId":"490G00000333","stationId":"490G00000333","stopLetter":"EE","topMostParentId":"490G00000333"},{"icsId":"1003065","id":"490003053S","lat":51.550789,"lon":-0.098105,"name":"Highbury Grove School / Aberdeen Park","parentId":"490G00003065","stationId":"490G00003065","stopLetter":"CZ","topMostParentId":"490G00003065"},{"icsId":"1008146","id":"490008146W","lat":51.546518,"lon":-0.099293,"name":"St Paul's Road / Highbury Grove","parentId":"490G00008146","stationId":"490G00008146","stopLetter":"CT","topMostParentId":"490G00008146"},{"icsId":"1008143","id":"490008143D","lat":51.546114,"lon":-0.101531,"name":"Highbury Corner","parentId":"490G00008143","stationId":"490G00008143","stopLetter":"D","topMostParentId":"490G00008143"},{"icsId":"1000108","id":"490000108A","lat":51.546866,"lon":-0.104658,"name":"Highbury & Islington Station","parentId":"490G00108B","stationId":"490G00108B","stopLetter":"A","topMostParentId":"HUBHHY","zone":"2"},{"icsId":"1012451","id":"490012451N","lat":51.548708,"lon":-0.107365,"name":"St Mary Magdalene Church","parentId":"490G00012451","stationId":"490G00012451","stopLetter":"S","topMostParentId":"490G00012451"},{"icsId":"1009224","id":"490009224Y","lat":51.550728,"lon":-0.109921,"name":"Liverpool Road","parentId":"490G00009224","stationId":"490G00009224","stopLetter":"SV","topMostParentId":"490G00009224"},{"icsId":"1000114","id":"490000114U","lat":51.552888,"lon":-0.112817,"name":"Holloway Road Station","parentId":"490G00114U","stationId":"490G00114U","stopLetter":"SU","topMostParentId":"940GZZLUHWY","zone":"2"},{"icsId":"1004720","id":"490004720T","lat":51.555345,"lon":-0.116322,"name":"Camden Road","parentId":"490G00004720","stationId":"490G00004720","stopLetter":"T","topMostParentId":"490G00004720"},{"icsId":"1008296","id":"490008296L","lat":51.556317,"lon":-0.117522,"name":"Holloway / Nags Head","parentId":"490G00008296","stationId":"490G00008296","stopLetter":"L","topMostParentId":"490G00008296"},{"icsId":"1013836","id":"490013836F","lat":51.559144,"lon":-0.121661,"name":"Tufnell Park Road","parentId":"490G00013836","stationId":"490G00013836","stopLetter":"F","topMostParentId":"490G00013836"},{"icsId":"1014778","id":"490009808O","lat":51.56035,"lon":-0.123401,"name":"Manor Gardens","parentId":"490G00014778","stationId":"490G00014778","stopLetter":"V","topMostParentId":"490G00014778"},{"icsId":"1014333","id":"490014333N","lat":51.56233,"lon":-0.126277,"name":"Wedmore Street","parentId":"490G00014333","stationId":"490G00014333","stopLetter":"U","topMostParentId":"490G00014333"},{"icsId":"1001302","id":"490001302T","lat":51.563894,"lon":-0.129632,"name":"Upper Holloway Station","parentId":"490G01302S","stationId":"490G01302S","stopLetter":"T","topMostParentId":"910GUPRHLWY"},{"icsId":"1006550","id":"490006550P","lat":51.564488,"lon":-0.131902,"name":"Elthorne Road","parentId":"490G00006550","stationId":"490G00006550","stopLetter":"P","topMostParentId":"490G00006550"},{"icsId":"1000008","id":"490000008Y","lat":51.565359,"lon":-0.134131,"name":"Archway Station","parentId":"490G00008O","stationId":"490G00008O","stopLetter":"D","topMostParentId":"940GZZLUACY","zone":"2+3"},{"icsId":"1014277","id":"490014277N","lat":51.569139,"lon":-0.137122,"name":"Waterlow Road","parentId":"490G00014277","stationId":"490G00014277","stopLetter":"X","topMostParentId":"490G00014277"},{"icsId":"1008943","id":"490008943N","lat":51.572153,"lon":-0.140058,"name":"Langdon Park Road","parentId":"490G00008943","stationId":"490G00008943","stopLetter":"HX","topMostParentId":"490G00008943"},{"icsId":"1010433","id":"490010433N","lat":51.574232,"lon":-0.141907,"name":"Northwood Road","parentId":"490G00010433","stationId":"490G00010433","stopLetter":"F","topMostParentId":"490G00010433"},{"icsId":"1000109","id":"490012359E","lat":51.575953,"lon":-0.143251,"name":"Highgate Station","parentId":"490G00109S","stationId":"490G00109S","stopLetter":"G","topMostParentId":"940GZZLUHGT","zone":"3"},{"icsId":"1010136","id":"490012363N","lat":51.577952,"lon":-0.147947,"name":"Muswell Hill Road","parentId":"490G00010136","stationId":"490G00010136","stopLetter":"H","topMostParentId":"490G00010136"},{"icsId":"1013147","id":"490013147N","lat":51.579911,"lon":-0.152457,"name":"Talbot Road / North Hill","parentId":"490G00013147","stationId":"490G00013147","stopLetter":"J","topMostParentId":"490G00013147"},{"icsId":"1014894","id":"490014894N","lat":51.58252,"lon":-0.15824,"name":"Woodside Avenue","parentId":"490G00014894","stationId":"490G00014894","stopLetter":"K","topMostParentId":"490G00014894"},{"icsId":"1013265","id":"490013265N","lat":51.585323,"lon":-0.163237,"name":"The Bishops Avenue","parentId":"490G00013265","stationId":"490G00013265","stopLetter":"D","topMostParentId":"490G00013265"},{"icsId":"1000067","id":"490000067F","lat":51.586994,"lon":-0.164281,"name":"East Finchley Station","parentId":"490G00067G","stationId":"490G00067G","stopLetter":"F","topMostParentId":"940GZZLUEFY","zone":"3"},{"icsId":"1013254","id":"490013254I","lat":51.588647,"lon":-0.164171,"name":"Fairlawn Avenue","parentId":"490G00013254","stationId":"490G00013254","stopLetter":"S","topMostParentId":"490G00013254"},{"icsId":"1008857","id":"490008857N","lat":51.591034,"lon":-0.165013,"name":"Kitchener Road","parentId":"490G00008857","stationId":"490G00008857","topMostParentId":"490G00008857"},{"icsId":"1006354","id":"490006354N","lat":51.594025,"lon":-0.168271,"name":"East Finchley Library","parentId":"490G00006354","stationId":"490G00006354","topMostParentId":"490G00006354"},{"icsId":"1004980","id":"490004980N","lat":51.596147,"lon":-0.171102,"name":"Chandos Road","parentId":"490G00004980","stationId":"490G00004980","stopLetter":"H","topMostParentId":"490G00004980"},{"icsId":"1010494","id":"490010494N","lat":51.597674,"lon":-0.172182,"name":"Oak Lane","parentId":"490G00010494","stationId":"490G00010494","stopLetter":"J","topMostParentId":"490G00010494"},{"icsId":"1012916","id":"490012916N","lat":51.60005,"lon":-0.173429,"name":"Strawberry Vale","parentId":"490G00012916","stationId":"490G00012916","stopLetter":"K","topMostParentId":"490G00012916"},{"icsId":"1012419","id":"490012419N","lat":51.602908,"lon":-0.174499,"name":"Squires Lane","parentId":"490G00012419","stationId":"490G00012419","stopLetter":"L","topMostParentId":"490G00012419"},{"icsId":"1009082","id":"490009082N","lat":51.605777,"lon":-0.175106,"name":"Leisure Way","parentId":"490G00009082","stationId":"490G00009082","stopLetter":"M","topMostParentId":"490G00009082"},{"icsId":"1015327","id":"490015327N","lat":51.607919,"lon":-0.175207,"name":"Granville Road","parentId":"490G00015327","stationId":"490G00015327","stopLetter":"N","topMostParentId":"490G00015327"},{"icsId":"1005229","id":"490005229N","lat":51.610667,"lon":-0.175588,"name":"Christchurch Avenue","parentId":"490G00005229","stationId":"490G00005229","stopLetter":"W","topMostParentId":"490G00005229"},{"icsId":"1013149","id":"490013149K","lat":51.61372,"lon":-0.17704,"name":"Tally Ho Corner","parentId":"490G00013149","stationId":"490G00013149","stopLetter":"K","topMostParentId":"490G00013149"},{"icsId":"1013718","id":"490013718B","lat":51.616739,"lon":-0.17689,"name":"Torrington Park","parentId":"490G00013718","stationId":"490G00013718","stopLetter":"C","topMostParentId":"490G00013718"},{"icsId":"1011442","id":"490011442Z","lat":51.617962,"lon":-0.176856,"name":"Ravensdale Avenue","parentId":"490G00011442","stationId":"490G00011442","stopLetter":"B","topMostParentId":"490G00011442"},{"icsId":"1013099","id":"490013099N","lat":51.621027,"lon":-0.176805,"name":"Finchley Park","parentId":"490G00013099","stationId":"490G00013099","stopLetter":"E","topMostParentId":"490G00013099"},{"icsId":"1006060","id":"490006060N","lat":51.624025,"lon":-0.176454,"name":"Derwent Crescent","parentId":"490G00006060","stationId":"490G00006060","stopLetter":"F","topMostParentId":"490G00006060"},{"icsId":"1013104","id":"490013104N","lat":51.626027,"lon":-0.1762,"name":"Swan Lane","parentId":"490G00013104","stationId":"490G00013104","stopLetter":"->N","topMostParentId":"490G00013104"},{"icsId":"1007028","id":"490007028N","lat":51.62827,"lon":-0.174723,"name":"Whetstone High Road / Friern Barnet Lane","parentId":"490G00007028","stationId":"490G00007028","stopLetter":"I","topMostParentId":"490G00007028"},{"icsId":"1015488","id":"490015488J","lat":51.631157,"lon":-0.17533,"name":"Athenaeum Road","parentId":"490G000901","stationId":"490G000901","stopLetter":"J","topMostParentId":"490G000901"},{"icsId":"1004978","id":"490004978N","lat":51.633333,"lon":-0.175936,"name":"Chandos Avenue","parentId":"490G00004978","stationId":"490G00004978","stopLetter":"K","topMostParentId":"490G00004978"},{"icsId":"1004553","id":"490004553N","lat":51.635762,"lon":-0.177168,"name":"Buckingham Avenue","parentId":"490G00004553","stationId":"490G00004553","topMostParentId":"490G00004553"},{"icsId":"1007031","id":"490007031N","lat":51.637056,"lon":-0.178258,"name":"Friern Mount Drive","parentId":"490G00007031","stationId":"490G00007031","stopLetter":"->N","topMostParentId":"490G00007031"},{"icsId":"1014131","id":"490014131N","lat":51.638669,"lon":-0.179638,"name":"Walfield Avenue","parentId":"490G00014131","stationId":"490G00014131","stopLetter":"L","topMostParentId":"490G00014131"},{"icsId":"1009489","id":"490009489N","lat":51.641892,"lon":-0.181605,"name":"Lyonsdown Road","parentId":"490G00009489","stationId":"490G00009489","stopLetter":"P","topMostParentId":"490G00009489"},{"icsId":"1006086","id":"490006086N","lat":51.643779,"lon":-0.183856,"name":"Dinsdale Gardens","parentId":"490G00006086","stationId":"490G00006086","stopLetter":"Q","topMostParentId":"490G00006086"},{"icsId":"1012613","id":"490003640N","lat":51.646089,"lon":-0.186655,"name":"Barnet Everyman Cinema","parentId":"490G00012613","stationId":"490G00012613","stopLetter":"R","topMostParentId":"490G00012613"},{"icsId":"1013897","id":"490013897N","lat":51.648139,"lon":-0.191343,"name":"Underhill","parentId":"490G00013897","stationId":"490G00013897","topMostParentId":"490G00013897"},{"icsId":"1000107","id":"490000107Q","lat":51.650081,"lon":-0.194836,"name":"High Barnet Station","parentId":"490G00107E","stationId":"490G00107E","stopLetter":"Q","topMostParentId":"940GZZLUHBT","zone":"5"},{"icsId":"1003634","id":"490003634K","lat":51.65274,"lon":-0.199313,"name":"Barnet Church","parentId":"490G000398","stationId":"490G000398","stopLetter":"K","topMostParentId":"490G000398"},{"icsId":"1015142","id":"490015142E","lat":51.652975,"lon":-0.202325,"name":"Barnet Church / Wood Street","parentId":"490G00015142","stationId":"490G00015142","stopLetter":"E","topMostParentId":"490G00015142"},{"icsId":"1009584","id":"490009584W","lat":51.652867,"lon":-0.205279,"name":"Manor Road","parentId":"490G00009584","stationId":"490G00009584","stopLetter":"Y","topMostParentId":"490G00009584"},{"icsId":"1013909","id":"490013909W","lat":51.652933,"lon":-0.208442,"name":"Union Street","parentId":"490G00013909","stationId":"490G00013909","stopLetter":"F","topMostParentId":"490G00013909"},{"icsId":"1003637","id":"490003637W","lat":51.65185,"lon":-0.214672,"name":"Barnet Hospital","parentId":"490G00003637","stationId":"490G00003637","stopLetter":"C","topMostParentId":"490G00003637"}]}]}