{"direction":"outbound","lineId":"270","lineName":"270","mode":"bus","stopPointSequences":[{"stopPoint":[{"icsId":"1000184","id":"490000184Z","lat":51.46792,"lon":-0.209306,"name":"Putney Bridge Station","parentId":"490G00184X","stationId":"490G00184X","stopLetter":"FC","topMostParentId":"940GZZLUPYB","zone":"2"},{"icsId":"1007281","id":"490007281U","lat":51.468202,"lon":-0.211325,"name":"Putney Bridge Stn  / Gonville Street","parentId":"490G000536","stationId":"490G000536","stopLetter":"FD","topMostParentId":"490G000536"},{"icsId":"1011279","id":"490011279O","lat":51.464427,"lon":-0.213185,"name":"Brewhouse Lane","parentId":"490G00011279","stationId":"490G00011279","stopLetter":"U","topMostParentId":"490G00011279"},{"icsId":"1006048","id":"490006048E","lat":51.462609,"lon":-0.207786,"name":"Deodar Road","parentId":"490G00006048","stationId":"490G00006048","stopLetter":"V","topMostParentId":"490G00006048"},{"icsId":"1012188","id":"490012188E","lat":51.461891,"lon":-0.205525,"name":"Skelgill Road / Wandsworth Park","parentId":"490G00012188","stationId":"490G00012188","stopLetter":"->E","topMostParentId":"490G00012188"},{"icsId":"1006768","id":"490006768E","lat":51.460959,"lon":-0.201617,"name":"Riverside Quarter Pier","parentId":"490G00006768","stationId":"490G00006768","stopLetter":"CC","topMostParentId":"490G00006768"},{"icsId":"1007044","id":"490007044C","lat":51.45871,"lon":-0.198064,"name":"Frogmore","parentId":"490G00007044","stationId":"490G00007044","stopLetter":"C","topMostParentId":"490G00007044"},{"icsId":"1003383","id":"490003383D","lat":51.458302,"lon":-0.196684,"name":"Armoury Way","parentId":"490G00003383","stationId":"490G00003383","stopLetter":"D","topMostParentId":"490G00003383"},{"icsId":"1011413","id":"490011413R","lat":51.458284,"lon":-0.192035,"name":"Ram Street","parentId":"490G00011413","stationId":"490G00011413","stopLetter":"R","topMostParentId":"490G00011413"},{"icsId":"1019847","id":"490014184S","lat":51.455766,"lon":-0.192566,"name":"Southside Shopping Centre","parentId":"490G00019847","stationId":"490G00019847","stopLetter":"S","topMostParentId":"490G00019847"},{"icsId":"1009631","id":"490009631S","lat":51.453914,"lon":-0.192006,"name":"Mapleton Road","parentId":"490G00009631","stationId":"490G00009631","stopLetter":"->S","topMostParentId":"490G00009631"},{"icsId":"1013484","id":"490013484S","lat":51.451591,"lon":-0.190083,"name":"The Old Sergeant","parentId":"490G00013484","stationId":"490G00013484","stopLetter":"->S","topMostParentId":"490G00013484"},{"icsId":"1013088","id":"490013088S","lat":51.44855,"lon":-0.189397,"name":"Swaffield Road","parentId":"490G00013088","stationId":"490G00013088","stopLetter":"->S","topMostParentId":"490G00013088"},{"icsId":"1008074","id":"490008074S","lat":51.446075,"lon":-0.189279,"name":"Henry Prince Estate","parentId":"490G00008074","stationId":"490G00008074","stopLetter":"K","topMostParentId":"490G00008074"},{"icsId":"1006307","id":"490001088S","lat":51.443178,"lon":-0.189207,"name":"Earlsfield Road","parentId":"490G00006307","stationId":"490G00006307","stopLetter":"E","topMostParentId":"490G00006307"},{"icsId":"1001088","id":"490006306D","lat":51.440498,"lon":-0.186824,"name":"Earlsfield Station","parentId":"490G01088N","stationId":"490G01088N","stopLetter":"D","topMostParentId":"910GERLFLD"},{"icsId":"1008502","id":"490008502S","lat":51.438914,"lon":-0.186771,"name":"Isis Street","parentId":"490G00008502","stationId":"490G00008502","stopLetter":"P","topMostParentId":"490G00008502"},{"icsId":"1014127","id":"490014127S2","lat":51.437267,"lon":-0.186649,"name":"Waldron Road","parentId":"490G00014127","stationId":"490G00014127","stopLetter":"SF","topMostParentId":"490G00014127"},{"icsId":"1004621","id":"490004621S","lat":51.435804,"lon":-0.186247,"name":"Burntwood Lane","parentId":"490G00004621","stationId":"490G00004621","stopLetter":"SG","topMostParentId":"490G00004621"},{"icsId":"1012997","id":"490012997S","lat":51.433411,"lon":-0.184457,"name":"Summerstown","parentId":"490G00012997","stationId":"490G00012997","stopLetter":"SH","topMostParentId":"490G00012997"},{"icsId":"1007123","id":"490008430E","lat":51.432738,"lon":-0.179909,"name":"Wimbledon Road","parentId":"490G00007123","stationId":"490G00007123","stopLetter":"SJ","topMostParentId":"490G00007123"},{"icsId":"1012920","id":"490012920E","lat":51.431749,"lon":-0.176452,"name":"Streatham Cemetery","parentId":"490G00012920","stationId":"490G00012920","stopLetter":"SK","topMostParentId":"490G00012920"},{"icsId":"1006718","id":"490006718H1","lat":51.429891,"lon":-0.173246,"name":"Fairlight Road","parentId":"490G00006718","stationId":"490G00006718","stopLetter":"HS","topMostParentId":"490G00006718"},{"icsId":"1000234","id":"490000234M","lat":51.428474,"lon":-0.168872,"name":"Tooting Broadway Station","parentId":"490G00234M","stationId":"490G00234M","stopLetter":"M","topMostParentId":"940GZZLUTBY","zone":"3"},{"icsId":"1003995","id":"490000234E","lat":51.426715,"lon":-0.166209,"name":"Mitcham Road / Tooting Broadway Stn","parentId":"490G000417","stationId":"490G000417","stopLetter":"E","topMostParentId":"490G000417"},{"icsId":"1013709","id":"490013709R","lat":51.425418,"lon":-0.164377,"name":"Tooting / The Mitre","parentId":"490G00013709","stationId":"490G00013709","stopLetter":"TJ","topMostParentId":"490G00013709"},{"icsId":"1003295","id":"490003295U","lat":51.423671,"lon":-0.161887,"name":"Amen Corner","parentId":"490G00003295","stationId":"490G00003295","stopLetter":"TL","topMostParentId":"490G00003295"},{"icsId":"1001296","id":"490001296S","lat":51.420482,"lon":-0.160993,"name":"Tooting Station","parentId":"490G01296S","stationId":"490G01296S","stopLetter":"TT","topMostParentId":"910GTOOTING"},{"icsId":"1007316","id":"490007316S","lat":51.417285,"lon":-0.161826,"name":"Gorringe Park Avenue","parentId":"490G00007316","stationId":"490G00007316","stopLetter":"TU","topMostParentId":"490G00007316"},{"icsId":"1009286","id":"490009286S","lat":51.415188,"lon":-0.16168,"name":"London Road / Figge's Marsh","parentId":"490G00009286","stationId":"490G00009286","stopLetter":"M","topMostParentId":"490G00009286"},{"icsId":"1013565","id":"490013565S2","lat":51.411883,"lon":-0.16141,"name":"Eveline Road","parentId":"490G00013565","stationId":"490G00013565","stopLetter":"N","topMostParentId":"490G00013565"},{"icsId":"1006171","id":"490006164B","lat":51.407705,"lon":-0.163361,"name":"Downe Road / Mitcham Library","parentId":"490G06164B","stationId":"490G06164B","stopLetter":"B","topMostParentId":"490G06164B"},{"icsId":"1009949","id":"490009949Y","lat":51.40579,"lon":-0.163941,"name":"Mitcham Fair Green","parentId":"490G00009949","stationId":"490G00009949","stopLetter":"G","topMostParentId":"490G00009949"},{"icsId":"1013650","id":"490013602E","lat":51.402189,"lon":-0.160836,"name":"Three Kings Pond","parentId":"490G00013650","stationId":"490G00013650","stopLetter":"R","topMostParentId":"490G00013650"},{"icsId":"1009507","id":"490013602W","lat":51.401455,"lon":-0.160477,"name":"Madeira Road","parentId":"490G00009507","stationId":"490G00009507","stopLetter":"M","topMostParentId":"490G00009507"}]}]}