{"direction":"outbound","lineId":"271","lineName":"271","mode":"bus","stopPointSequences":[{"stopPoint":[{"icsId":"1012303","id":"490012303N","lat":51.570723,"lon":-0.148039,"name":"South Grove","parentId":"490G00012303","stationId":"490G00012303","stopLetter":"T","topMostParentId":"490G00012303"},{"icsId":"1004982","id":"490004982S","lat":51.570042,"lon":-0.144199,"name":"Channing School","parentId":"490G00004982","stationId":"490G00004982","stopLetter":"D","topMostParentId":"490G00004982"},{"icsId":"1008359","id":"490008359S","lat":51.568724,"lon":-0.14105,"name":"Highgate Hill / Hornsey Lane","parentId":"490G00008359","stationId":"490G00008359","stopLetter":"HT","topMostParentId":"490G00008359"},{"icsId":"1019132","id":"490014625B","lat":51.567191,"lon":-0.137895,"name":"Whittington Hospital / Magdala Avenue","parentId":"490G00019132","stationId":"490G00019132","stopLetter":"B","topMostParentId":"490G00019132"},{"icsId":"1000008","id":"490000008C","lat":51.566438,"lon":-0.136338,"name":"Archway Station","parentId":"490G00008O","stationId":"490G00008O","stopLetter":"C","topMostParentId":"940GZZLUACY","zone":"2+3"},{"icsId":"1019136","id":"490000008R","lat":51.565461,"lon":-0.133752,"name":"Archway Station  / Holloway Road","parentId":"490G000932","stationId":"490G000932","stopLetter":"R","topMostParentId":"490G000932"},{"icsId":"1001302","id":"490001302S","lat":51.563982,"lon":-0.129499,"name":"Upper Holloway Station","parentId":"490G01302S","stationId":"490G01302S","stopLetter":"S","topMostParentId":"910GUPRHLWY"},{"icsId":"1003201","id":"490003201S","lat":51.561683,"lon":-0.124659,"name":"Alexander Road","parentId":"490G00003201","stationId":"490G00003201","stopLetter":"R","topMostParentId":"490G00003201"},{"icsId":"1014778","id":"490014778Q","lat":51.559976,"lon":-0.122464,"name":"Manor Gardens","parentId":"490G00014778","stationId":"490G00014778","stopLetter":"P","topMostParentId":"490G00014778"},{"icsId":"1019153","id":"490008296G","lat":51.558207,"lon":-0.119825,"name":"Seven Sisters Road / Parkhurst Road","parentId":"490G00019153","stationId":"490G00019153","stopLetter":"G","topMostParentId":"490G00019153"},{"icsId":"1008296","id":"490008296M","lat":51.557019,"lon":-0.118114,"name":"Holloway / Nags Head","parentId":"490G00008296","stationId":"490G00008296","stopLetter":"M","topMostParentId":"490G00008296"},{"icsId":"1013694","id":"490013694S","lat":51.555628,"lon":-0.116051,"name":"Tollington Road","parentId":"490G00013694","stationId":"490G00013694","stopLetter":"S","topMostParentId":"490G00013694"},{"icsId":"1000114","id":"490000114Y","lat":51.552083,"lon":-0.111437,"name":"Holloway Road Station","parentId":"490G00114U","stationId":"490G00114U","stopLetter":"SY","topMostParentId":"940GZZLUHWY","zone":"2"},{"icsId":"1009224","id":"490009224Z","lat":51.55121,"lon":-0.110276,"name":"Liverpool Road","parentId":"490G00009224","stationId":"490G00009224","stopLetter":"SZ","topMostParentId":"490G00009224"},{"icsId":"1012451","id":"490012451S","lat":51.548484,"lon":-0.106841,"name":"St Mary Magdalene Church","parentId":"490G00012451","stationId":"490G00012451","stopLetter":"T","topMostParentId":"490G00012451"},{"icsId":"1000108","id":"490000108B","lat":51.546796,"lon":-0.104228,"name":"Highbury & Islington Station","parentId":"490G00108B","stationId":"490G00108B","stopLetter":"B","topMostParentId":"HUBHHY","zone":"2"},{"icsId":"1008144","id":"490008143J","lat":51.544332,"lon":-0.100898,"name":"Canonbury Road / Highbury Corner","parentId":"490G00008144","stationId":"490G00008144","stopLetter":"J","topMostParentId":"490G00008144"},{"icsId":"1007687","id":"490007687S","lat":51.54248,"lon":-0.09923,"name":"Canonbury Grove","parentId":"490G000562","stationId":"490G000562","stopLetter":"K","topMostParentId":"490G000562"},{"icsId":"1001103","id":"490001103S2","lat":51.541033,"lon":-0.096522,"name":"Essex Road Station","parentId":"490G01103N2","stationId":"490G01103N2","stopLetter":"ED","topMostParentId":"910GESSEXRD"},{"icsId":"1006402","id":"490006402S","lat":51.539534,"lon":-0.093931,"name":"Ecclesbourne Road","parentId":"490G00006402","stationId":"490G00006402","stopLetter":"EK","topMostParentId":"490G00006402"},{"icsId":"1003671","id":"490003671S","lat":51.537943,"lon":-0.091734,"name":"Basire Street","parentId":"490G00003671","stationId":"490G00003671","stopLetter":"EL","topMostParentId":"490G00003671"},{"icsId":"1003601","id":"490003601S","lat":51.536633,"lon":-0.090289,"name":"Baring Street","parentId":"490G00003601","stationId":"490G00003601","stopLetter":"XK","topMostParentId":"490G00003601"},{"icsId":"1006289","id":"490006289S","lat":51.534014,"lon":-0.087933,"name":"Eagle Wharf Road","parentId":"490G00006289","stationId":"490G00006289","stopLetter":"XL","topMostParentId":"490G00006289"},{"icsId":"1009942","id":"490009942S","lat":51.532634,"lon":-0.087111,"name":"Mintern Street","parentId":"490G00009942","stationId":"490G00009942","stopLetter":"XM","topMostParentId":"490G00009942"},{"icsId":"1003960","id":"490003960S","lat":51.529795,"lon":-0.086711,"name":"Bevenden Street","parentId":"490G00003960","stationId":"490G00003960","stopLetter":"XN","topMostParentId":"490G00003960"},{"icsId":"1015193","id":"490015193D","lat":51.527386,"lon":-0.087908,"name":"Old Street Stn  / Moorfields Eye Hosp","parentId":"490G000872","stationId":"490G000872","stopLetter":"D","topMostParentId":"490G000872"},{"icsId":"1015195","id":"490015195M","lat":51.524204,"lon":-0.087421,"name":"City Road / Leonard Street","parentId":"490G000873","stationId":"490G000873","stopLetter":"M","topMostParentId":"490G000873"},{"icsId":"1006612","id":"490006612E","lat":51.522914,"lon":-0.087158,"name":"Epworth Street","parentId":"490G00006612","stationId":"490G00006612","stopLetter":"E","topMostParentId":"490G00006612"},{"icsId":"1006850","id":"490006850H","lat":51.520472,"lon":-0.085761,"name":"Finsbury Square","parentId":"490G00006850","stationId":"490G00006850","stopLetter":"H","topMostParentId":"490G00006850"}]}]}