{"direction":"outbound","lineId":"272","lineName":"272","mode":"bus","stopPointSequences":[{"stopPoint":[{"icsId":"1004888","id":"490004888S","lat":51.478721,"lon":-0.268661,"name":"Cavendish Road","parentId":"490G00004888","stationId":"490G00004888","stopLetter":"AR","topMostParentId":"490G00004888"},{"icsId":"1001065","id":"490001065C","lat":51.481359,"lon":-0.269526,"name":"Chiswick Station","parentId":"490G01065C","stationId":"490G01065C","stopLetter":"C","topMostParentId":"910GCHISWCK"},{"icsId":"1009012","id":"490009012N","lat":51.484092,"lon":-0.26948,"name":"Lawford Road","parentId":"490G00009012","stationId":"490G00009012","stopLetter":"D","topMostParentId":"490G00009012"},{"icsId":"1005128","id":"490005128N","lat":51.485867,"lon":-0.268448,"name":"Chesterfield Road","parentId":"490G00005128","stationId":"490G00005128","stopLetter":"E","topMostParentId":"490G00005128"},{"icsId":"1003654","id":"490003654N","lat":51.488824,"lon":-0.266564,"name":"Barrowgate Road","parentId":"490G00003654","stationId":"490G00003654","stopLetter":"F","topMostParentId":"490G00003654"},{"icsId":"1005213","id":"490005213YY","lat":51.490946,"lon":-0.265893,"name":"Chiswick Town Hall","parentId":"490G00005213","stationId":"490G00005213","stopLetter":"YY","topMostParentId":"490G00005213"},{"icsId":"1018738","id":"490000048XX","lat":51.492455,"lon":-0.267046,"name":"Turnham Green / Sutton Lane North","parentId":"490G000924","stationId":"490G000924","stopLetter":"XX","topMostParentId":"490G000924"},{"icsId":"1013848","id":"490013848EE","lat":51.492602,"lon":-0.264174,"name":"Turnham Green Church","parentId":"490G000807","stationId":"490G000807","stopLetter":"EE","topMostParentId":"490G000807"},{"icsId":"1006100","id":"490006100Q","lat":51.493098,"lon":-0.260669,"name":"Dolman Road","parentId":"490G00006100","stationId":"490G00006100","stopLetter":"Q","topMostParentId":"490G00006100"},{"icsId":"1013487","id":"490013487E","lat":51.495741,"lon":-0.258148,"name":"The Orchard","parentId":"490G00013487","stationId":"490G00013487","stopLetter":"L","topMostParentId":"490G00013487"},{"icsId":"1000240","id":"490000240LL","lat":51.49597,"lon":-0.254221,"name":"Turnham Green Station","parentId":"490G00240LL","stationId":"490G00240LL","stopLetter":"LL","topMostParentId":"940GZZLUTNG","zone":"2"},{"icsId":"1003060","id":"490003060E","lat":51.496972,"lon":-0.249673,"name":"Abinger Road","parentId":"490G00003060","stationId":"490G00003060","stopLetter":"->E","topMostParentId":"490G00003060"},{"icsId":"1004438","id":"490004438E","lat":51.506788,"lon":-0.252395,"name":"Bromyard Avenue","parentId":"490G00004438","stationId":"490G00004438","stopLetter":"VT","topMostParentId":"490G00004438"},{"icsId":"1011970","id":"490011970E","lat":51.506856,"lon":-0.248559,"name":"Second Avenue","parentId":"490G00011970","stationId":"490G00011970","stopLetter":"VU","topMostParentId":"490G00011970"},{"icsId":"1018990","id":"490003456E","lat":51.506841,"lon":-0.246341,"name":"First Avenue","parentId":"490G00018990","stationId":"490G00018990","stopLetter":"VV","topMostParentId":"490G00018990"},{"icsId":"1018989","id":"490003456N","lat":51.507069,"lon":-0.245338,"name":"Uxbridge Road","parentId":"490G00018989","stationId":"490G00018989","stopLetter":"OG","topMostParentId":"490G00018989"},{"icsId":"1012942","id":"490012942N","lat":51.5093,"lon":-0.245973,"name":"St Saviour's Church","parentId":"490G00012942","stationId":"490G00012942","stopLetter":"OH","topMostParentId":"490G00012942"},{"icsId":"1011939","id":"490011937N","lat":51.511882,"lon":-0.247286,"name":"Hilary Road","parentId":"490G00011939","stationId":"490G00011939","stopLetter":"U","topMostParentId":"490G00011939"},{"icsId":"1014446","id":"490014446K","lat":51.513333,"lon":-0.249306,"name":"Old Oak Common Lane / Savoy Circus","parentId":"490G00014446","stationId":"490G00014446","stopLetter":"K","topMostParentId":"490G00014446"},{"icsId":"1006221","id":"490000065C","lat":51.515324,"lon":-0.247759,"name":"East Acton Station / Fitzneal Street","parentId":"490G000491","stationId":"490G000491","stopLetter":"C","topMostParentId":"490G000491"},{"icsId":"1014971","id":"490014971D","lat":51.515675,"lon":-0.241779,"name":"Wulfstan Street","parentId":"490G00014971","stationId":"490G00014971","stopLetter":"A","topMostParentId":"490G00014971"},{"icsId":"1007707","id":"490007707E","lat":51.516262,"lon":-0.234737,"name":"Hammersmith Hospital","parentId":"490G00007707","stationId":"490G00007707","stopLetter":"B","topMostParentId":"490G00007707"},{"icsId":"1014869","id":"490014869E","lat":51.516864,"lon":-0.228127,"name":"Latymer Upper School / Playing Fields","parentId":"490G00014869","stationId":"490G00014869","stopLetter":"C","topMostParentId":"490G00014869"},{"icsId":"1014876","id":"490014869S","lat":51.51664,"lon":-0.226983,"name":"Cavell House","parentId":"490G00014876","stationId":"490G00014876","stopLetter":"L","topMostParentId":"490G00014876"},{"icsId":"1012238","id":"490012238S","lat":51.513899,"lon":-0.225317,"name":"South Africa Road","parentId":"490G000748","stationId":"490G000748","stopLetter":"M","topMostParentId":"490G000748"},{"icsId":"1000269","id":"490000269B","lat":51.511767,"lon":-0.224664,"name":"White City Station","parentId":"490G00269B","stationId":"490G00269B","stopLetter":"WA","topMostParentId":"940GZZLUWCY","zone":"2"},{"icsId":"1018981","id":"490003375WB","lat":51.507412,"lon":-0.224502,"name":"Ariel Way / White City Bus Station","parentId":"490G00018981","stationId":"490G00018981","stopLetter":"WB","topMostParentId":"490G00018981"},{"icsId":"1009501","id":"490009501C","lat":51.505731,"lon":-0.224539,"name":"Uxbridge Rd / Westfield Shopping Centre","parentId":"490G000650","stationId":"490G000650","stopLetter":"T","topMostParentId":"490G000650"},{"icsId":"1015059","id":"490015059E","lat":51.504626,"lon":-0.221051,"name":"Shepherd's Bush Green","parentId":"490G000856","stationId":"490G000856","stopLetter":"U","topMostParentId":"HUBSPB"},{"icsId":"1000203","id":"490015036K","lat":51.50389,"lon":-0.219971,"name":"Shepherd's Bush Station","parentId":"490G00203A","stationId":"490G00203A","stopLetter":"F","topMostParentId":"HUBSPB","zone":"2"}]}]}