{"direction":"outbound","lineId":"274","lineName":"274","mode":"bus","stopPointSequences":[{"stopPoint":[{"icsId":"1003327","id":"490003327K","lat":51.531268,"lon":-0.104931,"name":"Angel Islington","parentId":"490G000390","stationId":"490G000390","stopLetter":"UT","topMostParentId":"490G000390"},{"icsId":"1004983","id":"490004983V","lat":51.534289,"lon":-0.108208,"name":"Chapel Market","parentId":"490G00004983","stationId":"490G00004983","stopLetter":"V","topMostParentId":"490G00004983"},{"icsId":"1008516","id":"490008516W","lat":51.534027,"lon":-0.11093,"name":"Penton Street / Islington Police Station","parentId":"490G00008516","stationId":"490G00008516","stopLetter":"Z","topMostParentId":"490G00008516"},{"icsId":"1005581","id":"490005581N","lat":51.535517,"lon":-0.111315,"name":"Copenhagen Street","parentId":"490G00005581","stationId":"490G00005581","stopLetter":"G","topMostParentId":"490G00005581"},{"icsId":"1011554","id":"490011554W","lat":51.536707,"lon":-0.114871,"name":"Hemingford Road","parentId":"490G00011554","stationId":"490G00011554","stopLetter":"H","topMostParentId":"490G00011554"},{"icsId":"1015324","id":"490015324N","lat":51.537778,"lon":-0.116586,"name":"Caledonian Road / Copenhagen Street","parentId":"490G00015324","stationId":"490G00015324","stopLetter":"N","topMostParentId":"490G00015324"},{"icsId":"1012865","id":"490007008N","lat":51.540339,"lon":-0.117043,"name":"Story Street","parentId":"490G00012865","stationId":"490G00012865","stopLetter":"M","topMostParentId":"490G00012865"},{"icsId":"1001043","id":"490001043K","lat":51.543442,"lon":-0.11765,"name":"Caledonian Road & Barnsbury Station","parentId":"490G01043L","stationId":"490G01043L","stopLetter":"K","topMostParentId":"910GCLDNNRB"},{"icsId":"1007615","id":"490007615G","lat":51.546092,"lon":-0.118031,"name":"H M Prison Pentonville","parentId":"490G00007615","stationId":"490G00007615","stopLetter":"G","topMostParentId":"490G00007615"},{"icsId":"1009661","id":"490009661F","lat":51.546774,"lon":-0.119604,"name":"Market Road Gardens","parentId":"490G000659","stationId":"490G000659","stopLetter":"F","topMostParentId":"490G000659"},{"icsId":"1015023","id":"490015023W","lat":51.545187,"lon":-0.125496,"name":"York Way Estate","parentId":"490G00015023","stationId":"490G00015023","stopLetter":"ZD","topMostParentId":"490G00015023"},{"icsId":"1004306","id":"490004306S","lat":51.544342,"lon":-0.126107,"name":"Brewery Road","parentId":"490G00004306","stationId":"490G00004306","stopLetter":"N","topMostParentId":"490G00004306"},{"icsId":"1003119","id":"490003119W","lat":51.543288,"lon":-0.127651,"name":"Agar Grove","parentId":"490G00003119","stationId":"490G00003119","stopLetter":"ZE","topMostParentId":"490G00003119"},{"icsId":"1010127","id":"490010127W","lat":51.543011,"lon":-0.131166,"name":"Murray Street","parentId":"490G00010127","stationId":"490G00010127","stopLetter":"ZF","topMostParentId":"490G00010127"},{"icsId":"1003120","id":"490003120W","lat":51.542452,"lon":-0.133915,"name":"Agar Grove Estate","parentId":"490G00003120","stationId":"490G00003120","stopLetter":"->W","topMostParentId":"490G00003120"},{"icsId":"1001045","id":"490011419H","lat":51.541258,"lon":-0.138016,"name":"Camden Road Station","parentId":"490G01045G","stationId":"490G01045G","stopLetter":"H","topMostParentId":"910GCMDNRD"},{"icsId":"1019167","id":"490000036R","lat":51.540005,"lon":-0.140634,"name":"Camden Town Station / Camden Street","parentId":"490G00019167","stationId":"490G00019167","stopLetter":"R","topMostParentId":"490G00019167"},{"icsId":"1000036","id":"490015531T","lat":51.53875,"lon":-0.140916,"name":"Camden Town Station  / Bayham Street","parentId":"490G00036N","stationId":"490G00036N","stopLetter":"T","topMostParentId":"940GZZLUCTN","zone":"2"},{"icsId":"1011168","id":"490015384V","lat":51.537131,"lon":-0.140838,"name":"Pratt Street","parentId":"490G00011168","stationId":"490G00011168","stopLetter":"CS","topMostParentId":"490G00011168"},{"icsId":"1003380","id":"490003380N","lat":51.536656,"lon":-0.142659,"name":"Arlington Road","parentId":"490G000393","stationId":"490G000393","stopLetter":"CT","topMostParentId":"490G000393"},{"icsId":"1010847","id":"490010040N","lat":51.536336,"lon":-0.144605,"name":"Parkway","parentId":"490G00010847","stationId":"490G00010847","stopLetter":"CU","topMostParentId":"490G00010847"},{"icsId":"1007244","id":"490007244N","lat":51.537392,"lon":-0.147691,"name":"Gloucester Avenue","parentId":"490G00007244","stationId":"490G00007244","stopLetter":"->W","topMostParentId":"490G00007244"},{"icsId":"1011514","id":"490011514W","lat":51.538043,"lon":-0.151313,"name":"Regent's Park Road","parentId":"490G00011514","stationId":"490G00011514","stopLetter":"A","topMostParentId":"490G00011514"},{"icsId":"1009291","id":"490009291A","lat":51.537365,"lon":-0.153964,"name":"Zsl London Zoo","parentId":"490G00009291","stationId":"490G00009291","stopLetter":"B","topMostParentId":"490G00009291"},{"icsId":"1014371","id":"490014371W","lat":51.536061,"lon":-0.160232,"name":"Wells Rise","parentId":"490G00014371","stationId":"490G00014371","stopLetter":"C","topMostParentId":"490G00014371"},{"icsId":"1003497","id":"490003497W","lat":51.535168,"lon":-0.162964,"name":"Avenue Road","parentId":"490G00003497","stationId":"490G00003497","stopLetter":"D","topMostParentId":"490G00003497"},{"icsId":"1006302","id":"490006302W","lat":51.533562,"lon":-0.16548,"name":"Eamont Street","parentId":"490G00006302","stationId":"490G00006302","stopLetter":"E","topMostParentId":"490G00006302"},{"icsId":"1011190","id":"490011190L","lat":51.531211,"lon":-0.166959,"name":"Prince Albert Rd / Lord's Cricket Ground","parentId":"490G00011190","stationId":"490G00011190","stopLetter":"L","topMostParentId":"490G00011190"},{"icsId":"1010816","id":"490010816P","lat":51.529375,"lon":-0.166859,"name":"London Central Mosque","parentId":"490G00010816","stationId":"490G00010816","stopLetter":"P","topMostParentId":"490G00010816"},{"icsId":"1003269","id":"490003269S","lat":51.52756,"lon":-0.164669,"name":"Alpha Close","parentId":"490G00003269","stationId":"490G00003269","stopLetter":"LA","topMostParentId":"490G00003269"},{"icsId":"1011716","id":"490011716S","lat":51.526169,"lon":-0.161986,"name":"London Business School","parentId":"490G00011716","stationId":"490G00011716","stopLetter":"LB","topMostParentId":"490G00011716"},{"icsId":"1000011","id":"490000011A","lat":51.523283,"lon":-0.157979,"name":"Baker Street Station","parentId":"490G00011B","stationId":"490G00011B","stopLetter":"A","topMostParentId":"940GZZLUBST","zone":"1"},{"icsId":"1009990","id":"490015021G","lat":51.521055,"lon":-0.156959,"name":"York Street","parentId":"490G00009990","stationId":"490G00009990","stopLetter":"G","topMostParentId":"490G00009990"},{"icsId":"1020105","id":"490004096H","lat":51.517123,"lon":-0.155143,"name":"Blandford Street","parentId":"490G00004096","stationId":"490G00004096","stopLetter":"H","topMostParentId":"490G00004096"},{"icsId":"1010622","id":"490010622L","lat":51.514379,"lon":-0.153914,"name":"Orchard Street / Selfridges","parentId":"490G00010622","stationId":"490G00010622","stopLetter":"BZ","topMostParentId":"490G00010622"},{"icsId":"1000144","id":"490000144P","lat":51.513457,"lon":-0.157612,"name":"Marble Arch Station","parentId":"490G00144L","stationId":"490G00144L","stopLetter":"P","topMostParentId":"940GZZLUMBA","zone":"1"},{"icsId":"1008447","id":"490000144A","lat":51.512836,"lon":-0.163315,"name":"Marble Arch / Bayswater Road","parentId":"490G00008447","stationId":"490G00008447","stopLetter":"A","topMostParentId":"490G00008447"},{"icsId":"1008446","id":"490008446W","lat":51.51247,"lon":-0.166918,"name":"Hyde Park Street","parentId":"490G00008446","stationId":"490G00008446","stopLetter":"B","topMostParentId":"490G00008446"},{"icsId":"1014055","id":"490014055W","lat":51.512088,"lon":-0.170652,"name":"Victoria Gate","parentId":"490G00014055","stationId":"490G00014055","stopLetter":"LD","topMostParentId":"490G00014055"},{"icsId":"1000133","id":"490000133A","lat":51.512135,"lon":-0.176025,"name":"Lancaster Gate Station","parentId":"490G00133B","stationId":"490G00133B","stopLetter":"LA","topMostParentId":"940GZZLULGT","zone":"1"}]}]}