{"direction":"outbound","lineId":"28","lineName":"28","mode":"bus","stopPointSequences":[{"stopPoint":[{"icsId":"1012622","id":"490012622S","lat":51.533217,"lon":-0.218337,"name":"Station Terrace","parentId":"490G00012622","stationId":"490G00012622","stopLetter":"KJ","topMostParentId":"490G00012622"},{"icsId":"1003583","id":"490003583S","lat":51.53047,"lon":-0.216296,"name":"Banister Road","parentId":"490G00003583","stationId":"490G00003583","stopLetter":"KM","topMostParentId":"490G00003583"},{"icsId":"1007860","id":"490007860S","lat":51.528487,"lon":-0.21597,"name":"Harrow Road / Kilburn Lane","parentId":"490G00007860","stationId":"490G00007860","stopLetter":"KN","topMostParentId":"490G00007860"},{"icsId":"1006839","id":"490006832E","lat":51.527172,"lon":-0.212893,"name":"Fifth Avenue","parentId":"490G00006839","stationId":"490G00006839","stopLetter":"Z","topMostParentId":"490G00006839"},{"icsId":"1013613","id":"490013613E","lat":51.52678,"lon":-0.209044,"name":"Third Avenue","parentId":"490G00013613","stationId":"490G00013613","stopLetter":"P","topMostParentId":"490G00013613"},{"icsId":"1011135","id":"490011135E","lat":51.525765,"lon":-0.20437,"name":"Portnall Road","parentId":"490G00011135","stationId":"490G00011135","stopLetter":"R","topMostParentId":"490G00011135"},{"icsId":"1018988","id":"490003444E","lat":51.524711,"lon":-0.202494,"name":"Great Western Road / Elgin Avenue","parentId":"490G00018988","stationId":"490G00018988","stopLetter":"D","topMostParentId":"490G00018988"},{"icsId":"1018986","id":"490007861K","lat":51.523123,"lon":-0.201591,"name":"Great Western Road / Harrow Road","parentId":"490G00018986","stationId":"490G00018986","stopLetter":"K","topMostParentId":"490G00018986"},{"icsId":"1000259","id":"490000259B","lat":51.520274,"lon":-0.19993,"name":"Westbourne Park Station","parentId":"490G00259A","stationId":"490G00259A","stopLetter":"B","topMostParentId":"940GZZLUWSP","zone":"2"},{"icsId":"1007420","id":"490008697N","lat":51.518924,"lon":-0.197533,"name":"Shrewsbury Road / Brunel Estate","parentId":"490G00007420","stationId":"490G00007420","stopLetter":"N","topMostParentId":"490G00007420"},{"icsId":"1012948","id":"490012948S","lat":51.517983,"lon":-0.195942,"name":"St Stephens Gardens","parentId":"490G00012948","stationId":"490G00012948","stopLetter":"->S","topMostParentId":"490G00012948"},{"icsId":"1014402","id":"490014402Z","lat":51.515498,"lon":-0.195161,"name":"Westbourne Grove","parentId":"490G00014402","stationId":"490G00014402","stopLetter":"Z","topMostParentId":"490G00014402"},{"icsId":"1005089","id":"490005089D","lat":51.514586,"lon":-0.195514,"name":"Pembridge Villas","parentId":"490G00005089","stationId":"490G00005089","stopLetter":"PW","topMostParentId":"490G00005089"},{"icsId":"1005085","id":"490005085S","lat":51.512835,"lon":-0.197428,"name":"Chepstow Crescent","parentId":"490G00005085","stationId":"490G00005085","stopLetter":"PX","topMostParentId":"490G00005085"},{"icsId":"1000167","id":"490015039C","lat":51.50926,"lon":-0.197079,"name":"Notting Hill Gate Station","parentId":"490G00167G","stationId":"490G00167G","stopLetter":"C","topMostParentId":"940GZZLUNHG","zone":"1+2"},{"icsId":"1019161","id":"490000167K","lat":51.509095,"lon":-0.193973,"name":"Palace Gardens Terr / Notting Hill Gte","parentId":"490G00019161","stationId":"490G00019161","stopLetter":"K","topMostParentId":"490G00019161"},{"icsId":"1012055","id":"490012055S","lat":51.506873,"lon":-0.194522,"name":"Sheffield Terrace","parentId":"490G00012055","stationId":"490G00012055","stopLetter":"P","topMostParentId":"490G00012055"},{"icsId":"1010536","id":"490010536K","lat":51.503676,"lon":-0.191867,"name":"York House Place / Kensington High St","parentId":"490G00010536","stationId":"490G00010536","stopLetter":"K","topMostParentId":"490G00010536"},{"icsId":"1000110","id":"490000110E","lat":51.501326,"lon":-0.192234,"name":"High Street Kensington Station","parentId":"490G00110R","stationId":"490G00110R","stopLetter":"E","topMostParentId":"940GZZLUHSK","zone":"1"},{"icsId":"1010984","id":"490010984T","lat":51.499808,"lon":-0.196487,"name":"Phillimore Gardens","parentId":"490G00010984","stationId":"490G00010984","stopLetter":"T","topMostParentId":"490G00010984"},{"icsId":"1005528","id":"490005528X","lat":51.498772,"lon":-0.199279,"name":"The Design Museum","parentId":"490G00005528","stationId":"490G00005528","stopLetter":"X","topMostParentId":"490G00005528"},{"icsId":"1003106","id":"490003106W","lat":51.497528,"lon":-0.203175,"name":"Warwick Gardens","parentId":"490G00003106","stationId":"490G00003106","stopLetter":"Z","topMostParentId":"490G00003106"},{"icsId":"1000170","id":"490008652C","lat":51.496238,"lon":-0.20641,"name":"Kensington Olympia Station","parentId":"490G08652C","stationId":"490G08652C","stopLetter":"C","topMostParentId":"HUBKPA","zone":"2"},{"icsId":"1007709","id":"490007709S","lat":51.49443,"lon":-0.210543,"name":"Kensington Olympia","parentId":"490G00007709","stationId":"490G00007709","stopLetter":"P","topMostParentId":"HUBKPA"},{"icsId":"1009492","id":"490009492S","lat":51.49267,"lon":-0.207717,"name":"Lytton Estate","parentId":"490G00009492","stationId":"490G00009492","stopLetter":"R","topMostParentId":"490G00009492"},{"icsId":"1000265","id":"490000265A","lat":51.490567,"lon":-0.206632,"name":"West Kensington Station","parentId":"490G00265W","stationId":"490G00265W","stopLetter":"S","topMostParentId":"940GZZLUWKN","zone":"2"},{"icsId":"1014485","id":"490014485S","lat":51.488033,"lon":-0.203808,"name":"West Kensington Estate","parentId":"490G00014485","stationId":"490G00014485","stopLetter":"BS","topMostParentId":"490G00014485"},{"icsId":"1009156","id":"490009156X","lat":51.486137,"lon":-0.202773,"name":"Lillie Road","parentId":"490G00009156","stationId":"490G00009156","stopLetter":"BR","topMostParentId":"490G00009156"},{"icsId":"1011382","id":"490011382Z","lat":51.483994,"lon":-0.20136,"name":"North End Road Market","parentId":"490G00011382","stationId":"490G00011382","stopLetter":"BH","topMostParentId":"490G00011382"},{"icsId":"1000352","id":"490008547E","lat":51.480217,"lon":-0.198441,"name":"Fulham Broadway","parentId":"490G00000352","stationId":"490G00000352","stopLetter":"E","topMostParentId":"490G00000352"},{"icsId":"1007057","id":"490007057S","lat":51.479249,"lon":-0.194533,"name":"Fulham Town Hall","parentId":"490G000526","stationId":"490G000526","stopLetter":"S","topMostParentId":"490G000526"},{"icsId":"1013888","id":"490013888S","lat":51.477803,"lon":-0.192329,"name":"Tyrawley Road","parentId":"490G00013888","stationId":"490G00013888","stopLetter":"GE","topMostParentId":"490G00013888"},{"icsId":"1010225","id":"490010225S","lat":51.47554,"lon":-0.192519,"name":"New King's Road","parentId":"490G00010225","stationId":"490G00010225","stopLetter":"GQ","topMostParentId":"490G00010225"},{"icsId":"1018012","id":"490018012S","lat":51.473921,"lon":-0.19195,"name":"Bovingdon Road","parentId":"490G00018012","stationId":"490G00018012","topMostParentId":"490G00018012"},{"icsId":"1011916","id":"490011916S","lat":51.471772,"lon":-0.191372,"name":"Sands End / Hazlebury Road","parentId":"490G00011916","stationId":"490G00011916","stopLetter":"->S","topMostParentId":"490G00011916"},{"icsId":"1010474","id":"490010474S","lat":51.470021,"lon":-0.190981,"name":"Oakbury Road","parentId":"490G00010474","stationId":"490G00010474","stopLetter":"TK","topMostParentId":"490G00010474"},{"icsId":"1008434","id":"490008434S","lat":51.467089,"lon":-0.189729,"name":"Townmead Road","parentId":"490G00008434","stationId":"490G00008434","stopLetter":"TL","topMostParentId":"490G00008434"},{"icsId":"1004326","id":"490004326S","lat":51.463347,"lon":-0.186177,"name":"Bridgend Road","parentId":"490G00004326","stationId":"490G00004326","stopLetter":"TM","topMostParentId":"490G00004326"},{"icsId":"1012212","id":"490012212W","lat":51.461791,"lon":-0.186743,"name":"Swandon Way","parentId":"490G00012212","stationId":"490G00012212","stopLetter":"TB","topMostParentId":"490G00012212"},{"icsId":"1001311","id":"490001311W","lat":51.460339,"lon":-0.188225,"name":"Wandsworth Town Station","parentId":"490G01311E","stationId":"490G01311E","stopLetter":"BB","topMostParentId":"910GWDWTOWN"},{"icsId":"1013707","id":"490013707J","lat":51.459536,"lon":-0.189783,"name":"Tonsley Street","parentId":"490G00013707","stationId":"490G00013707","stopLetter":"J","topMostParentId":"490G00013707"},{"icsId":"1014195","id":"490014195M","lat":51.457876,"lon":-0.190022,"name":"Wandsworth Town Hall","parentId":"490G00014195","stationId":"490G00014195","stopLetter":"M","topMostParentId":"490G00014195"},{"icsId":"1019847","id":"490014184S","lat":51.455766,"lon":-0.192566,"name":"Southside Shopping Centre","parentId":"490G00019847","stationId":"490G00019847","stopLetter":"S","topMostParentId":"490G00019847"},{"icsId":"1015371","id":"490015371W","lat":51.453956,"lon":-0.193012,"name":"Mapleton Crescent","parentId":"490G00015371","stationId":"490G00015371","stopLetter":"->W","topMostParentId":"490G00015371"}]}]}