{"direction":"outbound","lineId":"283","lineName":"283","mode":"bus","stopPointSequences":[{"stopPoint":[{"icsId":"1004524","id":"490015061O","lat":51.519857,"lon":-0.250843,"name":"Brunel Road","parentId":"490G00004524","stationId":"490G00004524","stopLetter":"O","topMostParentId":"490G00004524"},{"icsId":"1013349","id":"490013349A","lat":51.518259,"lon":-0.250371,"name":"The Fairway","parentId":"490G00013349","stationId":"490G00013349","stopLetter":"A","topMostParentId":"490G00013349"},{"icsId":"1006211","id":"490006211B","lat":51.51562,"lon":-0.249492,"name":"East Acton Station  / Erconwald Street","parentId":"490G000490","stationId":"490G000490","stopLetter":"B","topMostParentId":"490G000490"},{"icsId":"1006221","id":"490000065C","lat":51.515324,"lon":-0.247759,"name":"East Acton Station / Fitzneal Street","parentId":"490G000491","stationId":"490G000491","stopLetter":"C","topMostParentId":"490G000491"},{"icsId":"1014971","id":"490014971D","lat":51.515675,"lon":-0.241779,"name":"Wulfstan Street","parentId":"490G00014971","stationId":"490G00014971","stopLetter":"A","topMostParentId":"490G00014971"},{"icsId":"1007707","id":"490007707E","lat":51.516262,"lon":-0.234737,"name":"Hammersmith Hospital","parentId":"490G00007707","stationId":"490G00007707","stopLetter":"B","topMostParentId":"490G00007707"},{"icsId":"1014869","id":"490014869E","lat":51.516864,"lon":-0.228127,"name":"Latymer Upper School / Playing Fields","parentId":"490G00014869","stationId":"490G00014869","stopLetter":"C","topMostParentId":"490G00014869"},{"icsId":"1014876","id":"490014869S","lat":51.51664,"lon":-0.226983,"name":"Cavell House","parentId":"490G00014876","stationId":"490G00014876","stopLetter":"L","topMostParentId":"490G00014876"},{"icsId":"1014578","id":"490014578W","lat":51.514732,"lon":-0.231049,"name":"White City Estate","parentId":"490G00014578","stationId":"490G00014578","stopLetter":"V","topMostParentId":"490G00014578"},{"icsId":"1003086","id":"490003086U","lat":51.513833,"lon":-0.235278,"name":"Westway","parentId":"490G00003086","stationId":"490G00003086","stopLetter":"U","topMostParentId":"490G00003086"},{"icsId":"1008539","id":"490008539S","lat":51.511336,"lon":-0.234841,"name":"Janet Adegoke Leisure Centre","parentId":"490G00008539","stationId":"490G00008539","stopLetter":"LN","topMostParentId":"490G00008539"},{"icsId":"1006487","id":"490006487LS","lat":51.508308,"lon":-0.234439,"name":"Ellerslie Road","parentId":"490G00006487","stationId":"490G00006487","stopLetter":"LS","topMostParentId":"490G00006487"},{"icsId":"1004111","id":"490004111E2","lat":51.506543,"lon":-0.233672,"name":"Bloemfontein Road","parentId":"490G00004111","stationId":"490G00004111","stopLetter":"LC","topMostParentId":"490G00004111"},{"icsId":"1006065","id":"490009257E","lat":51.506334,"lon":-0.231101,"name":"Loftus Road","parentId":"490G00006065","stationId":"490G00006065","stopLetter":"LD","topMostParentId":"490G00006065"},{"icsId":"1012066","id":"490012066B","lat":51.505553,"lon":-0.226462,"name":"Shepherd's Bush Market Station","parentId":"490G000741","stationId":"490G000741","stopLetter":"R","topMostParentId":"490G000741"},{"icsId":"1015059","id":"490015059E","lat":51.504626,"lon":-0.221051,"name":"Shepherd's Bush Green","parentId":"490G000856","stationId":"490G000856","stopLetter":"U","topMostParentId":"HUBSPB"},{"icsId":"1000203","id":"490015036K","lat":51.50389,"lon":-0.219971,"name":"Shepherd's Bush Station","parentId":"490G00203A","stationId":"490G00203A","stopLetter":"F","topMostParentId":"HUBSPB","zone":"2"},{"icsId":"1012127","id":"490012127N","lat":51.502718,"lon":-0.222754,"name":"Goldhawk Road","parentId":"490G00012127","stationId":"490G00012127","stopLetter":"G","topMostParentId":"490G00012127"},{"icsId":"1004121","id":"490004121S","lat":51.499261,"lon":-0.221866,"name":"Blythe Road","parentId":"490G00004121","stationId":"490G00004121","stopLetter":"A","topMostParentId":"490G00004121"},{"icsId":"1004456","id":"490004456S","lat":51.496868,"lon":-0.22301,"name":"Brook Green","parentId":"490G00004456","stationId":"490G00004456","stopLetter":"B","topMostParentId":"490G00004456"},{"icsId":"1007708","id":"490007708X","lat":51.494216,"lon":-0.223632,"name":"Hammersmith Library","parentId":"490G000567","stationId":"490G000567","stopLetter":"R","topMostParentId":"490G000567"},{"icsId":"1007705","id":"490007705K","lat":51.49258,"lon":-0.223105,"name":"Hammersmith Bus Station","parentId":"490G000565","stationId":"490G000565","stopLetter":"K","topMostParentId":"HUBHMS"}]}]}