{"direction":"outbound","lineId":"285","lineName":"285","mode":"bus","stopPointSequences":[{"stopPoint":[{"icsId":"1008016","id":"4900801619","lat":51.471367,"lon":-0.453456,"name":"Heathrow Central Bus Station","parentId":"910GHTRWCBS","stationId":"910GHTRWCBS","stopLetter":"19","topMostParentId":"HUBH13"},{"icsId":"1010245","id":"490010245N","lat":51.480332,"lon":-0.459575,"name":"Newport Road","parentId":"490G00010245","stationId":"490G00010245","stopLetter":"BS","topMostParentId":"490G00010245"},{"icsId":"1012177","id":"490012177E","lat":51.481405,"lon":-0.455017,"name":"Sipson Way / Blunts Avenue","parentId":"490G00012177","stationId":"490G00012177","stopLetter":"BC","topMostParentId":"490G00012177"},{"icsId":"1012176","id":"490012176E","lat":51.481325,"lon":-0.448237,"name":"Nene Road","parentId":"490G00012176","stationId":"490G00012176","stopLetter":"BJ","topMostParentId":"490G00012176"},{"icsId":"1004139","id":"490004139E","lat":51.481172,"lon":-0.444843,"name":"Bolton's Lane","parentId":"490G00004139","stationId":"490G00004139","stopLetter":"BK","topMostParentId":"490G00004139"},{"icsId":"1010251","id":"490010251G","lat":51.480971,"lon":-0.43919,"name":"New Road","parentId":"490G00010251","stationId":"490G00010251","stopLetter":"D","topMostParentId":"490G00010251"},{"icsId":"1007905","id":"490010377F","lat":51.479478,"lon":-0.432487,"name":"Hatton Road North","parentId":"490G00007905","stationId":"490G00007905","stopLetter":"K","topMostParentId":"490G00007905"},{"icsId":"1019817","id":"490010349S","lat":51.477069,"lon":-0.426464,"name":"Eastchurch Road","parentId":"490G00019817","stationId":"490G00019817","topMostParentId":"490G00019817"},{"icsId":"1017652","id":"490017652W","lat":51.469036,"lon":-0.419556,"name":"Envoy Avenue","parentId":"490G00017652","stationId":"490G00017652","stopLetter":"M","topMostParentId":"490G00017652"},{"icsId":"1000103","id":"490000103C","lat":51.46683,"lon":-0.423332,"name":"Hatton Cross Station","parentId":"490G00103G","stationId":"490G00103G","stopLetter":"C","topMostParentId":"940GZZLUHNX","zone":"5+6"},{"icsId":"1007904","id":"490007904H","lat":51.466138,"lon":-0.421369,"name":"Great South West Road","parentId":"490G00007904","stationId":"490G00007904","stopLetter":"H","topMostParentId":"490G00007904"},{"icsId":"1007902","id":"490007902S","lat":51.463891,"lon":-0.416135,"name":"Hatton Green","parentId":"490G00007902","stationId":"490G00007902","stopLetter":"->S","topMostParentId":"490G00007902"},{"icsId":"1004940","id":"490004940S","lat":51.458975,"lon":-0.411699,"name":"Central Way","parentId":"490G00004940","stationId":"490G00004940","stopLetter":"H","topMostParentId":"490G00004940"},{"icsId":"1007813","id":"490007813S","lat":51.45656,"lon":-0.40935,"name":"Lansbury Avenue","parentId":"490G00007813","stationId":"490G00007813","stopLetter":"J","topMostParentId":"490G00007813"},{"icsId":"1015730","id":"490015730S","lat":51.451347,"lon":-0.406221,"name":"Feltham Assembly Hall","parentId":"490G00015730","stationId":"490G00015730","stopLetter":"S","topMostParentId":"490G00015730"},{"icsId":"1006781","id":"490006781S","lat":51.450091,"lon":-0.407085,"name":"Fern Grove","parentId":"490G00006781","stationId":"490G00006781","topMostParentId":"490G00006781"},{"icsId":"1001107","id":"490001107D","lat":51.448046,"lon":-0.410754,"name":"Feltham Station","parentId":"490G01107B","stationId":"490G01107B","stopLetter":"D","topMostParentId":"910GFELTHAM"},{"icsId":"1015730","id":"490006781N","lat":51.450716,"lon":-0.406747,"name":"Feltham Assembly Hall","parentId":"490G00015730","stationId":"490G00015730","stopLetter":"T","topMostParentId":"490G00015730"},{"icsId":"1004504","id":"490004504S","lat":51.444993,"lon":-0.398528,"name":"Browells Lane","parentId":"490G00004504","stationId":"490G00004504","stopLetter":"AB","topMostParentId":"490G00004504"},{"icsId":"1014673","id":"490014673S1","lat":51.443339,"lon":-0.394657,"name":"Wigley Road","parentId":"490G00014673","stationId":"490G00014673","stopLetter":"AC","topMostParentId":"490G00014673"},{"icsId":"1006780","id":"490006780E","lat":51.441896,"lon":-0.391053,"name":"Hanworth Air Park Leisure Ctr & Library","parentId":"490G00006780","stationId":"490G00006780","stopLetter":"AD","topMostParentId":"490G00006780"},{"icsId":"1008402","id":"490008402S","lat":51.439892,"lon":-0.386562,"name":"Hounslow Road / Hanworth","parentId":"490G00008402","stationId":"490G00008402","stopLetter":"AE","topMostParentId":"490G00008402"},{"icsId":"1007730","id":"490007730S","lat":51.438188,"lon":-0.382363,"name":"Popham Close","parentId":"490G00007730","stationId":"490G00007730","stopLetter":"C","topMostParentId":"490G00007730"},{"icsId":"1015342","id":"490015342S1","lat":51.437009,"lon":-0.379657,"name":"Apex Corner / Hampton Road West","parentId":"490G00015342","stationId":"490G00015342","stopLetter":"D","topMostParentId":"490G00015342"},{"icsId":"1015343","id":"490015343S2","lat":51.435801,"lon":-0.376866,"name":"Hampton Road East","parentId":"490G00015343","stationId":"490G00015343","stopLetter":"E","topMostParentId":"490G00015343"},{"icsId":"1007770","id":"490007770N","lat":51.434717,"lon":-0.375178,"name":"Uxbridge Road / Hampton Sainsbury's","parentId":"490G00007770","stationId":"490G00007770","stopLetter":"S","topMostParentId":"490G00007770"},{"icsId":"1009309","id":"490009309E","lat":51.434213,"lon":-0.371282,"name":"Longford Close","parentId":"490G00009309","stationId":"490G00009309","stopLetter":"F","topMostParentId":"490G00009309"},{"icsId":"1011345","id":"490011345E","lat":51.433122,"lon":-0.368458,"name":"Queens Road","parentId":"490G00011345","stationId":"490G00011345","stopLetter":"G","topMostParentId":"490G00011345"},{"icsId":"1010804","id":"490010804E","lat":51.430652,"lon":-0.366057,"name":"Park Road","parentId":"490G00010804","stationId":"490G00010804","stopLetter":"->E","topMostParentId":"490G00010804"},{"icsId":"1012730","id":"490012730S","lat":51.42907,"lon":-0.364819,"name":"Windmill Road","parentId":"490G00012730","stationId":"490G00012730","stopLetter":"HE","topMostParentId":"490G00012730"},{"icsId":"1016458","id":"490016458S","lat":51.425349,"lon":-0.363053,"name":"Hanworth Road","parentId":"490G00016458","stationId":"490G00016458","stopLetter":"HF","topMostParentId":"490G00016458"},{"icsId":"1016407","id":"490016407E","lat":51.422174,"lon":-0.360405,"name":"Ormond Drive","parentId":"490G00016407","stationId":"490G00016407","stopLetter":"HJ","topMostParentId":"490G00016407"},{"icsId":"1013975","id":"490013975N","lat":51.422395,"lon":-0.358901,"name":"Uxbridge Road","parentId":"490G00013975","stationId":"490G00013975","stopLetter":"HK","topMostParentId":"490G00013975"},{"icsId":"1007733","id":"490007733N","lat":51.424818,"lon":-0.357851,"name":"Holly Road","parentId":"490G00007733","stationId":"490G00007733","stopLetter":"HL","topMostParentId":"490G00007733"},{"icsId":"1007732","id":"490007732N","lat":51.426655,"lon":-0.35616,"name":"Cross Street","parentId":"490G00007732","stationId":"490G00007732","stopLetter":"HM","topMostParentId":"490G00007732"},{"icsId":"1010806","id":"490010806N","lat":51.428123,"lon":-0.355014,"name":"Parkside","parentId":"490G00010806","stationId":"490G00010806","stopLetter":"HN","topMostParentId":"490G00010806"},{"icsId":"1008814","id":"490008814E","lat":51.42859,"lon":-0.351113,"name":"Kings Road","parentId":"490G00008814","stationId":"490G00008814","topMostParentId":"490G00008814"},{"icsId":"1010685","id":"490010685E","lat":51.427829,"lon":-0.348824,"name":"Oxford Road","parentId":"490G00010685","stationId":"490G00010685","stopLetter":"->E","topMostParentId":"490G00010685"},{"icsId":"1010157","id":"490010157E","lat":51.427436,"lon":-0.345803,"name":"National Physical Laboratory","parentId":"490G00010157","stationId":"490G00010157","stopLetter":"->E","topMostParentId":"490G00010157"},{"icsId":"1013176","id":"490013175E","lat":51.426575,"lon":-0.340915,"name":"Teddington Memorial Hospital","parentId":"490G00013176","stationId":"490G00013176","stopLetter":"L","topMostParentId":"490G00013176"},{"icsId":"1004377","id":"490004377E","lat":51.426068,"lon":-0.336863,"name":"Broad Street / Teddington","parentId":"490G00004377","stationId":"490G00004377","stopLetter":"E","topMostParentId":"490G00004377"},{"icsId":"1013172","id":"490013172C","lat":51.427108,"lon":-0.333416,"name":"Elmfield Avenue","parentId":"490G00013172","stationId":"490G00013172","stopLetter":"C","topMostParentId":"490G00013172"},{"icsId":"1004709","id":"490004709E","lat":51.427503,"lon":-0.327705,"name":"Cambridge Road","parentId":"490G00004709","stationId":"490G00004709","stopLetter":"L","topMostParentId":"490G00004709"},{"icsId":"1013174","id":"490013174E","lat":51.428645,"lon":-0.325175,"name":"Teddington Lock","parentId":"490G00013174","stationId":"490G00013174","stopLetter":"M","topMostParentId":"490G00013174"},{"icsId":"1009699","id":"490009699S","lat":51.426351,"lon":-0.323259,"name":"Marston Road","parentId":"490G00009699","stationId":"490G00009699","stopLetter":"P","topMostParentId":"490G00009699"},{"icsId":"1003465","id":"490003465S","lat":51.423842,"lon":-0.321337,"name":"Kingston Lane","parentId":"490G00003465","stationId":"490G00003465","stopLetter":"Q","topMostParentId":"490G00003465"},{"icsId":"1012449","id":"490012449S","lat":51.421636,"lon":-0.319261,"name":"St Mark's Road","parentId":"490G00012449","stationId":"490G00012449","stopLetter":"R","topMostParentId":"490G00012449"},{"icsId":"1010311","id":"490010311S","lat":51.418871,"lon":-0.316457,"name":"Fairfax Road","parentId":"490G00010311","stationId":"490G00010311","stopLetter":"E","topMostParentId":"490G00010311"},{"icsId":"1013947","id":"490013947S","lat":51.417057,"lon":-0.31474,"name":"Woffington Close","parentId":"490G00013947","stationId":"490G00013947","stopLetter":"F","topMostParentId":"490G00013947"},{"icsId":"1001134","id":"490001134B","lat":51.414252,"lon":-0.312269,"name":"Hampton Wick Station","parentId":"490G01134B","stationId":"490G01134B","stopLetter":"G","topMostParentId":"910GHAMWICK"},{"icsId":"1009430","id":"490009430K","lat":51.411714,"lon":-0.310911,"name":"Lower Teddington Road","parentId":"490G00009430","stationId":"490G00009430","stopLetter":"H","topMostParentId":"490G00009430"},{"icsId":"1003909","id":"490003909N","lat":51.411551,"lon":-0.305826,"name":"Wood Street","parentId":"490G00003909","stationId":"490G00003909","stopLetter":"N","topMostParentId":"490G00003909"},{"icsId":"1005800","id":"490005800A2","lat":51.412366,"lon":-0.298807,"name":"Cromwell Road Bus Station","parentId":"490G000476","stationId":"490G000476","stopLetter":"A2","topMostParentId":"490G000476"}]}]}