{"direction":"outbound","lineId":"286","lineName":"286","mode":"bus","stopPointSequences":[{"stopPoint":[{"icsId":"1011319","id":"490011319HB","lat":51.418635,"lon":0.104835,"name":"Queen Mary's Hospital / Cancer Unit","parentId":"490G00011319","stationId":"490G00011319","stopLetter":"HB","topMostParentId":"490G00011319"},{"icsId":"1011321","id":"490011321HA","lat":51.419685,"lon":0.101949,"name":"Queen Mary's Hospital / Main Entrance","parentId":"490G00011321","stationId":"490G00011321","stopLetter":"HA","topMostParentId":"490G00011321"},{"icsId":"1012150","id":"490012139HJ","lat":51.420321,"lon":0.099131,"name":"Queen Mary's Hospital","parentId":"490G00012150","stationId":"490G00012150","stopLetter":"HJ","topMostParentId":"490G00012150"},{"icsId":"1013421","id":"490013421N","lat":51.423405,"lon":0.100667,"name":"The Green","parentId":"490G00013421","stationId":"490G00013421","stopLetter":"X","topMostParentId":"490G00013421"},{"icsId":"1019822","id":"490012140R","lat":51.426136,"lon":0.100793,"name":"Carlton Road","parentId":"490G00019822","stationId":"490G00019822","stopLetter":"R","topMostParentId":"490G00019822"},{"icsId":"1005747","id":"490005743N","lat":51.431341,"lon":0.101923,"name":"Crescent Road","parentId":"490G00005747","stationId":"490G00005747","stopLetter":"N","topMostParentId":"490G00005747"},{"icsId":"1019885","id":"490015177L","lat":51.432571,"lon":0.102498,"name":"Sidcup Station  / Station Road","parentId":"490G000962","stationId":"490G000962","stopLetter":"L","topMostParentId":"490G000962"},{"icsId":"1016199","id":"490015178A","lat":51.435142,"lon":0.102098,"name":"Old Farm Avenue","parentId":"490G00016199","stationId":"490G00016199","stopLetter":"A","topMostParentId":"490G00016199"},{"icsId":"1014998","id":"490014998W","lat":51.437257,"lon":0.098468,"name":"Halfway Street / Old Farm Road West","parentId":"490G00014998","stationId":"490G00014998","topMostParentId":"490G00014998"},{"icsId":"1008291","id":"490008291W","lat":51.438219,"lon":0.09398,"name":"Hollies Avenue","parentId":"490G00008291","stationId":"490G00008291","stopLetter":"->W","topMostParentId":"490G00008291"},{"icsId":"1005605","id":"490005605N","lat":51.439719,"lon":0.088509,"name":"Corbylands Road","parentId":"490G00005605","stationId":"490G00005605","stopLetter":"->N","topMostParentId":"490G00005605"},{"icsId":"1007667","id":"490007667N","lat":51.44181,"lon":0.085726,"name":"Halfway Street / Days Lane","parentId":"490G00007667","stationId":"490G00007667","stopLetter":"AS","topMostParentId":"490G00007667"},{"icsId":"1011535","id":"490011535N","lat":51.444663,"lon":0.082042,"name":"Restons Crescent","parentId":"490G00011535","stationId":"490G00011535","stopLetter":"AT","topMostParentId":"490G00011535"},{"icsId":"1003506","id":"490003506N","lat":51.445948,"lon":0.081583,"name":"University Of Greenwich / Southwood Site","parentId":"490G00003506","stationId":"490G00003506","stopLetter":"AC","topMostParentId":"490G00003506"},{"icsId":"1011582","id":"490011582W","lat":51.451151,"lon":0.077789,"name":"Riefield Road","parentId":"490G00011582","stationId":"490G00011582","stopLetter":"AD","topMostParentId":"490G00011582"},{"icsId":"1003505","id":"490003505W","lat":51.451874,"lon":0.073519,"name":"University Of Greenwich / Mansion Site","parentId":"490G00003505","stationId":"490G00003505","stopLetter":"AE","topMostParentId":"490G00003505"},{"icsId":"1007227","id":"490007227W","lat":51.451408,"lon":0.066287,"name":"Bexley Road / Glenesk Road","parentId":"490G00007227","stationId":"490G00007227","stopLetter":"AF","topMostParentId":"490G00007227"},{"icsId":"1006548","id":"490006548W","lat":51.450706,"lon":0.061232,"name":"Eltham High Street / Foots Cray Road","parentId":"490G00006548","stationId":"490G00006548","stopLetter":"T","topMostParentId":"490G00006548"},{"icsId":"1006547","id":"490006533R","lat":51.450741,"lon":0.058211,"name":"Eltham High Street / Pound Place","parentId":"490G00006547","stationId":"490G00006547","stopLetter":"R","topMostParentId":"490G00006547"},{"icsId":"1006539","id":"490006537N","lat":51.450721,"lon":0.053677,"name":"Eltham High Street / Passey Place","parentId":"490G00006539","stationId":"490G00006539","stopLetter":"N","topMostParentId":"490G00006539"},{"icsId":"1018570","id":"490015433F","lat":51.451406,"lon":0.052052,"name":"Eltham Church / Well Hall Road","parentId":"490G00018570","stationId":"490G00018570","stopLetter":"F","topMostParentId":"490G00018570"},{"icsId":"1018661","id":"490001097C","lat":51.455273,"lon":0.051016,"name":"Eltham Station  / Sherard Road","parentId":"490G00018661","stationId":"490G00018661","stopLetter":"C","topMostParentId":"490G00018661"},{"icsId":"1008701","id":"490008701N2","lat":51.457159,"lon":0.050136,"name":"Well Hall Road / Kidbrooke Lane","parentId":"490G00008701","stationId":"490G00008701","stopLetter":"Y","topMostParentId":"490G00008701"},{"icsId":"1013309","id":"490013309N","lat":51.459333,"lon":0.049773,"name":"Well Hall Road / Well Hall Roundabout","parentId":"490G00013309","stationId":"490G00013309","stopLetter":"Q","topMostParentId":"490G00013309"},{"icsId":"1014479","id":"490014479W","lat":51.460113,"lon":0.046828,"name":"Westhorne Avenue / St Barnabas Church","parentId":"490G00014479","stationId":"490G00014479","stopLetter":"T","topMostParentId":"490G00014479"},{"icsId":"1003347","id":"490003347W","lat":51.460573,"lon":0.044142,"name":"Appleton Road","parentId":"490G00003347","stationId":"490G00003347","stopLetter":"U","topMostParentId":"490G00003347"},{"icsId":"1004352","id":"490004352W","lat":51.462082,"lon":0.039114,"name":"Rochester Way / Wendover Road","parentId":"490G00004352","stationId":"490G00004352","stopLetter":"V","topMostParentId":"490G00004352"},{"icsId":"1004380","id":"490004380W","lat":51.464697,"lon":0.033515,"name":"Rochester Way / Broad Walk","parentId":"490G00004380","stationId":"490G00004380","stopLetter":"W","topMostParentId":"490G00004380"},{"icsId":"1008706","id":"490008706W","lat":51.465437,"lon":0.031258,"name":"Kidbrooke Way","parentId":"490G00008706","stationId":"490G00008706","stopLetter":"J","topMostParentId":"490G00008706"},{"icsId":"1013325","id":"490013325G","lat":51.467443,"lon":0.028655,"name":"Brook Lane","parentId":"490G00013325","stationId":"490G00013325","stopLetter":"G","topMostParentId":"490G00013325"},{"icsId":"1014959","id":"490014959N","lat":51.469804,"lon":0.027349,"name":"Wricklemarsh Road","parentId":"490G00014959","stationId":"490G00014959","stopLetter":"Y","topMostParentId":"490G00014959"},{"icsId":"1013014","id":"490013014W2","lat":51.47438,"lon":0.022699,"name":"Shooters Hill Road / Kidbrooke Park Road","parentId":"490G00013014","stationId":"490G00013014","stopLetter":"D","topMostParentId":"490G00013014"},{"icsId":"1008707","id":"490008705W","lat":51.474036,"lon":0.02025,"name":"Kidbrooke Grove","parentId":"490G00008707","stationId":"490G00008707","stopLetter":"E","topMostParentId":"490G00008707"},{"icsId":"1012109","id":"490012109N","lat":51.47415,"lon":0.016209,"name":"Stratheden Road / Shooters Hill Road","parentId":"490G00012109","stationId":"490G00012109","stopLetter":"N","topMostParentId":"490G00012109"},{"icsId":"1004065","id":"490004065BA","lat":51.477581,"lon":0.019096,"name":"Blackheath / Royal Standard","parentId":"490G00004065","stationId":"490G00004065","stopLetter":"BA","topMostParentId":"490G00004065"},{"icsId":"1008854","id":"490008854N","lat":51.481794,"lon":0.019887,"name":"Kirkside Road","parentId":"490G00008854","stationId":"490G00008854","topMostParentId":"490G00008854"},{"icsId":"1001323","id":"490001323A","lat":51.483524,"lon":0.01969,"name":"Westcombe Park Station","parentId":"490G01323A","stationId":"490G01323A","stopLetter":"A","topMostParentId":"910GWCOMBEP"},{"icsId":"1014436","id":"490014436N","lat":51.484974,"lon":0.019048,"name":"Westerdale Road","parentId":"490G00014436","stationId":"490G00014436","stopLetter":"C","topMostParentId":"490G00014436"},{"icsId":"1006356","id":"490006356W","lat":51.486293,"lon":0.016586,"name":"Kemsing Road","parentId":"490G00006356","stationId":"490G00006356","stopLetter":"D","topMostParentId":"490G00006356"},{"icsId":"1009685","id":"490009685W","lat":51.486104,"lon":0.012962,"name":"Marlton Street","parentId":"490G00009685","stationId":"490G00009685","stopLetter":"Q","topMostParentId":"490G00009685"},{"icsId":"1003334","id":"490003334W","lat":51.486146,"lon":0.011019,"name":"Calvert Road","parentId":"490G00003334","stationId":"490G00003334","topMostParentId":"490G00003334"},{"icsId":"1015332","id":"490007510A","lat":51.486172,"lon":0.008442,"name":"Vanbrugh Hill","parentId":"490G00015332","stationId":"490G00015332","stopLetter":"A","topMostParentId":"490G00015332"},{"icsId":"1004081","id":"490005224L","lat":51.485286,"lon":0.005595,"name":"Tyler Street","parentId":"490G00004081","stationId":"490G00004081","stopLetter":"L","topMostParentId":"490G00004081"},{"icsId":"1009754","id":"490009754G","lat":51.483635,"lon":0.000107,"name":"Trafalgar Road / Maze Hill","parentId":"490G000663","stationId":"490G000663","stopLetter":"G","topMostParentId":"490G000663"},{"icsId":"1013764","id":"490013764T","lat":51.482928,"lon":-0.002747,"name":"Trafalgar Estate","parentId":"490G00013764","stationId":"490G00013764","stopLetter":"T","topMostParentId":"490G00013764"},{"icsId":"1006196","id":"490006196G","lat":51.481465,"lon":-0.007117,"name":"National Maritime Museum","parentId":"490G000489","stationId":"490G000489","stopLetter":"G","topMostParentId":"490G000489"},{"icsId":"1007515","id":"490007515D","lat":51.481712,"lon":-0.008432,"name":"Greenwich Town Centre / Cutty Sark","parentId":"490G000548","stationId":"490G000548","stopLetter":"D","topMostParentId":"490G000548"}]}]}