{"direction":"outbound","lineId":"292","lineName":"292","mode":"bus","stopPointSequences":[{"stopPoint":[{"icsId":"1004156","id":"210021003960","lat":51.668534,"lon":-0.289821,"name":"Wetherby Road","parentId":"210G972","stationId":"210G972","topMostParentId":"210G972"},{"icsId":"1004155","id":"210021003970","lat":51.667161,"lon":-0.287559,"name":"Cromwell Road","parentId":"210G971","stationId":"210G971","topMostParentId":"210G971"},{"icsId":"1003522","id":"210021003990","lat":51.669006,"lon":-0.282081,"name":"Baldock Way","parentId":"210G966","stationId":"210G966","topMostParentId":"210G966"},{"icsId":"1009062","id":"210021002825","lat":51.666838,"lon":-0.282047,"name":"Leeming Road","parentId":"210G1002","stationId":"210G1002","topMostParentId":"210G1002"},{"icsId":"1007140","id":"210021003200","lat":51.665454,"lon":-0.282085,"name":"Catterick Way","parentId":"210G9333","stationId":"210G9333","topMostParentId":"210G9333"},{"icsId":"1003810","id":"210021003360","lat":51.662851,"lon":-0.286088,"name":"Gateshead Road","parentId":"210G9074","stationId":"210G9074","topMostParentId":"210G9074"},{"icsId":"1008791","id":"210021003370","lat":51.660199,"lon":-0.284308,"name":"Croxdale Road","parentId":"210G980","stationId":"210G980","topMostParentId":"210G980"},{"icsId":"1012901","id":"210021003390","lat":51.657216,"lon":-0.281414,"name":"Stratfield Road","parentId":"210G982","stationId":"210G982","topMostParentId":"210G982"},{"icsId":"1001096","id":"210021004245","lat":51.65315,"lon":-0.279428,"name":"Elstree & Borehamwood Station","parentId":"210G774","stationId":"210G774","stopLetter":"A","topMostParentId":"910GELTR"},{"icsId":"1007232","id":"210021004100","lat":51.654539,"lon":-0.278537,"name":"Glenhaven Avenue","parentId":"210G778","stationId":"210G778","stopLetter":"D","topMostParentId":"210G778"},{"icsId":"1018971","id":"210021004120","lat":51.656156,"lon":-0.275309,"name":"Furzehill Road","parentId":"210G984","stationId":"210G984","stopLetter":"G","topMostParentId":"210G984"},{"icsId":"1004157","id":"210021002667","lat":51.657253,"lon":-0.270439,"name":"Borehamwood Tesco","parentId":"210G986","stationId":"210G986","stopLetter":"B","topMostParentId":"210G986"},{"icsId":"1012063","id":"210021004140","lat":51.658212,"lon":-0.270807,"name":"Elstree Studios","parentId":"210G985","stationId":"210G985","topMostParentId":"210G985"},{"icsId":"1009728","id":"210021004260","lat":51.659004,"lon":-0.268464,"name":"Hertsmere Civic Offices","parentId":"210G992","stationId":"210G992","topMostParentId":"210G992"},{"icsId":"1009605","id":"210021004420","lat":51.65945,"lon":-0.261492,"name":"Elstree Way","parentId":"210G9069","stationId":"210G9069","topMostParentId":"210G9069"},{"icsId":"1006273","id":"210021004430","lat":51.656745,"lon":-0.261032,"name":"Durham Road","parentId":"210G998","stationId":"210G998","topMostParentId":"210G998"},{"icsId":"1009601","id":"210021004440","lat":51.654251,"lon":-0.260781,"name":"Kenilworth House","parentId":"210G1036","stationId":"210G1036","topMostParentId":"210G1036"},{"icsId":"1003398","id":"210021004450","lat":51.650486,"lon":-0.260983,"name":"Ripon Park","parentId":"210G1032","stationId":"210G1032","topMostParentId":"210G1032"},{"icsId":"1005396","id":"210021004460","lat":51.648076,"lon":-0.263416,"name":"Cleveland Crescent","parentId":"210G1053","stationId":"210G1053","topMostParentId":"210G1053"},{"icsId":"1003440","id":"210021004780","lat":51.645763,"lon":-0.261467,"name":"Ashley Drive","parentId":"210G1051","stationId":"210G1051","topMostParentId":"210G1051"},{"icsId":"1015458","id":"210021004785","lat":51.643503,"lon":-0.255801,"name":"Stirling Corner / Barnet Lane","parentId":"210G1052","stationId":"210G1052","stopLetter":"B","topMostParentId":"210G1052"},{"icsId":"1011961","id":"490011961S","lat":51.638378,"lon":-0.255188,"name":"Scratchwood Park","parentId":"490G00011961","stationId":"490G00011961","stopLetter":"H","topMostParentId":"490G00011961"},{"icsId":"1009960","id":"490009960S","lat":51.631951,"lon":-0.253542,"name":"Moat Mount Park","parentId":"490G00009960","stationId":"490G00009960","stopLetter":"->S","topMostParentId":"490G00009960"},{"icsId":"1013347","id":"490013347S","lat":51.626671,"lon":-0.254077,"name":"The Fairway","parentId":"490G00013347","stationId":"490G00013347","stopLetter":"H","topMostParentId":"490G00013347"},{"icsId":"1003342","id":"490003342S","lat":51.622835,"lon":-0.254282,"name":"Apex Corner","parentId":"490G00003342","stationId":"490G00003342","stopLetter":"J","topMostParentId":"490G00003342"},{"icsId":"1007172","id":"490007172S","lat":51.619043,"lon":-0.258097,"name":"Gibbs Green","parentId":"490G00007172","stationId":"490G00007172","stopLetter":"S","topMostParentId":"490G00007172"},{"icsId":"1005442","id":"490005442W","lat":51.617038,"lon":-0.261178,"name":"Cloister Gardens","parentId":"490G00005442","stationId":"490G00005442","stopLetter":"G","topMostParentId":"490G00005442"},{"icsId":"1006748","id":"490006748W","lat":51.617654,"lon":-0.266369,"name":"Farm Road","parentId":"490G00006748","stationId":"490G00006748","stopLetter":"H","topMostParentId":"490G00006748"},{"icsId":"1004366","id":"490004366W","lat":51.617571,"lon":-0.272901,"name":"Broadfields Avenue","parentId":"490G00004366","stationId":"490G00004366","stopLetter":"L","topMostParentId":"490G00004366"},{"icsId":"1006426","id":"490006426W","lat":51.616158,"lon":-0.274703,"name":"The Drive","parentId":"490G00006426","stationId":"490G00006426","stopLetter":"M","topMostParentId":"490G00006426"},{"icsId":"1000070","id":"490000070G","lat":51.613401,"lon":-0.275515,"name":"Edgware Station","parentId":"490G00070C","stationId":"490G00070C","stopLetter":"G","topMostParentId":"940GZZLUEGW","zone":"5"},{"icsId":"1000070","id":"490000070D","lat":51.612947,"lon":-0.274637,"name":"Edgware Bus Station","parentId":"490G00070C","stationId":"490G00070C","stopLetter":"D","topMostParentId":"940GZZLUEGW","zone":"5"},{"icsId":"1012618","id":"490012618J","lat":51.612072,"lon":-0.277515,"name":"Manor Park Crescent","parentId":"490G00012618","stationId":"490G00012618","stopLetter":"J","topMostParentId":"490G00012618"},{"icsId":"1014573","id":"490014573N","lat":51.61018,"lon":-0.278482,"name":"Whitchurch Lane","parentId":"490G00014573","stationId":"490G00014573","stopLetter":"N","topMostParentId":"490G00014573"},{"icsId":"1006004","id":"490006004HD","lat":51.607719,"lon":-0.2756,"name":"Deansbrook Road","parentId":"490G00006004","stationId":"490G00006004","stopLetter":"HD","topMostParentId":"490G00006004"},{"icsId":"1006425","id":"490006425HA","lat":51.605174,"lon":-0.273112,"name":"Edgware Community Hospital","parentId":"490G00006425","stationId":"490G00006425","stopLetter":"HA","topMostParentId":"490G00006425"},{"icsId":"1004617","id":"490004617A","lat":51.603601,"lon":-0.270717,"name":"North Road","parentId":"490G000433","stationId":"490G000433","stopLetter":"A","topMostParentId":"490G000433"},{"icsId":"1004618","id":"490013255D","lat":51.601274,"lon":-0.26783,"name":"Burnt Oak Broadway","parentId":"490G000434","stationId":"490G000434","stopLetter":"D","topMostParentId":"490G000434"},{"icsId":"1013255","id":"490013255H","lat":51.599284,"lon":-0.265798,"name":"Watling Avenue","parentId":"490G00013255","stationId":"490G00013255","stopLetter":"H","topMostParentId":"490G00013255"},{"icsId":"1010006","id":"490010006S","lat":51.598136,"lon":-0.26421,"name":"Montrose Avenue","parentId":"490G00010006","stationId":"490G00010006","stopLetter":"J","topMostParentId":"490G00010006"},{"icsId":"1004791","id":"490004791S","lat":51.595887,"lon":-0.261697,"name":"Carlisle Road","parentId":"490G00004791","stationId":"490G00004791","stopLetter":"CX","topMostParentId":"490G00004791"},{"icsId":"1000427","id":"490006431W","lat":51.594246,"lon":-0.261991,"name":"Colindale Superstores","parentId":"490G000076","stationId":"490G000076","stopLetter":"CO","topMostParentId":"490G000076"}]}]}