{"direction":"outbound","lineId":"301","lineName":"301","mode":"bus","stopPointSequences":[{"stopPoint":[{"icsId":"1003975","id":"490003975L","lat":51.456547,"lon":0.147129,"name":"Bexleyheath Clock Tower","parentId":"490G00003975","stationId":"490G00003975","stopLetter":"L","topMostParentId":"490G00003975"},{"icsId":"1010890","id":"490010890N","lat":51.460986,"lon":0.146344,"name":"Pelham Road","parentId":"490G00010890","stationId":"490G00010890","stopLetter":"NA","topMostParentId":"490G00010890"},{"icsId":"1019960","id":"490014931W","lat":51.464353,"lon":0.14905,"name":"Long Lane / Woolwich Road","parentId":"490G00019960","stationId":"490G00019960","stopLetter":"NB","topMostParentId":"490G00019960"},{"icsId":"1008116","id":"490008116W","lat":51.465752,"lon":0.146366,"name":"Heversham Road","parentId":"490G00008116","stationId":"490G00008116","topMostParentId":"490G00008116"},{"icsId":"1009326","id":"490009326W","lat":51.4674,"lon":0.142786,"name":"Belvedere Road","parentId":"490G00009326","stationId":"490G00009326","topMostParentId":"490G00009326"},{"id":"490002144YY","lat":51.468785,"lon":0.140778,"name":"Cloudesley Road","parentId":"490G000364","stationId":"490G000364","topMostParentId":"490G000364"},{"id":"490002145YY","lat":51.469985,"lon":0.139135,"name":"Hudson Road","parentId":"490G000366","stationId":"490G000366","topMostParentId":"490G000366"},{"id":"490002146YY","lat":51.471228,"lon":0.137033,"name":"Franklin Road","parentId":"490G000367","stationId":"490G000367","topMostParentId":"490G000367"},{"icsId":"1005898","id":"490005898N","lat":51.471643,"lon":0.134993,"name":"Long Lane / Kipling Road","parentId":"490G00005898","stationId":"490G00005898","stopLetter":"->W","topMostParentId":"490G00005898"},{"icsId":"1009788","id":"490009788N","lat":51.472438,"lon":0.132294,"name":"Melanie Close","parentId":"490G00009788","stationId":"490G00009788","topMostParentId":"490G00009788"},{"icsId":"1019116","id":"490004249N","lat":51.473733,"lon":0.127387,"name":"Long Lane / Brampton Road","parentId":"490G00019116","stationId":"490G00019116","stopLetter":"S","topMostParentId":"490G00019116"},{"icsId":"1012539","id":"490012539N","lat":51.475399,"lon":0.125232,"name":"St Andrew's Parish Church","parentId":"490G00012539","stationId":"490G00012539","topMostParentId":"490G00012539"},{"icsId":"1000987","id":"490000987Z","lat":51.476761,"lon":0.124014,"name":"Brampton Road  Lessness Avenue","parentId":"490G000267","stationId":"490G000267","topMostParentId":"490G000267"},{"icsId":"1001977","id":"490001977Y","lat":51.480269,"lon":0.122521,"name":"Burcharbro Road","parentId":"490G000301","stationId":"490G000301","stopLetter":"->E","topMostParentId":"490G000301"},{"icsId":"1004246","id":"490004246E","lat":51.481445,"lon":0.123137,"name":"Woolwich Road / Brampton Road","parentId":"490G00004246","stationId":"490G00004246","stopLetter":"B","topMostParentId":"490G00004246"},{"icsId":"1016307","id":"490016307N","lat":51.482141,"lon":0.126395,"name":"Hurst Lane","parentId":"490G00016307","stationId":"490G00016307","stopLetter":"E","topMostParentId":"490G00016307"},{"icsId":"1016308","id":"490016308N","lat":51.488202,"lon":0.12541,"name":"Woodland Way","parentId":"490G00016308","stationId":"490G00016308","stopLetter":"->N","topMostParentId":"490G00016308"},{"icsId":"1006877","id":"490006877L","lat":51.489707,"lon":0.122743,"name":"Florence Road","parentId":"490G000518","stationId":"490G000518","stopLetter":"L","topMostParentId":"490G000518"},{"icsId":"1003039","id":"490003039G","lat":51.489362,"lon":0.12143,"name":"Abbey Wood Road","parentId":"490G000378","stationId":"490G000378","stopLetter":"G","topMostParentId":"490G000378"},{"icsId":"1019881","id":"490013257A","lat":51.494494,"lon":0.121078,"name":"Harrow Manorway / Lensbury Way","parentId":"490G00019881","stationId":"490G00019881","stopLetter":"A","topMostParentId":"490G00019881"},{"icsId":"1010190","id":"490010190N","lat":51.497832,"lon":0.121031,"name":"Newacres Library","parentId":"490G00010190","stationId":"490G00010190","stopLetter":"->N","topMostParentId":"490G00010190"},{"icsId":"1019078","id":"490004130N","lat":51.503435,"lon":0.118986,"name":"Carlyle Road / Bentham Road","parentId":"490G00019078","stationId":"490G00019078","stopLetter":"SK","topMostParentId":"490G00019078"},{"icsId":"1013459","id":"490013459W","lat":51.502911,"lon":0.116642,"name":"Titmuss Avenue","parentId":"490G00013459","stationId":"490G00013459","stopLetter":"SF","topMostParentId":"490G00013459"},{"icsId":"1012364","id":"490012364N","lat":51.502136,"lon":0.112715,"name":"Southwood Road","parentId":"490G00012364","stationId":"490G00012364","stopLetter":"SG","topMostParentId":"490G00012364"},{"icsId":"1007923","id":"490007923N","lat":51.504141,"lon":0.111252,"name":"Hawksmoor School","parentId":"490G00007923","stationId":"490G00007923","stopLetter":"SH","topMostParentId":"490G00007923"},{"icsId":"1007092","id":"490007092F","lat":51.506115,"lon":0.110032,"name":"Gallions Reach Health Centre","parentId":"490G00007092","stationId":"490G00007092","stopLetter":"F","topMostParentId":"490G00007092"},{"icsId":"1014285","id":"490014285S","lat":51.505044,"lon":0.105069,"name":"Watersmeet Place","parentId":"490G00014285","stationId":"490G00014285","stopLetter":"->S","topMostParentId":"490G00014285"},{"icsId":"1007382","id":"490007382S","lat":51.501361,"lon":0.102853,"name":"Grasshaven Way","parentId":"490G00007382","stationId":"490G00007382","stopLetter":"X","topMostParentId":"490G00007382"},{"icsId":"1006344","id":"490006344S","lat":51.497141,"lon":0.104445,"name":"Nathan Way / Eastern Way","parentId":"490G00006344","stationId":"490G00006344","stopLetter":"U","topMostParentId":"490G00006344"},{"icsId":"1011255","id":"490011255W","lat":51.495081,"lon":0.102002,"name":"Purland Road East","parentId":"490G00011255","stationId":"490G00011255","stopLetter":"V","topMostParentId":"490G00011255"},{"icsId":"1011255","id":"490011256W","lat":51.495205,"lon":0.098103,"name":"Purland Road West","parentId":"490G00011255","stationId":"490G00011255","stopLetter":"W","topMostParentId":"490G00011255"},{"icsId":"1004179","id":"490004179W","lat":51.492944,"lon":0.094744,"name":"Boughton Road","parentId":"490G00004179","stationId":"490G00004179","stopLetter":"->W","topMostParentId":"490G00004179"},{"icsId":"1007629","id":"490007629W","lat":51.49123,"lon":0.090012,"name":"Hadden Road","parentId":"490G00007629","stationId":"490G00007629","stopLetter":"WR","topMostParentId":"490G00007629"},{"icsId":"1010975","id":"490010975W","lat":51.490707,"lon":0.087064,"name":"Pettman Crescent","parentId":"490G00010975","stationId":"490G00010975","stopLetter":"WS","topMostParentId":"490G00010975"},{"icsId":"1019871","id":"490001227E","lat":51.490365,"lon":0.083533,"name":"Plumstead Road / Plumstead Station","parentId":"490G000959","stationId":"490G000959","stopLetter":"WM","topMostParentId":"490G000959"},{"icsId":"1014924","id":"490014924D","lat":51.4909,"lon":0.080273,"name":"Greenwich Community College","parentId":"490G00014924","stationId":"490G00014924","stopLetter":"WP","topMostParentId":"490G00014924"},{"icsId":"1009723","id":"490009723W","lat":51.49087,"lon":0.076872,"name":"Maxey Road","parentId":"490G00009723","stationId":"490G00009723","stopLetter":"->W","topMostParentId":"490G00009723"},{"icsId":"1003917","id":"490003917D","lat":51.491933,"lon":0.068119,"name":"Beresford Sq / Woolwich Arsenal Stn","parentId":"490G000411","stationId":"490G000411","stopLetter":"U","topMostParentId":"490G000411"}]}]}