{"direction":"outbound","lineId":"303","lineName":"303","mode":"bus","stopPointSequences":[{"stopPoint":[{"icsId":"1000070","id":"490000070D","lat":51.612947,"lon":-0.274637,"name":"Edgware Bus Station","parentId":"490G00070C","stationId":"490G00070C","stopLetter":"D","topMostParentId":"940GZZLUEGW","zone":"5"},{"icsId":"1012618","id":"490012618J","lat":51.612072,"lon":-0.277515,"name":"Manor Park Crescent","parentId":"490G00012618","stationId":"490G00012618","stopLetter":"J","topMostParentId":"490G00012618"},{"icsId":"1014573","id":"490014573N","lat":51.61018,"lon":-0.278482,"name":"Whitchurch Lane","parentId":"490G00014573","stationId":"490G00014573","stopLetter":"N","topMostParentId":"490G00014573"},{"icsId":"1006004","id":"490006004HD","lat":51.607719,"lon":-0.2756,"name":"Deansbrook Road","parentId":"490G00006004","stationId":"490G00006004","stopLetter":"HD","topMostParentId":"490G00006004"},{"icsId":"1004113","id":"490004113E","lat":51.607636,"lon":-0.273625,"name":"Blood Transfusion Centre","parentId":"490G00004113","stationId":"490G00004113","stopLetter":"HE","topMostParentId":"490G00004113"},{"icsId":"1006002","id":"490006002E","lat":51.609019,"lon":-0.267377,"name":"Deansbrook Close","parentId":"490G00006002","stationId":"490G00006002","stopLetter":"S","topMostParentId":"490G00006002"},{"icsId":"1006012","id":"490006006N","lat":51.609679,"lon":-0.26585,"name":"Deansbrook Road","parentId":"490G00006012","stationId":"490G00006012","stopLetter":"P","topMostParentId":"490G00006012"},{"icsId":"1006009","id":"490006009N","lat":51.613784,"lon":-0.264928,"name":"Deans Way","parentId":"490G00006009","stationId":"490G00006009","stopLetter":"Q","topMostParentId":"490G00006009"},{"icsId":"1007434","id":"490007434N","lat":51.615943,"lon":-0.260729,"name":"Greencroft","parentId":"490G00007434","stationId":"490G00007434","stopLetter":"R","topMostParentId":"490G00007434"},{"icsId":"1003407","id":"490003407E","lat":51.615488,"lon":-0.255488,"name":"Ashbourne Grove","parentId":"490G00003407","stationId":"490G00003407","stopLetter":"C","topMostParentId":"490G00003407"},{"icsId":"1007665","id":"490007665E","lat":51.614373,"lon":-0.251877,"name":"Hale Grove Gardens","parentId":"490G00007665","stationId":"490G00007665","stopLetter":"D","topMostParentId":"490G00007665"},{"icsId":"1001193","id":"490001193B","lat":51.613297,"lon":-0.249073,"name":"Mill Hill Broadway Station","parentId":"490G01193A","stationId":"490G01193A","stopLetter":"B","topMostParentId":"910GMLHB"},{"icsId":"1009468","id":"490009468S","lat":51.61081,"lon":-0.2481,"name":"Woodcroft Avenue","parentId":"490G00009468","stationId":"490G00009468","stopLetter":"->S","topMostParentId":"490G00009468"},{"icsId":"1011749","id":"490011749S","lat":51.598052,"lon":-0.240419,"name":"Royal Air Force Museum","parentId":"490G00011749","stationId":"490G00011749","stopLetter":"QR","topMostParentId":"490G00011749"},{"icsId":"1008055","id":"490008055W","lat":51.596695,"lon":-0.244066,"name":"Beaufort Park","parentId":"490G00008055","stationId":"490G00008055","stopLetter":"QS","topMostParentId":"490G00008055"},{"icsId":"1007070","id":"490012236N","lat":51.598489,"lon":-0.245614,"name":"Cherry Close","parentId":"490G00007070","stationId":"490G00007070","stopLetter":"QT","topMostParentId":"490G00007070"},{"icsId":"1011298","id":"490011298W1","lat":51.601525,"lon":-0.245988,"name":"Quakers Course","parentId":"490G00011298","stationId":"490G00011298","stopLetter":"QE","topMostParentId":"490G00011298"},{"icsId":"1007070","id":"490007070S","lat":51.597461,"lon":-0.245408,"name":"Cherry Close","parentId":"490G00007070","stationId":"490G00007070","stopLetter":"QH","topMostParentId":"490G00007070"},{"icsId":"1000054","id":"490000054CA","lat":51.595651,"lon":-0.248828,"name":"Colindale Station","parentId":"490G00054CB","stationId":"490G00054CB","stopLetter":"CA","topMostParentId":"940GZZLUCND","zone":"4"},{"icsId":"1003132","id":"490003132CC","lat":51.593805,"lon":-0.252912,"name":"Ajax Avenue","parentId":"490G00003132","stationId":"490G00003132","stopLetter":"CC","topMostParentId":"490G00003132"},{"icsId":"1013469","id":"490013469CW","lat":51.593384,"lon":-0.255426,"name":"Cecil Road","parentId":"490G00013469","stationId":"490G00013469","stopLetter":"CW","topMostParentId":"490G00013469"},{"icsId":"1014986","id":"490014986W","lat":51.593212,"lon":-0.257771,"name":"Edgware Road","parentId":"490G00014986","stationId":"490G00014986","stopLetter":"CT","topMostParentId":"490G00014986"},{"icsId":"1005481","id":"490005481CE","lat":51.591622,"lon":-0.256692,"name":"Colindale Avenue","parentId":"490G00005481","stationId":"490G00005481","stopLetter":"CE","topMostParentId":"490G00005481"},{"icsId":"1005483","id":"490005483CF","lat":51.590191,"lon":-0.254769,"name":"Colindeep Lane","parentId":"490G00005483","stationId":"490G00005483","stopLetter":"CF","topMostParentId":"490G00005483"},{"icsId":"1004562","id":"490004562CJ","lat":51.588407,"lon":-0.259976,"name":"Buck Lane","parentId":"490G00004562","stationId":"490G00004562","stopLetter":"CJ","topMostParentId":"490G00004562"},{"icsId":"1007566","id":"490007566N","lat":51.590656,"lon":-0.266098,"name":"Grove Park","parentId":"490G00007566","stationId":"490G00007566","stopLetter":"RJ","topMostParentId":"490G00007566"},{"icsId":"1003538","id":"490003538W","lat":51.59075,"lon":-0.271912,"name":"Bacon Lane","parentId":"490G00003538","stationId":"490G00003538","stopLetter":"RL","topMostParentId":"490G00003538"},{"icsId":"1006653","id":"490006653W","lat":51.589728,"lon":-0.275762,"name":"Eton Grove","parentId":"490G00006653","stationId":"490G00006653","stopLetter":"->W","topMostParentId":"490G00006653"},{"icsId":"1015365","id":"490015365D","lat":51.586111,"lon":-0.28238,"name":"Kingsbury Circle","parentId":"490G000889","stationId":"490G000889","stopLetter":"D","topMostParentId":"490G000889"}]}]}