{"direction":"outbound","lineId":"31","lineName":"31","mode":"bus","stopPointSequences":[{"stopPoint":[{"icsId":"1003698","id":"490003698W","lat":51.538257,"lon":-0.140431,"name":"Bayham Street","parentId":"490G000399","stationId":"490G000399","stopLetter":"U","topMostParentId":"490G000399"},{"icsId":"1000036","id":"490015041X","lat":51.538314,"lon":-0.142318,"name":"Camden Town Station","parentId":"490G00036N","stationId":"490G00036N","stopLetter":"X","topMostParentId":"940GZZLUCTN","zone":"2"},{"icsId":"1007876","id":"490007876O","lat":51.54229,"lon":-0.146929,"name":"Hartland Road / Camden Market","parentId":"490G00007876","stationId":"490G00007876","stopLetter":"CQ","topMostParentId":"490G00007876"},{"icsId":"1013538","id":"490013538CF","lat":51.543404,"lon":-0.151427,"name":"The Roundhouse","parentId":"490G00013538","stationId":"490G00013538","stopLetter":"CF","topMostParentId":"490G00013538"},{"icsId":"1000043","id":"490000043CB","lat":51.543879,"lon":-0.15422,"name":"Chalk Farm Station","parentId":"490G00043CD","stationId":"490G00043CD","stopLetter":"CB","topMostParentId":"940GZZLUCFM","zone":"2"},{"icsId":"1006655","id":"490006776CH","lat":51.543753,"lon":-0.15933,"name":"Eton Road","parentId":"490G00006655","stationId":"490G00006655","stopLetter":"T","topMostParentId":"490G00006655"},{"icsId":"1011186","id":"490015529W","lat":51.543471,"lon":-0.163135,"name":"Primrose Hill Road","parentId":"490G00011186","stationId":"490G00011186","stopLetter":"U","topMostParentId":"490G00011186"},{"icsId":"1013582","id":"490013582W","lat":51.543208,"lon":-0.165308,"name":"Elsworthy Rise","parentId":"490G00013582","stationId":"490G00013582","stopLetter":"V","topMostParentId":"490G00013582"},{"icsId":"1009423","id":"490009423W","lat":51.542768,"lon":-0.168787,"name":"Lower Merton Rise","parentId":"490G00009423","stationId":"490G00009423","stopLetter":"W","topMostParentId":"490G00009423"},{"icsId":"1003495","id":"490003495H","lat":51.541886,"lon":-0.172226,"name":"Avenue Road / Swiss Cottage Library","parentId":"490G000395","stationId":"490G000395","stopLetter":"H","topMostParentId":"490G000395"},{"icsId":"1000230","id":"490015162L","lat":51.543147,"lon":-0.175247,"name":"Swiss Cottage Stn  /  Finchley Road","parentId":"490G00230N","stationId":"490G00230N","stopLetter":"L","topMostParentId":"940GZZLUSWC","zone":"2"},{"icsId":"1006703","id":"490006703P","lat":51.544872,"lon":-0.178019,"name":"Fairfax Road","parentId":"490G00006703","stationId":"490G00006703","stopLetter":"P","topMostParentId":"490G00006703"},{"icsId":"1009372","id":"490009371W","lat":51.541271,"lon":-0.181235,"name":"South Hampstead Station  / Loudoun Road","parentId":"490G00009372","stationId":"490G00009372","stopLetter":"L","topMostParentId":"490G00009372"},{"icsId":"1003027","id":"490003027W","lat":51.53997,"lon":-0.18668,"name":"Abbey Road","parentId":"490G00003027","stationId":"490G00003027","stopLetter":"M","topMostParentId":"490G00003027"},{"icsId":"1001170","id":"490001170U","lat":51.537702,"lon":-0.191774,"name":"Kilburn High Road Station","parentId":"490G01170Q","stationId":"490G01170Q","stopLetter":"U","topMostParentId":"910GKLBRNHR"},{"icsId":"1015243","id":"490015243Y","lat":51.536533,"lon":-0.192368,"name":"Kilburn High Rd Stn  / Cambridge Avenue","parentId":"490G000885","stationId":"490G000885","stopLetter":"Y","topMostParentId":"490G000885"},{"icsId":"1000127","id":"490000127KB","lat":51.534692,"lon":-0.193695,"name":"Kilburn Park Station","parentId":"490G00127KB","stationId":"490G00127KB","stopLetter":"KB","topMostParentId":"940GZZLUKPK","zone":"2"},{"icsId":"1012630","id":"490012626S","lat":51.532713,"lon":-0.192476,"name":"Carlton Vale","parentId":"490G00012630","stationId":"490G00012630","stopLetter":"MB","topMostParentId":"490G00012630"},{"icsId":"1004444","id":"490004444S","lat":51.530216,"lon":-0.194391,"name":"Cambridge Road","parentId":"490G00004444","stationId":"490G00004444","stopLetter":"MC","topMostParentId":"490G00004444"},{"icsId":"1005189","id":"490005186S1","lat":51.528012,"lon":-0.196136,"name":"Shirland Road","parentId":"490G00005189","stationId":"490G00005189","stopLetter":"MD","topMostParentId":"490G00005189"},{"icsId":"1013297","id":"490013297S2","lat":51.527271,"lon":-0.197031,"name":"Chippenham Road / Shirland Road","parentId":"490G00013297","stationId":"490G00013297","stopLetter":"MM","topMostParentId":"490G00013297"},{"icsId":"1006473","id":"490006473W","lat":51.525056,"lon":-0.198055,"name":"Elgin Avenue / Chippenham Road","parentId":"490G00006473","stationId":"490G00006473","stopLetter":"MN","topMostParentId":"490G00006473"},{"icsId":"1019459","id":"490007861W2","lat":51.524499,"lon":-0.200398,"name":"Harrow Road","parentId":"490G00019459","stationId":"490G00019459","stopLetter":"F","topMostParentId":"490G00019459"},{"icsId":"1018986","id":"490007861K","lat":51.523123,"lon":-0.201591,"name":"Great Western Road / Harrow Road","parentId":"490G00018986","stationId":"490G00018986","stopLetter":"K","topMostParentId":"490G00018986"},{"icsId":"1000259","id":"490000259B","lat":51.520274,"lon":-0.19993,"name":"Westbourne Park Station","parentId":"490G00259A","stationId":"490G00259A","stopLetter":"B","topMostParentId":"940GZZLUWSP","zone":"2"},{"icsId":"1007420","id":"490008697N","lat":51.518924,"lon":-0.197533,"name":"Shrewsbury Road / Brunel Estate","parentId":"490G00007420","stationId":"490G00007420","stopLetter":"N","topMostParentId":"490G00007420"},{"icsId":"1012948","id":"490012948S","lat":51.517983,"lon":-0.195942,"name":"St Stephens Gardens","parentId":"490G00012948","stationId":"490G00012948","stopLetter":"->S","topMostParentId":"490G00012948"},{"icsId":"1014402","id":"490014402Z","lat":51.515498,"lon":-0.195161,"name":"Westbourne Grove","parentId":"490G00014402","stationId":"490G00014402","stopLetter":"Z","topMostParentId":"490G00014402"},{"icsId":"1005089","id":"490005089D","lat":51.514586,"lon":-0.195514,"name":"Pembridge Villas","parentId":"490G00005089","stationId":"490G00005089","stopLetter":"PW","topMostParentId":"490G00005089"},{"icsId":"1005085","id":"490005085S","lat":51.512835,"lon":-0.197428,"name":"Chepstow Crescent","parentId":"490G00005085","stationId":"490G00005085","stopLetter":"PX","topMostParentId":"490G00005085"},{"icsId":"1019162","id":"490015465E","lat":51.50865,"lon":-0.198357,"name":"Notting Hill Gate Stn  / Hillgate St","parentId":"490G00019162","stationId":"490G00019162","stopLetter":"E","topMostParentId":"490G00019162"},{"icsId":"1000113","id":"490000113A","lat":51.507592,"lon":-0.20386,"name":"Holland Park","parentId":"490G00113G","stationId":"490G00113G","stopLetter":"HA","topMostParentId":"940GZZLUHPK","zone":"2"},{"icsId":"1000113","id":"490000113G","lat":51.506961,"lon":-0.206118,"name":"Holland Park Station","parentId":"490G00113G","stationId":"490G00113G","stopLetter":"HB","topMostParentId":"940GZZLUHPK","zone":"2"},{"icsId":"1010305","id":"490010305W","lat":51.505698,"lon":-0.211125,"name":"Norland Square","parentId":"490G00010305","stationId":"490G00010305","stopLetter":"HC","topMostParentId":"490G00010305"},{"icsId":"1008651","id":"490008651W","lat":51.505106,"lon":-0.214188,"name":"Royal Crescent","parentId":"490G00008651","stationId":"490G00008651","stopLetter":"HD","topMostParentId":"490G00008651"},{"icsId":"1000203","id":"490000203B","lat":51.505409,"lon":-0.218154,"name":"Shepherd's Bush Station","parentId":"490G00203A","stationId":"490G00203A","stopLetter":"B","topMostParentId":"HUBSPB","zone":"2"},{"icsId":"1003375","id":"490003375AP","lat":51.508808,"lon":-0.224059,"name":"White City Bus Station","parentId":"490G00003375","stationId":"490G00003375","stopLetter":"WG","topMostParentId":"490G00003375"}]}]}