{"direction":"outbound","lineId":"313","lineName":"313","mode":"bus","stopPointSequences":[{"stopPoint":[{"icsId":"1001063","id":"490001063D","lat":51.633484,"lon":0.009814,"name":"Chingford Station","parentId":"490G01063B","stationId":"490G01063B","stopLetter":"D","topMostParentId":"910GCHINGFD"},{"icsId":"1012617","id":"490012617E","lat":51.633036,"lon":0.008652,"name":"Station Road / Chingford Station","parentId":"490G000764","stationId":"490G000764","stopLetter":"E","topMostParentId":"490G000764"},{"icsId":"1012558","id":"490012558G","lat":51.631782,"lon":0.005215,"name":"Stanley Road","parentId":"490G00012558","stationId":"490G00012558","stopLetter":"G","topMostParentId":"490G00012558"},{"icsId":"1012619","id":"490012619J","lat":51.630891,"lon":0.002113,"name":"Station Road / The Green","parentId":"490G00012619","stationId":"490G00012619","stopLetter":"J","topMostParentId":"490G00012619"},{"icsId":"1005182","id":"490005182N","lat":51.631659,"lon":-0.001827,"name":"Chingford Police Station","parentId":"490G00005182","stationId":"490G00005182","stopLetter":"N","topMostParentId":"490G00005182"},{"icsId":"1011083","id":"490011083W","lat":51.632362,"lon":-0.006117,"name":"Pole Hill Road","parentId":"490G00011083","stationId":"490G00011083","stopLetter":"U","topMostParentId":"490G00011083"},{"icsId":"1007924","id":"490007924W","lat":51.634278,"lon":-0.009327,"name":"Hawksmouth","parentId":"490G00007924","stationId":"490G00007924","stopLetter":"D","topMostParentId":"490G00007924"},{"icsId":"1012009","id":"490012009W","lat":51.635797,"lon":-0.012469,"name":"Kings Head Hill / Sewardstone Road","parentId":"490G00012009","stationId":"490G00012009","stopLetter":"E","topMostParentId":"490G00012009"},{"icsId":"1008749","id":"490008749W","lat":51.637081,"lon":-0.016633,"name":"King George Sailing Club","parentId":"490G00008749","stationId":"490G00008749","stopLetter":"F","topMostParentId":"490G00008749"},{"icsId":"1014555","id":"490014555W","lat":51.641625,"lon":-0.028575,"name":"Wharf Road","parentId":"490G00014555","stationId":"490G00014555","stopLetter":"PJ","topMostParentId":"490G00014555"},{"icsId":"1001228","id":"490009813C","lat":51.644906,"lon":-0.033289,"name":"Ponders End Station","parentId":"490G01228S","stationId":"490G01228S","stopLetter":"PK","topMostParentId":"910GPNDRSEN"},{"icsId":"1003219","id":"490003219W","lat":51.647092,"lon":-0.038702,"name":"Scotland Green Road","parentId":"490G00003219","stationId":"490G00003219","stopLetter":"PL","topMostParentId":"490G00003219"},{"icsId":"1008101","id":"490008101E","lat":51.648162,"lon":-0.045218,"name":"Ponders End High Street","parentId":"490G000592","stationId":"490G000592","stopLetter":"E","topMostParentId":"490G000592"},{"icsId":"1007258","id":"490007258D","lat":51.648508,"lon":-0.048138,"name":"Glyn Road","parentId":"490G000534","stationId":"490G000534","stopLetter":"D","topMostParentId":"490G000534"},{"icsId":"1006576","id":"490006576B","lat":51.648643,"lon":-0.050315,"name":"Enfield Bus Garage / Southbury Station","parentId":"490G000504","stationId":"490G000504","stopLetter":"B","topMostParentId":"490G000504"},{"icsId":"1005843","id":"490005843W","lat":51.649004,"lon":-0.055301,"name":"Crown Road","parentId":"490G00005843","stationId":"490G00005843","stopLetter":"T","topMostParentId":"490G00005843"},{"icsId":"1015329","id":"490015329W","lat":51.649075,"lon":-0.057972,"name":"Baird Road","parentId":"490G00015329","stationId":"490G00015329","stopLetter":"H","topMostParentId":"490G00015329"},{"icsId":"1007396","id":"490007396W2","lat":51.649822,"lon":-0.061814,"name":"Great Cambridge Road","parentId":"490G00007396","stationId":"490G00007396","stopLetter":"J","topMostParentId":"490G00007396"},{"icsId":"1003937","id":"490003937W","lat":51.65051,"lon":-0.065341,"name":"Percival Road","parentId":"490G00003937","stationId":"490G00003937","stopLetter":"K","topMostParentId":"490G00003937"},{"icsId":"1004902","id":"490004902W","lat":51.651151,"lon":-0.069318,"name":"Cecil Avenue","parentId":"490G00004902","stationId":"490G00004902","stopLetter":"L","topMostParentId":"490G00004902"},{"icsId":"1008903","id":"490008903W","lat":51.652188,"lon":-0.074955,"name":"Ladysmith Road","parentId":"490G00008903","stationId":"490G00008903","stopLetter":"->W","topMostParentId":"490G00008903"},{"icsId":"1001101","id":"490001101N","lat":51.652205,"lon":-0.078207,"name":"Enfield Town Station","parentId":"490G01101L","stationId":"490G01101L","stopLetter":"N","topMostParentId":"910GENFLDTN"},{"icsId":"1006586","id":"490006586W","lat":51.650604,"lon":-0.081455,"name":"Enfield Town / Cecil Road","parentId":"490G00006586","stationId":"490G00006586","stopLetter":"W","topMostParentId":"490G00006586"},{"icsId":"1001099","id":"490001099CA","lat":51.653539,"lon":-0.091075,"name":"Enfield Chase Station","parentId":"490G01099CC","stationId":"490G01099CC","stopLetter":"CA","topMostParentId":"910GENFC"},{"icsId":"1012195","id":"490012195N","lat":51.654858,"lon":-0.098118,"name":"Slades Hill","parentId":"490G00012195","stationId":"490G00012195","stopLetter":"P","topMostParentId":"490G00012195"},{"icsId":"1005895","id":"490005895N","lat":51.657465,"lon":-0.099136,"name":"Culloden Road","parentId":"490G00005895","stationId":"490G00005895","stopLetter":"R","topMostParentId":"490G00005895"},{"icsId":"1006191","id":"490006191W","lat":51.660686,"lon":-0.101517,"name":"Drapers Road","parentId":"490G00006191","stationId":"490G00006191","stopLetter":"S","topMostParentId":"490G00006191"},{"icsId":"1008427","id":"490008427N","lat":51.66483,"lon":-0.101937,"name":"Harefield Close","parentId":"490G00008427","stationId":"490G00008427","stopLetter":"C","topMostParentId":"490G00008427"},{"icsId":"1005034","id":"490005034N","lat":51.664657,"lon":-0.104619,"name":"Chase Farm Hospital","parentId":"490G00005034","stationId":"490G00005034","stopLetter":"A","topMostParentId":"490G00005034"},{"icsId":"1007634","id":"490007634Q","lat":51.665782,"lon":-0.107435,"name":"Hadley Road","parentId":"490G00007634","stationId":"490G00007634","stopLetter":"Q","topMostParentId":"490G00007634"},{"icsId":"1011728","id":"490011728N","lat":51.667236,"lon":-0.110079,"name":"Roundhedge Way","parentId":"490G00011728","stationId":"490G00011728","stopLetter":"R","topMostParentId":"490G00011728"},{"icsId":"1004172","id":"490004172N","lat":51.676097,"lon":-0.12604,"name":"Botany Bay / The Robin Hood","parentId":"490G00004172","stationId":"490G00004172","topMostParentId":"490G00004172"},{"icsId":"1008301","id":"490008301N","lat":51.679034,"lon":-0.132558,"name":"Holly Cottage","parentId":"490G00008301","stationId":"490G00008301","topMostParentId":"490G00008301"},{"icsId":"1014774","id":"490014774N","lat":51.681001,"lon":-0.138654,"name":"Windrush","parentId":"490G00014774","stationId":"490G00014774","stopLetter":"->N","topMostParentId":"490G00014774"},{"icsId":"1012744","id":"490012744W","lat":51.680861,"lon":-0.148004,"name":"St John's Senior School","parentId":"490G00012744","stationId":"490G00012744","stopLetter":"->W","topMostParentId":"490G00012744"},{"icsId":"1010203","id":"490010203N","lat":51.684027,"lon":-0.15952,"name":"New Cottage Farm","parentId":"490G00010203","stationId":"490G00010203","stopLetter":"->N","topMostParentId":"490G00010203"},{"icsId":"1012301","id":"210021000500","lat":51.689206,"lon":-0.174443,"name":"Park Avenue","parentId":"210G674","stationId":"210G674","topMostParentId":"210G674"},{"icsId":"1011144","id":"210021000520","lat":51.69141,"lon":-0.177364,"name":"Highview Gardens","parentId":"210G677","stationId":"210G677","topMostParentId":"210G677"},{"icsId":"1011143","id":"210021000540","lat":51.692759,"lon":-0.182056,"name":"Potters Bar Tesco","parentId":"210G679","stationId":"210G679","topMostParentId":"210G679"},{"icsId":"1010137","id":"210021000560","lat":51.694697,"lon":-0.192816,"name":"Darkes Lane","parentId":"210G696","stationId":"210G696","topMostParentId":"210G696"},{"icsId":"1011145","id":"210021000010","lat":51.697513,"lon":-0.191792,"name":"Potters Bar Station","parentId":"210G697","stationId":"210G697","stopLetter":"D","topMostParentId":"910GPOTRSBR"},{"icsId":"1008994","id":"210021000580","lat":51.697956,"lon":-0.198329,"name":"Laurel Avenue","parentId":"210G699","stationId":"210G699","topMostParentId":"210G699"},{"icsId":"1018865","id":"210021000601","lat":51.698442,"lon":-0.201334,"name":"Mutton Lane","parentId":"210G9490","stationId":"210G9490","topMostParentId":"210G9490"},{"icsId":"1018866","id":"210021000602","lat":51.694451,"lon":-0.203793,"name":"Elmfield Road","parentId":"210G9491","stationId":"210G9491","topMostParentId":"210G9491"},{"icsId":"1018867","id":"210021000603","lat":51.692875,"lon":-0.205375,"name":"Santers Lane","parentId":"210G9493","stationId":"210G9493","topMostParentId":"210G9493"},{"icsId":"1005946","id":"210021085060","lat":51.691324,"lon":-0.207447,"name":"Dame Alice Owen's School","parentId":"210G3434","stationId":"210G3434","topMostParentId":"210G3434"}]}]}