{"direction":"outbound","lineId":"315","lineName":"315","mode":"bus","stopPointSequences":[{"stopPoint":[{"icsId":"1012754","id":"490012754N","lat":51.430156,"lon":-0.104414,"name":"St Julian's Farm Road","parentId":"490G00012754","stationId":"490G00012754","stopLetter":"Y","topMostParentId":"490G00012754"},{"icsId":"1001331","id":"490001331W","lat":51.432222,"lon":-0.104227,"name":"West Norwood Station","parentId":"490G01331T","stationId":"490G01331T","stopLetter":"W","topMostParentId":"910GWNORWOD"},{"icsId":"1013670","id":"490013655N","lat":51.434077,"lon":-0.103849,"name":"Norwood Road / Robson Road","parentId":"490G00013670","stationId":"490G00013670","stopLetter":"N","topMostParentId":"490G00013670"},{"icsId":"1019606","id":"490019606X","lat":51.435483,"lon":-0.106812,"name":"York Hill","parentId":"490G00019606","stationId":"490G00019606","stopLetter":"->W","topMostParentId":"490G00019606"},{"icsId":"1019609","id":"490019609S","lat":51.434144,"lon":-0.108579,"name":"Royal Circus","parentId":"490G00019609","stationId":"490G00019609","topMostParentId":"490G00019609"},{"icsId":"1019612","id":"490019612X","lat":51.432263,"lon":-0.111232,"name":"Canterbury Grove","parentId":"490G00019612","stationId":"490G00019612","topMostParentId":"490G00019612"},{"icsId":"1012886","id":"490012886W","lat":51.432153,"lon":-0.116142,"name":"St Peters Church","parentId":"490G00012886","stationId":"490G00012886","stopLetter":"->W","topMostParentId":"490G00012886"},{"icsId":"1012761","id":"490012761SQ","lat":51.428385,"lon":-0.13133,"name":"St Leonard's Church","parentId":"490G00012761","stationId":"490G00012761","stopLetter":"SK","topMostParentId":"490G00012761"},{"icsId":"1012933","id":"490012761ST","lat":51.42842,"lon":-0.131832,"name":"Streatham / St Leonard's Church","parentId":"490G00012933","stationId":"490G00012933","stopLetter":"SL","topMostParentId":"490G00012933"},{"icsId":"1015146","id":"490015146N","lat":51.432127,"lon":-0.135867,"name":"Becmead Avenue","parentId":"490G00015146","stationId":"490G00015146","stopLetter":"E","topMostParentId":"490G00015146"},{"icsId":"1013713","id":"490013713W","lat":51.433674,"lon":-0.137588,"name":"Woodfield Avenue","parentId":"490G00013713","stationId":"490G00013713","stopLetter":"F","topMostParentId":"490G00013713"},{"icsId":"1008206","id":"490008206N","lat":51.436086,"lon":-0.144555,"name":"Hillbury Road","parentId":"490G00008206","stationId":"490G00008206","stopLetter":"G","topMostParentId":"490G00008206"},{"icsId":"1006888","id":"490006888N","lat":51.437569,"lon":-0.146739,"name":"Fontenoy Road","parentId":"490G00006888","stationId":"490G00006888","stopLetter":"H","topMostParentId":"490G00006888"},{"icsId":"1003560","id":"490003560N","lat":51.44091,"lon":-0.148748,"name":"Balham Health Centre","parentId":"490G00003560","stationId":"490G00003560","stopLetter":"M","topMostParentId":"490G00003560"},{"icsId":"1000012","id":"490000012A","lat":51.443041,"lon":-0.151568,"name":"Balham Station","parentId":"490G00012S","stationId":"490G00012S","stopLetter":"A","topMostParentId":"HUBBAL","zone":"3"}]}]}