{"direction":"outbound","lineId":"317","lineName":"317","mode":"bus","stopPointSequences":[{"stopPoint":[{"icsId":"1014156","id":"210021703420","lat":51.685605,"lon":-0.031092,"name":"Waltham Cross Bus Station","parentId":"210G432","stationId":"210G432","stopLetter":"A","topMostParentId":"210G432"},{"icsId":"1003378","id":"490003378G","lat":51.682164,"lon":-0.03344,"name":"Arlington Crescent","parentId":"490G00003378","stationId":"490G00003378","stopLetter":"H","topMostParentId":"490G00003378"},{"icsId":"1008103","id":"490008103W","lat":51.680066,"lon":-0.034905,"name":"Bullsmoor Lane / Hertford Road","parentId":"490G00008103","stationId":"490G00008103","stopLetter":"J","topMostParentId":"490G00008103"},{"icsId":"1008941","id":"490008941W","lat":51.680836,"lon":-0.038994,"name":"Langdale Gardens","parentId":"490G00008941","stationId":"490G00008941","stopLetter":"K","topMostParentId":"490G00008941"},{"icsId":"1009049","id":"490009049W","lat":51.681064,"lon":-0.041906,"name":"Lea Valley High School","parentId":"490G00009049","stationId":"490G00009049","stopLetter":"L","topMostParentId":"490G00009049"},{"icsId":"1004575","id":"490004575W","lat":51.680072,"lon":-0.048748,"name":"Bullsmoor Lane / Great Cambridge Road","parentId":"490G00004575","stationId":"490G00004575","stopLetter":"M","topMostParentId":"490G00004575"},{"icsId":"1009549","id":"490009549S","lat":51.677863,"lon":-0.05162,"name":"Manor Court","parentId":"490G00009549","stationId":"490G00009549","stopLetter":"N","topMostParentId":"490G00009549"},{"icsId":"1013843","id":"490013843S","lat":51.673544,"lon":-0.053107,"name":"Turkey Street Station","parentId":"490G00013843","stationId":"490G00013843","stopLetter":"C","topMostParentId":"490G00013843"},{"icsId":"1006580","id":"490006580S","lat":51.668729,"lon":-0.055005,"name":"Enfield Crematorium","parentId":"490G00006580","stationId":"490G00006580","stopLetter":"D","topMostParentId":"490G00006580"},{"icsId":"1008269","id":"490008269S","lat":51.664497,"lon":-0.056835,"name":"Hoe Lane","parentId":"490G00008269","stationId":"490G00008269","stopLetter":"X","topMostParentId":"490G00008269"},{"icsId":"1004829","id":"490004829S","lat":51.661102,"lon":-0.058209,"name":"Carterhatch Lane","parentId":"490G00004829","stationId":"490G00004829","stopLetter":"Y","topMostParentId":"490G00004829"},{"icsId":"1004830","id":"490004830S","lat":51.659284,"lon":-0.058663,"name":"Cambridge Gardens","parentId":"490G00004830","stationId":"490G00004830","stopLetter":"Z","topMostParentId":"490G00004830"},{"icsId":"1006584","id":"490006584W1","lat":51.653408,"lon":-0.058394,"name":"Enfield Retail Park","parentId":"490G00006584","stationId":"490G00006584","stopLetter":"F","topMostParentId":"490G00006584"},{"icsId":"1003544","id":"490003544S","lat":51.650681,"lon":-0.056645,"name":"Dearsley Road","parentId":"490G00003544","stationId":"490G00003544","stopLetter":"G","topMostParentId":"490G00003544"},{"icsId":"1015329","id":"490015329W","lat":51.649075,"lon":-0.057972,"name":"Baird Road","parentId":"490G00015329","stationId":"490G00015329","stopLetter":"H","topMostParentId":"490G00015329"},{"icsId":"1007396","id":"490007396W2","lat":51.649822,"lon":-0.061814,"name":"Great Cambridge Road","parentId":"490G00007396","stationId":"490G00007396","stopLetter":"J","topMostParentId":"490G00007396"},{"icsId":"1003937","id":"490003937W","lat":51.65051,"lon":-0.065341,"name":"Percival Road","parentId":"490G00003937","stationId":"490G00003937","stopLetter":"K","topMostParentId":"490G00003937"},{"icsId":"1004902","id":"490004902W","lat":51.651151,"lon":-0.069318,"name":"Cecil Avenue","parentId":"490G00004902","stationId":"490G00004902","stopLetter":"L","topMostParentId":"490G00004902"},{"icsId":"1008903","id":"490008903W","lat":51.652188,"lon":-0.074955,"name":"Ladysmith Road","parentId":"490G00008903","stationId":"490G00008903","stopLetter":"->W","topMostParentId":"490G00008903"},{"icsId":"1001101","id":"490001101N","lat":51.652205,"lon":-0.078207,"name":"Enfield Town Station","parentId":"490G01101L","stationId":"490G01101L","stopLetter":"N","topMostParentId":"910GENFLDTN"},{"icsId":"1006586","id":"490006586S","lat":51.650553,"lon":-0.082758,"name":"Enfield Town / Cecil Road","parentId":"490G00006586","stationId":"490G00006586","stopLetter":"S","topMostParentId":"490G00006586"},{"icsId":"1009222","id":"490009222E","lat":51.652946,"lon":-0.086112,"name":"Little Park Gardens","parentId":"490G00009222","stationId":"490G00009222","topMostParentId":"490G00009222"}]}]}