{"direction":"outbound","lineId":"323","lineName":"323","mode":"bus","stopPointSequences":[{"stopPoint":[{"icsId":"1000039","id":"490000039E","lat":51.514199,"lon":0.008637,"name":"Canning Town Bus Station","parentId":"490G00039A","stationId":"490G00039A","stopLetter":"E","topMostParentId":"HUBCAN","zone":"2/3"},{"icsId":"1003005","id":"490009587N","lat":51.521926,"lon":0.004307,"name":"Star Lane Station","parentId":"490G16355S","stationId":"490G16355S","stopLetter":"L","topMostParentId":"940GZZDLSTL","zone":"2/3"},{"icsId":"1000943","id":"490016354W","lat":51.521149,"lon":0.000827,"name":"South Crescent Business Centre","parentId":"490G000252","stationId":"490G000252","stopLetter":"H","topMostParentId":"490G000252"},{"icsId":"1013859","id":"490016353W","lat":51.520965,"lon":-0.005292,"name":"Twelvetrees Crescent","parentId":"490G00013859","stationId":"490G00013859","topMostParentId":"490G00013859"},{"icsId":"1016352","id":"490016352N","lat":51.523206,"lon":-0.005368,"name":"Prologis Park","parentId":"490G00016352","stationId":"490G00016352","stopLetter":"->N","topMostParentId":"490G00016352"},{"icsId":"1000032","id":"490000032MO","lat":51.523311,"lon":-0.012095,"name":"Bromley By Bow Station","parentId":"490G00032DS","stationId":"490G00032DS","stopLetter":"BH","topMostParentId":"940GZZLUBBB","zone":"2+3"},{"icsId":"1002030","id":"490002030B","lat":51.52287,"lon":-0.015776,"name":"Devons Road Station","parentId":"490G02030A","stationId":"490G02030A","stopLetter":"BJ","topMostParentId":"940GZZDLDEV","zone":"2"},{"icsId":"1016351","id":"490016351W","lat":51.520017,"lon":-0.020426,"name":"Watts Grove","parentId":"490G00016351","stationId":"490G00016351","stopLetter":"BK","topMostParentId":"490G00016351"},{"icsId":"1016350","id":"490016350W","lat":51.519201,"lon":-0.023776,"name":"St Pauls Way Trust School","parentId":"490G00016350","stationId":"490G00016350","stopLetter":"MJ","topMostParentId":"490G00016350"},{"icsId":"1016349","id":"490016349X","lat":51.520203,"lon":-0.026111,"name":"Ackroyd Drive","parentId":"490G00016349","stationId":"490G00016349","stopLetter":"MK","topMostParentId":"490G00016349"},{"icsId":"1006614","id":"490016348W","lat":51.521463,"lon":-0.03152,"name":"Eric Street","parentId":"490G00006614","stationId":"490G00006614","stopLetter":"ML","topMostParentId":"490G00006614"},{"icsId":"1004210","id":"490004210N","lat":51.522587,"lon":-0.034211,"name":"Bow Common Lane","parentId":"490G00004210","stationId":"490G00004210","stopLetter":"MD","topMostParentId":"490G00004210"},{"icsId":"1000146","id":"490000146B","lat":51.523752,"lon":-0.034535,"name":"Mile End Station","parentId":"490G00146B","stationId":"490G00146B","stopLetter":"B","topMostParentId":"940GZZLUMED","zone":"2"}]}]}