{"direction":"outbound","lineId":"324","lineName":"324","mode":"bus","stopPointSequences":[{"stopPoint":[{"icsId":"1000219","id":"490000219A","lat":51.619667,"lon":-0.303793,"name":"Stanmore Station","parentId":"490G00219A","stationId":"490G00219A","stopLetter":"A","topMostParentId":"940GZZLUSTM","zone":"5"},{"icsId":"1013274","id":"490013274E","lat":51.617431,"lon":-0.309654,"name":"The Broadway","parentId":"490G00013274","stationId":"490G00013274","stopLetter":"E","topMostParentId":"490G00013274"},{"icsId":"1000502","id":"490019345S","lat":51.615842,"lon":-0.314191,"name":"Rectory Lane  Stanmore","parentId":"490G000108","stationId":"490G000108","stopLetter":"->S","topMostParentId":"490G000108"},{"icsId":"1019345","id":"490019345Z","lat":51.614146,"lon":-0.312593,"name":"Old Church Lane","parentId":"490G00019345","stationId":"490G00019345","stopLetter":"->S","topMostParentId":"490G00019345"},{"icsId":"1000504","id":"490000504Z","lat":51.612756,"lon":-0.312182,"name":"Stanmore College","parentId":"490G000109","stationId":"490G000109","stopLetter":"->S","topMostParentId":"490G000109"},{"icsId":"1000505","id":"490000505Z","lat":51.610655,"lon":-0.310541,"name":"Wolverton Road","parentId":"490G000110","stationId":"490G000110","stopLetter":"->S","topMostParentId":"490G000110"},{"icsId":"1000506","id":"490000506Z","lat":51.609023,"lon":-0.308999,"name":"Stanmore Baptist Church","parentId":"490G000111","stationId":"490G000111","stopLetter":"->S","topMostParentId":"490G000111"},{"icsId":"1000508","id":"490000508Z","lat":51.606139,"lon":-0.307936,"name":"Stanburn Primary School","parentId":"490G000113","stationId":"490G000113","stopLetter":"->S","topMostParentId":"490G000113"},{"icsId":"1000507","id":"490000507Z","lat":51.605317,"lon":-0.307649,"name":"Wemborough Road  Abercorn Road","parentId":"490G000112","stationId":"490G000112","stopLetter":"->S","topMostParentId":"490G000112"},{"icsId":"1000510","id":"490000510Z","lat":51.602595,"lon":-0.307216,"name":"St Andrew's Drive","parentId":"490G000115","stationId":"490G000115","stopLetter":"->S","topMostParentId":"490G000115"},{"icsId":"1000509","id":"490000509Y","lat":51.600717,"lon":-0.306694,"name":"Crowshott Avenue","parentId":"490G000114","stationId":"490G000114","stopLetter":"->S","topMostParentId":"490G000114"},{"icsId":"1019344","id":"4900OC468S","lat":51.598336,"lon":-0.304949,"name":"Culver Grove Park High School","parentId":"490G00019344","stationId":"490G00019344","topMostParentId":"490G00019344"},{"icsId":"1019346","id":"490019346S","lat":51.596729,"lon":-0.303868,"name":"Culver Grove","parentId":"490G00019346","stationId":"490G00019346","stopLetter":"->S","topMostParentId":"490G00019346"},{"icsId":"1019347","id":"490019347S","lat":51.595438,"lon":-0.302934,"name":"Streatfield Road","parentId":"490G00019347","stationId":"490G00019347","topMostParentId":"490G00019347"},{"icsId":"1011125","id":"490011125W","lat":51.59557,"lon":-0.298367,"name":"Portland Crescent","parentId":"490G00011125","stationId":"490G00011125","stopLetter":"X","topMostParentId":"490G00011125"},{"icsId":"1011326","id":"490011326S","lat":51.594972,"lon":-0.293134,"name":"Queensbury Circle","parentId":"490G00011326","stationId":"490G00011326","stopLetter":"C","topMostParentId":"490G00011326"},{"icsId":"1013423","id":"490013423E","lat":51.593409,"lon":-0.290146,"name":"The Honeypot","parentId":"490G00013423","stationId":"490G00013423","stopLetter":"CC","topMostParentId":"490G00013423"},{"icsId":"1011328","id":"490011328S","lat":51.592104,"lon":-0.285706,"name":"Queensbury Morrisons","parentId":"490G00011328","stationId":"490G00011328","stopLetter":"EE","topMostParentId":"490G00011328"},{"icsId":"1011207","id":"490011207S","lat":51.588145,"lon":-0.283112,"name":"Princes Avenue","parentId":"490G00011207","stationId":"490G00011207","stopLetter":"X","topMostParentId":"490G00011207"},{"icsId":"1015365","id":"490015365D","lat":51.586111,"lon":-0.28238,"name":"Kingsbury Circle","parentId":"490G000889","stationId":"490G000889","stopLetter":"D","topMostParentId":"490G000889"},{"icsId":"1000128","id":"490000128A","lat":51.584931,"lon":-0.279769,"name":"Kingsbury Station","parentId":"490G00128B","stationId":"490G00128B","stopLetter":"A","topMostParentId":"940GZZLUKBY","zone":"4"},{"icsId":"1013997","id":"490013997L","lat":51.586027,"lon":-0.274213,"name":"Valley Drive","parentId":"490G00013997","stationId":"490G00013997","stopLetter":"L","topMostParentId":"490G00013997"},{"icsId":"1020227","id":"490013441E","lat":51.584971,"lon":-0.269057,"name":"Roe Green Park","parentId":"490G00020227","stationId":"490G00020227","stopLetter":"A","topMostParentId":"490G00020227"},{"icsId":"1011636","id":"490011636N","lat":51.584994,"lon":-0.265736,"name":"Highfield Avenue","parentId":"490G00011636","stationId":"490G00011636","stopLetter":"T","topMostParentId":"490G00011636"},{"icsId":"1007959","id":"490007959N","lat":51.586963,"lon":-0.265069,"name":"Fairfields Crescent","parentId":"490G00007959","stationId":"490G00007959","stopLetter":"RH","topMostParentId":"490G00007959"},{"icsId":"1012473","id":"490012473E","lat":51.588165,"lon":-0.263666,"name":"Stag Lane","parentId":"490G00012473","stationId":"490G00012473","stopLetter":"RP","topMostParentId":"490G00012473"},{"icsId":"1004562","id":"490004562CK","lat":51.588596,"lon":-0.259377,"name":"Buck Lane","parentId":"490G00004562","stationId":"490G00004562","stopLetter":"CK","topMostParentId":"490G00004562"},{"icsId":"1019349","id":"4900019348E","lat":51.591962,"lon":-0.254167,"name":"Colin Park Road","parentId":"490G00019349","stationId":"490G00019349","stopLetter":"->E","topMostParentId":"490G00019349"},{"icsId":"1000513","id":"490000513Z","lat":51.591662,"lon":-0.250915,"name":"Court Way  Colindale","parentId":"490G000119","stationId":"490G000119","stopLetter":"->E","topMostParentId":"490G000119"},{"icsId":"1000514","id":"490000514Z","lat":51.591183,"lon":-0.246516,"name":"Clovelly Avenue","parentId":"490G000120","stationId":"490G000120","stopLetter":"->E","topMostParentId":"490G000120"},{"icsId":"1000515","id":"490000515Z","lat":51.590876,"lon":-0.242212,"name":"Rushgrove Park","parentId":"490G000121","stationId":"490G000121","stopLetter":"->E","topMostParentId":"490G000121"},{"icsId":"1019350","id":"4900019350E","lat":51.588471,"lon":-0.238941,"name":"Colindeep Bridge","parentId":"490G00019350","stationId":"490G00019350","stopLetter":"->E","topMostParentId":"490G00019350"},{"icsId":"1000512","id":"4900019351E","lat":51.587892,"lon":-0.236336,"name":"Grove Gardens  Hendon","parentId":"490G000118","stationId":"490G000118","stopLetter":"->E","topMostParentId":"490G000118"},{"icsId":"1012753","id":"490012753M","lat":51.586746,"lon":-0.231862,"name":"St Joseph's School","parentId":"490G00012753","stationId":"490G00012753","stopLetter":"M","topMostParentId":"490G00012753"},{"icsId":"1008057","id":"490008057J","lat":51.58584,"lon":-0.230237,"name":"Hendon War Memorial","parentId":"490G00008057","stationId":"490G00008057","stopLetter":"J","topMostParentId":"490G00008057"},{"icsId":"1000106","id":"490000106G","lat":51.583882,"lon":-0.22799,"name":"Hendon Central Station","parentId":"490G00106G","stationId":"490G00106G","stopLetter":"G","topMostParentId":"940GZZLUHCL","zone":"3+4"},{"icsId":"1003724","id":"490003724S","lat":51.579893,"lon":-0.225273,"name":"Beaufort Gardens","parentId":"490G00003724","stationId":"490G00003724","topMostParentId":"490G00003724"},{"icsId":"1011191","id":"490011191F","lat":51.576424,"lon":-0.220082,"name":"Prince Charles Drive","parentId":"490G00011191","stationId":"490G00011191","stopLetter":"F","topMostParentId":"490G00011191"},{"icsId":"1004282","id":"490004282D","lat":51.575762,"lon":-0.222691,"name":"Brent Cross Shopping Centre","parentId":"490G00004282","stationId":"490G00004282","stopLetter":"C","topMostParentId":"490G00004282"},{"icsId":"1019403","id":"4900019403Z","lat":51.574734,"lon":-0.214766,"name":"Tesco Brent Cross","parentId":"490G00019403","stationId":"490G00019403","stopLetter":"Z","topMostParentId":"490G00019403"}]}]}