{"direction":"outbound","lineId":"326","lineName":"326","mode":"bus","stopPointSequences":[{"stopPoint":[{"icsId":"1013559","id":"490013559S","lat":51.656453,"lon":-0.203966,"name":"The Spires","parentId":"490G00013559","stationId":"490G00013559","stopLetter":"S","topMostParentId":"490G00013559"},{"icsId":"1011868","id":"490011868T","lat":51.654949,"lon":-0.204387,"name":"Salisbury Road","parentId":"490G00011868","stationId":"490G00011868","stopLetter":"T","topMostParentId":"490G00011868"},{"icsId":"1003639","id":"490003639D","lat":51.654663,"lon":-0.201594,"name":"Barnet High Street","parentId":"490G00003639","stationId":"490G00003639","stopLetter":"D","topMostParentId":"490G00003639"},{"icsId":"1019009","id":"490003634H","lat":51.652624,"lon":-0.198812,"name":"Barnet High Street / Barnet Church","parentId":"490G00019009","stationId":"490G00019009","stopLetter":"H","topMostParentId":"490G00019009"},{"icsId":"1009772","id":"490009772N","lat":51.651363,"lon":-0.196896,"name":"High Barnet Station / Meadway","parentId":"490G000664","stationId":"490G000664","stopLetter":"N","topMostParentId":"490G000664"},{"icsId":"1000107","id":"490000107R","lat":51.649347,"lon":-0.193247,"name":"High Barnet Station","parentId":"490G00107E","stationId":"490G00107E","stopLetter":"R","topMostParentId":"940GZZLUHBT","zone":"5"},{"icsId":"1006098","id":"490006098W","lat":51.646146,"lon":-0.196785,"name":"Dollis Valley Way","parentId":"490G00006098","stationId":"490G00006098","topMostParentId":"490G00006098"},{"icsId":"1003640","id":"490003640S","lat":51.647211,"lon":-0.188287,"name":"Potters Lane","parentId":"490G00003640","stationId":"490G00003640","stopLetter":"A","topMostParentId":"490G00003640"},{"icsId":"1012613","id":"490015143E","lat":51.647137,"lon":-0.18644,"name":"Barnet Everyman Cinema","parentId":"490G00012613","stationId":"490G00012613","stopLetter":"B","topMostParentId":"490G00012613"},{"icsId":"1014253","id":"490014253E","lat":51.648532,"lon":-0.18066,"name":"Warwick Road","parentId":"490G00014253","stationId":"490G00014253","stopLetter":"C","topMostParentId":"490G00014253"},{"icsId":"1001203","id":"490001201D","lat":51.649684,"lon":-0.176089,"name":"New Barnet Station  / Station Road","parentId":"490G00001203","stationId":"490G00001203","stopLetter":"D","topMostParentId":"490G00001203"},{"icsId":"1010193","id":"490010193C","lat":51.649874,"lon":-0.171572,"name":"New Barnet Sainsbury's","parentId":"490G00010193","stationId":"490G00010193","stopLetter":"C","topMostParentId":"490G00010193"},{"icsId":"1006313","id":"490006313E","lat":51.647547,"lon":-0.167647,"name":"Victoria Road","parentId":"490G00006313","stationId":"490G00006313","stopLetter":"BA","topMostParentId":"490G00006313"},{"icsId":"1005744","id":"490006284W","lat":51.643246,"lon":-0.166317,"name":"Crescent Road","parentId":"490G00005744","stationId":"490G00005744","stopLetter":"BT","topMostParentId":"490G00005744"},{"icsId":"1008933","id":"490008933W","lat":51.643451,"lon":-0.171367,"name":"York Road","parentId":"490G00008933","stationId":"490G00008933","topMostParentId":"490G00008933"},{"icsId":"1019965","id":"490009975W","lat":51.643441,"lon":-0.176513,"name":"Lyonsdown Avenue","parentId":"490G00019965","stationId":"490G00019965","stopLetter":"->W","topMostParentId":"490G00019965"},{"icsId":"1007893","id":"490007893S","lat":51.642823,"lon":-0.179559,"name":"Hasluck Gardens","parentId":"490G00007893","stationId":"490G00007893","stopLetter":"H","topMostParentId":"490G00007893"},{"icsId":"1009489","id":"490009489S","lat":51.640887,"lon":-0.180576,"name":"Lyonsdown Road","parentId":"490G00009489","stationId":"490G00009489","stopLetter":"J","topMostParentId":"490G00009489"},{"icsId":"1014131","id":"490014131S","lat":51.639288,"lon":-0.179512,"name":"Walfield Avenue","parentId":"490G00014131","stationId":"490G00014131","stopLetter":"K","topMostParentId":"490G00014131"},{"icsId":"1007031","id":"490007031S","lat":51.636522,"lon":-0.177427,"name":"Friern Mount Drive","parentId":"490G00007031","stationId":"490G00007031","stopLetter":"->S","topMostParentId":"490G00007031"},{"icsId":"1004978","id":"490004978S","lat":51.633615,"lon":-0.175535,"name":"Chandos Avenue","parentId":"490G00004978","stationId":"490G00004978","stopLetter":"L","topMostParentId":"490G00004978"},{"icsId":"1015488","id":"490015488M","lat":51.63101,"lon":-0.175133,"name":"Athenaeum Road","parentId":"490G000901","stationId":"490G000901","stopLetter":"M","topMostParentId":"490G000901"},{"icsId":"1000237","id":"490000237B","lat":51.630082,"lon":-0.17676,"name":"Totteridge & Whetstone Station","parentId":"490G00237B","stationId":"490G00237B","stopLetter":"B","topMostParentId":"940GZZLUTAW","zone":"4"},{"icsId":"1000081","id":"490003156E","lat":51.602273,"lon":-0.193932,"name":"Finchley Central","parentId":"490G03156F","stationId":"490G03156F","stopLetter":"K","topMostParentId":"940GZZLUFYC","zone":"4"},{"icsId":"1008054","id":"490008054H","lat":51.599461,"lon":-0.195848,"name":"Hendon Lane","parentId":"490G00008054","stationId":"490G00008054","stopLetter":"H","topMostParentId":"490G00008054"},{"icsId":"1006337","id":"490006337S","lat":51.597911,"lon":-0.197339,"name":"East End Road","parentId":"490G00006337","stationId":"490G00006337","stopLetter":"S","topMostParentId":"490G00006337"},{"icsId":"1007385","id":"490007385N","lat":51.597653,"lon":-0.198706,"name":"Gravel Hill","parentId":"490G00007385","stationId":"490G00007385","stopLetter":"L","topMostParentId":"490G00007385"},{"icsId":"1012787","id":"490012787W","lat":51.597329,"lon":-0.201607,"name":"St Mary's Avenue","parentId":"490G00012787","stationId":"490G00012787","stopLetter":"M","topMostParentId":"490G00012787"},{"icsId":"1003366","id":"490003366S","lat":51.594964,"lon":-0.205165,"name":"Arden Road","parentId":"490G00003366","stationId":"490G00003366","stopLetter":"N","topMostParentId":"490G00003366"},{"icsId":"1005803","id":"490005803S","lat":51.593265,"lon":-0.208149,"name":"Crooked Usage","parentId":"490G00005803","stationId":"490G00005803","topMostParentId":"490G00005803"},{"icsId":"1007422","id":"490007411W2","lat":51.592002,"lon":-0.21022,"name":"Broughton Avenue","parentId":"490G00007422","stationId":"490G00007422","stopLetter":"->W","topMostParentId":"490G00007422"},{"icsId":"1007411","id":"490007411W1","lat":51.590538,"lon":-0.213323,"name":"Great North Way","parentId":"490G00007411","stationId":"490G00007411","stopLetter":"->W","topMostParentId":"490G00007411"},{"icsId":"1003218","id":"490003218W","lat":51.589794,"lon":-0.216398,"name":"Alexandra Road","parentId":"490G00003218","stationId":"490G00003218","stopLetter":"->W","topMostParentId":"490G00003218"},{"icsId":"1013512","id":"490013512T","lat":51.589539,"lon":-0.220927,"name":"The Quadrant","parentId":"490G00013512","stationId":"490G00013512","stopLetter":"T","topMostParentId":"490G00013512"},{"icsId":"1005253","id":"490005253R","lat":51.589945,"lon":-0.225184,"name":"Church End","parentId":"490G00005253","stationId":"490G00005253","stopLetter":"R","topMostParentId":"490G00005253"},{"icsId":"1008056","id":"490008056P","lat":51.58819,"lon":-0.22863,"name":"Hendon Town Hall","parentId":"490G00008056","stationId":"490G00008056","stopLetter":"P","topMostParentId":"490G00008056"},{"icsId":"1015519","id":"490015519N","lat":51.586539,"lon":-0.230095,"name":"Watford Way","parentId":"490G00015519","stationId":"490G00015519","stopLetter":"N","topMostParentId":"490G00015519"},{"icsId":"1008057","id":"490008057J","lat":51.58584,"lon":-0.230237,"name":"Hendon War Memorial","parentId":"490G00008057","stationId":"490G00008057","stopLetter":"J","topMostParentId":"490G00008057"},{"icsId":"1000106","id":"490000106G","lat":51.583882,"lon":-0.22799,"name":"Hendon Central Station","parentId":"490G00106G","stationId":"490G00106G","stopLetter":"G","topMostParentId":"940GZZLUHCL","zone":"3+4"},{"icsId":"1003724","id":"490003724S","lat":51.579893,"lon":-0.225273,"name":"Beaufort Gardens","parentId":"490G00003724","stationId":"490G00003724","topMostParentId":"490G00003724"},{"icsId":"1003096","id":"490010329H","lat":51.577477,"lon":-0.219522,"name":"North Circular Road","parentId":"490G00003096","stationId":"490G00003096","stopLetter":"H","topMostParentId":"490G00003096"},{"icsId":"1011191","id":"490011191F","lat":51.576424,"lon":-0.220082,"name":"Prince Charles Drive","parentId":"490G00011191","stationId":"490G00011191","stopLetter":"F","topMostParentId":"490G00011191"},{"icsId":"1004282","id":"490004282A","lat":51.575649,"lon":-0.223519,"name":"Brent Cross Shopping Centre","parentId":"490G00004282","stationId":"490G00004282","stopLetter":"A","topMostParentId":"490G00004282"}]}]}