{"direction":"outbound","lineId":"327","lineName":"327","mode":"bus","stopPointSequences":[{"stopPoint":[{"icsId":"1014156","id":"210021703420","lat":51.685605,"lon":-0.031092,"name":"Waltham Cross Bus Station","parentId":"210G432","stationId":"210G432","stopLetter":"A","topMostParentId":"210G432"},{"icsId":"1003378","id":"490003378G","lat":51.682164,"lon":-0.03344,"name":"Arlington Crescent","parentId":"490G00003378","stationId":"490G00003378","stopLetter":"H","topMostParentId":"490G00003378"},{"icsId":"1008103","id":"490008103W","lat":51.680066,"lon":-0.034905,"name":"Bullsmoor Lane / Hertford Road","parentId":"490G00008103","stationId":"490G00008103","stopLetter":"J","topMostParentId":"490G00008103"},{"icsId":"1008941","id":"490008941W","lat":51.680836,"lon":-0.038994,"name":"Langdale Gardens","parentId":"490G00008941","stationId":"490G00008941","stopLetter":"K","topMostParentId":"490G00008941"},{"icsId":"1009049","id":"490009049W","lat":51.681064,"lon":-0.041906,"name":"Lea Valley High School","parentId":"490G00009049","stationId":"490G00009049","stopLetter":"L","topMostParentId":"490G00009049"},{"icsId":"1009716","id":"490009716S","lat":51.675188,"lon":-0.048654,"name":"Cocker Road","parentId":"490G00009716","stationId":"490G00009716","topMostParentId":"490G00009716"}]}]}