{"direction":"outbound","lineId":"328","lineName":"328","mode":"bus","stopPointSequences":[{"stopPoint":[{"icsId":"1000087","id":"490015497GC","lat":51.571617,"lon":-0.193819,"name":"Golders Green Station","parentId":"490G00087GB","stationId":"490G00087GB","stopLetter":"GC","topMostParentId":"940GZZLUGGN","zone":"3"},{"icsId":"1007267","id":"490007267GL","lat":51.570964,"lon":-0.195202,"name":"Golders Green / Finchley Road","parentId":"490G00007267","stationId":"490G00007267","stopLetter":"GL","topMostParentId":"490G00007267"},{"icsId":"1006262","id":"490006262S","lat":51.56799,"lon":-0.194814,"name":"Dunstan Road","parentId":"490G00006262","stationId":"490G00006262","stopLetter":"A","topMostParentId":"490G00006262"},{"icsId":"1009232","id":"490009232S","lat":51.565498,"lon":-0.19588,"name":"Llanvanor Road","parentId":"490G00009232","stationId":"490G00009232","stopLetter":"B","topMostParentId":"490G00009232"},{"icsId":"1005160","id":"490005160S2","lat":51.563375,"lon":-0.197003,"name":"Childs Hill / Cricklewood Lane","parentId":"490G00005160","stationId":"490G00005160","stopLetter":"D","topMostParentId":"490G00005160"},{"icsId":"1009462","id":"490015362S","lat":51.560065,"lon":-0.196946,"name":"Lyndale Avenue","parentId":"490G00009462","stationId":"490G00009462","stopLetter":"E","topMostParentId":"490G00009462"},{"icsId":"1008061","id":"490008061S","lat":51.558905,"lon":-0.196386,"name":"Hendon Way","parentId":"490G00008061","stationId":"490G00008061","stopLetter":"F","topMostParentId":"490G00008061"},{"icsId":"1006952","id":"490006953S","lat":51.556904,"lon":-0.196061,"name":"Fortune Green Road","parentId":"490G00006952","stationId":"490G00006952","stopLetter":"CH","topMostParentId":"490G00006952"},{"icsId":"1006951","id":"490006951S","lat":51.55455,"lon":-0.19676,"name":"Fortune Green","parentId":"490G00006951","stationId":"490G00006951","stopLetter":"CJ","topMostParentId":"490G00006951"},{"icsId":"1014468","id":"490014468S","lat":51.553573,"lon":-0.19527,"name":"West Hampstead Police Station","parentId":"490G00014468","stationId":"490G00014468","stopLetter":"CK","topMostParentId":"490G00014468"},{"icsId":"1014431","id":"490014431S","lat":51.551469,"lon":-0.191776,"name":"West End Green","parentId":"490G00014431","stationId":"490G00014431","stopLetter":"T","topMostParentId":"490G00014431"},{"icsId":"1006041","id":"490006041D","lat":51.549819,"lon":-0.191452,"name":"Dennington Park Road","parentId":"490G000484","stationId":"490G000484","stopLetter":"V","topMostParentId":"490G000484"},{"icsId":"1000263","id":"490000263S","lat":51.547169,"lon":-0.191052,"name":"West Hampstead Station","parentId":"490G00263E","stationId":"490G00263E","stopLetter":"W","topMostParentId":"HUBWHD","zone":"2"},{"icsId":"1000827","id":"490012082B","lat":51.54535,"lon":-0.191514,"name":"Compayne Gardens","parentId":"490G000161","stationId":"490G000161","stopLetter":"B","topMostParentId":"490G000161"},{"icsId":"1014819","id":"490014819S","lat":51.543444,"lon":-0.192671,"name":"Woodchurch Road","parentId":"490G00014819","stationId":"490G00014819","stopLetter":"D","topMostParentId":"490G00014819"},{"icsId":"1011375","id":"490011375L","lat":51.540601,"lon":-0.193173,"name":"Quex Road","parentId":"490G00011375","stationId":"490G00011375","stopLetter":"L","topMostParentId":"490G00011375"},{"icsId":"1008710","id":"490008710M","lat":51.539415,"lon":-0.194965,"name":"Kilburn High Road / Quex Road","parentId":"490G000620","stationId":"490G000620","stopLetter":"M","topMostParentId":"490G000620"},{"icsId":"1015243","id":"490015243Y","lat":51.536533,"lon":-0.192368,"name":"Kilburn High Rd Stn  / Cambridge Avenue","parentId":"490G000885","stationId":"490G000885","stopLetter":"Y","topMostParentId":"490G000885"},{"icsId":"1000127","id":"490000127KB","lat":51.534692,"lon":-0.193695,"name":"Kilburn Park Station","parentId":"490G00127KB","stationId":"490G00127KB","stopLetter":"KB","topMostParentId":"940GZZLUKPK","zone":"2"},{"icsId":"1012630","id":"490012626S","lat":51.532713,"lon":-0.192476,"name":"Carlton Vale","parentId":"490G00012630","stationId":"490G00012630","stopLetter":"MB","topMostParentId":"490G00012630"},{"icsId":"1004444","id":"490004444S","lat":51.530216,"lon":-0.194391,"name":"Cambridge Road","parentId":"490G00004444","stationId":"490G00004444","stopLetter":"MC","topMostParentId":"490G00004444"},{"icsId":"1005189","id":"490005186S1","lat":51.528012,"lon":-0.196136,"name":"Shirland Road","parentId":"490G00005189","stationId":"490G00005189","stopLetter":"MD","topMostParentId":"490G00005189"},{"icsId":"1013297","id":"490013297S2","lat":51.527271,"lon":-0.197031,"name":"Chippenham Road / Shirland Road","parentId":"490G00013297","stationId":"490G00013297","stopLetter":"MM","topMostParentId":"490G00013297"},{"icsId":"1006473","id":"490006473W","lat":51.525056,"lon":-0.198055,"name":"Elgin Avenue / Chippenham Road","parentId":"490G00006473","stationId":"490G00006473","stopLetter":"MN","topMostParentId":"490G00006473"},{"icsId":"1019459","id":"490007861W2","lat":51.524499,"lon":-0.200398,"name":"Harrow Road","parentId":"490G00019459","stationId":"490G00019459","stopLetter":"F","topMostParentId":"490G00019459"},{"icsId":"1018986","id":"490007861K","lat":51.523123,"lon":-0.201591,"name":"Great Western Road / Harrow Road","parentId":"490G00018986","stationId":"490G00018986","stopLetter":"K","topMostParentId":"490G00018986"},{"icsId":"1000259","id":"490000259B","lat":51.520274,"lon":-0.19993,"name":"Westbourne Park Station","parentId":"490G00259A","stationId":"490G00259A","stopLetter":"B","topMostParentId":"940GZZLUWSP","zone":"2"},{"icsId":"1007420","id":"490008697N","lat":51.518924,"lon":-0.197533,"name":"Shrewsbury Road / Brunel Estate","parentId":"490G00007420","stationId":"490G00007420","stopLetter":"N","topMostParentId":"490G00007420"},{"icsId":"1012948","id":"490012948S","lat":51.517983,"lon":-0.195942,"name":"St Stephens Gardens","parentId":"490G00012948","stationId":"490G00012948","stopLetter":"->S","topMostParentId":"490G00012948"},{"icsId":"1014402","id":"490014402Z","lat":51.515498,"lon":-0.195161,"name":"Westbourne Grove","parentId":"490G00014402","stationId":"490G00014402","stopLetter":"Z","topMostParentId":"490G00014402"},{"icsId":"1005089","id":"490005089D","lat":51.514586,"lon":-0.195514,"name":"Pembridge Villas","parentId":"490G00005089","stationId":"490G00005089","stopLetter":"PW","topMostParentId":"490G00005089"},{"icsId":"1005085","id":"490005085S","lat":51.512835,"lon":-0.197428,"name":"Chepstow Crescent","parentId":"490G00005085","stationId":"490G00005085","stopLetter":"PX","topMostParentId":"490G00005085"},{"icsId":"1000167","id":"490015039C","lat":51.50926,"lon":-0.197079,"name":"Notting Hill Gate Station","parentId":"490G00167G","stationId":"490G00167G","stopLetter":"C","topMostParentId":"940GZZLUNHG","zone":"1+2"},{"icsId":"1019161","id":"490000167K","lat":51.509095,"lon":-0.193973,"name":"Palace Gardens Terr / Notting Hill Gte","parentId":"490G00019161","stationId":"490G00019161","stopLetter":"K","topMostParentId":"490G00019161"},{"icsId":"1012055","id":"490012055S","lat":51.506873,"lon":-0.194522,"name":"Sheffield Terrace","parentId":"490G00012055","stationId":"490G00012055","stopLetter":"P","topMostParentId":"490G00012055"},{"icsId":"1010536","id":"490010536K","lat":51.503676,"lon":-0.191867,"name":"York House Place / Kensington High St","parentId":"490G00010536","stationId":"490G00010536","stopLetter":"K","topMostParentId":"490G00010536"},{"icsId":"1000110","id":"490000110E","lat":51.501326,"lon":-0.192234,"name":"High Street Kensington Station","parentId":"490G00110R","stationId":"490G00110R","stopLetter":"E","topMostParentId":"940GZZLUHSK","zone":"1"},{"icsId":"1010984","id":"490010984T","lat":51.499808,"lon":-0.196487,"name":"Phillimore Gardens","parentId":"490G00010984","stationId":"490G00010984","stopLetter":"T","topMostParentId":"490G00010984"},{"icsId":"1005529","id":"490005528V","lat":51.498613,"lon":-0.198277,"name":"Earls Court Road / Pembroke Place","parentId":"490G00005529","stationId":"490G00005529","stopLetter":"V","topMostParentId":"490G00005529"},{"icsId":"1010898","id":"490011943S","lat":51.496479,"lon":-0.196935,"name":"Pembroke Road","parentId":"490G00010898","stationId":"490G00010898","stopLetter":"L","topMostParentId":"490G00010898"},{"icsId":"1019786","id":"490006305H","lat":51.495149,"lon":-0.195835,"name":"Cromwell Road","parentId":"490G00019786","stationId":"490G00019786","stopLetter":"H","topMostParentId":"490G00019786"},{"icsId":"1010187","id":"490010187K","lat":51.493312,"lon":-0.194453,"name":"Nevern Place","parentId":"490G000671","stationId":"490G000671","stopLetter":"K","topMostParentId":"490G000671"},{"icsId":"1000064","id":"490000064A","lat":51.491997,"lon":-0.192574,"name":"Earls Court Station","parentId":"490G00064A","stationId":"490G00064A","stopLetter":"A","topMostParentId":"940GZZLUECT","zone":"1+2"},{"icsId":"1015228","id":"490015228L","lat":51.490197,"lon":-0.190744,"name":"Earls Court Road / Old Brompton Road","parentId":"490G00015228","stationId":"490G00015228","stopLetter":"L","topMostParentId":"490G00015228"},{"icsId":"1011479","id":"490011479S","lat":51.487324,"lon":-0.188107,"name":"Redcliffe Square","parentId":"490G00011479","stationId":"490G00011479","stopLetter":"HU","topMostParentId":"490G00011479"},{"icsId":"1019758","id":"490007055HK","lat":51.484456,"lon":-0.184663,"name":"Fulham Road / Chelsea & Westminster Hosp","parentId":"490G00019758","stationId":"490G00019758","stopLetter":"HK","topMostParentId":"490G00019758"}]},{"stopPoint":[{"icsId":"1019758","id":"490007055HK","lat":51.484456,"lon":-0.184663,"name":"Fulham Road / Chelsea & Westminster Hosp","parentId":"490G00019758","stationId":"490G00019758","stopLetter":"HK","topMostParentId":"490G00019758"},{"icsId":"1015066","id":"490015066S","lat":51.482358,"lon":-0.182168,"name":"Edith Grove / King's Road","parentId":"490G00015066","stationId":"490G00015066","stopLetter":"HN","topMostParentId":"490G00015066"},{"icsId":"1005086","id":"490005076E","lat":51.482446,"lon":-0.179155,"name":"Hobury Street / Worlds End","parentId":"490G00005086","stationId":"490G00005086","stopLetter":"QH","topMostParentId":"490G00005086"},{"icsId":"1005078","id":"490005076S","lat":51.483103,"lon":-0.178048,"name":"Limerston Street","parentId":"490G00005078","stationId":"490G00005078","stopLetter":"QX","topMostParentId":"490G00005078"}]},{"stopPoint":[{"icsId":"1019758","id":"490007055HK","lat":51.484456,"lon":-0.184663,"name":"Fulham Road / Chelsea & Westminster Hosp","parentId":"490G00019758","stationId":"490G00019758","stopLetter":"HK","topMostParentId":"490G00019758"},{"icsId":"1005087","id":"490005087W","lat":51.482639,"lon":-0.178297,"name":"Chelsea Worlds End","parentId":"490G00005087","stationId":"490G00005087","stopLetter":"QZ","topMostParentId":"490G00005087"}]}]}