{"direction":"outbound","lineId":"329","lineName":"329","mode":"bus","stopPointSequences":[{"stopPoint":[{"icsId":"1009222","id":"490009222A","lat":51.6527,"lon":-0.086498,"name":"Little Park Gardens","parentId":"490G00009222","stationId":"490G00009222","stopLetter":"A","topMostParentId":"490G00009222"},{"icsId":"1006587","id":"490006587C","lat":51.65226,"lon":-0.08432,"name":"Enfield Town / Church Street","parentId":"490G00006587","stationId":"490G00006587","stopLetter":"C","topMostParentId":"490G00006587"},{"icsId":"1006588","id":"490006588R","lat":51.651668,"lon":-0.079458,"name":"Enfield Town / Genotin Road","parentId":"490G000505","stationId":"490G000505","stopLetter":"R","topMostParentId":"490G000505"},{"icsId":"1004904","id":"490009169S","lat":51.64904,"lon":-0.079887,"name":"Cecil Road / St Annes School","parentId":"490G00004904","stationId":"490G00004904","stopLetter":"T","topMostParentId":"490G00004904"},{"icsId":"1010760","id":"490010760S","lat":51.646225,"lon":-0.080382,"name":"Park Crescent","parentId":"490G00010760","stationId":"490G00010760","stopLetter":"A","topMostParentId":"490G00010760"},{"icsId":"1004650","id":"490004650S","lat":51.644082,"lon":-0.080762,"name":"Bush Hill","parentId":"490G00004650","stationId":"490G00004650","stopLetter":"B","topMostParentId":"490G00004650"},{"icsId":"1011857","id":"490011857S","lat":51.641372,"lon":-0.078911,"name":"St Stephens Church","parentId":"490G00011857","stationId":"490G00011857","stopLetter":"C","topMostParentId":"490G00011857"},{"icsId":"1005549","id":"490005549S","lat":51.638619,"lon":-0.079937,"name":"Conifer Gardens","parentId":"490G00005549","stationId":"490G00005549","stopLetter":"D","topMostParentId":"490G00005549"},{"icsId":"1005306","id":"490005306S","lat":51.637199,"lon":-0.081067,"name":"Church Street","parentId":"490G00005306","stationId":"490G00005306","stopLetter":"A","topMostParentId":"490G00005306"},{"icsId":"1012220","id":"490012220W","lat":51.635798,"lon":-0.086704,"name":"Solna Road","parentId":"490G00012220","stationId":"490G00012220","stopLetter":"E","topMostParentId":"490G00012220"},{"icsId":"1007438","id":"490007438S1","lat":51.635486,"lon":-0.091833,"name":"Green Dragon Lane","parentId":"490G00007438","stationId":"490G00007438","stopLetter":"F","topMostParentId":"490G00007438"},{"icsId":"1006513","id":"490006513S","lat":51.633775,"lon":-0.093899,"name":"Shrubbery Gardens","parentId":"490G00006513","stationId":"490G00006513","stopLetter":"H","topMostParentId":"490G00006513"},{"icsId":"1012612","id":"490012612A","lat":51.632096,"lon":-0.094648,"name":"Station Road","parentId":"490G000763","stationId":"490G000763","stopLetter":"K","topMostParentId":"490G000763"},{"icsId":"1014755","id":"490014755S","lat":51.628822,"lon":-0.097921,"name":"Highfield Road","parentId":"490G00014755","stationId":"490G00014755","stopLetter":"L","topMostParentId":"490G00014755"},{"icsId":"1003653","id":"490003653S","lat":51.627192,"lon":-0.098336,"name":"Woodberry Avenue","parentId":"490G00003653","stationId":"490G00003653","stopLetter":"M","topMostParentId":"490G00003653"},{"icsId":"1009764","id":"490009764S","lat":51.624986,"lon":-0.100393,"name":"Meadowcroft Road","parentId":"490G00009764","stationId":"490G00009764","stopLetter":"->S","topMostParentId":"490G00009764"},{"icsId":"1004196","id":"490004196S","lat":51.6231,"lon":-0.10443,"name":"Bourne Hill","parentId":"490G00004196","stationId":"490G00004196","stopLetter":"->S","topMostParentId":"490G00004196"},{"icsId":"1006974","id":"490006974Z","lat":51.621137,"lon":-0.105913,"name":"Fox Lane","parentId":"490G00006974","stationId":"490G00006974","stopLetter":"Z","topMostParentId":"490G00006974"},{"icsId":"1009248","id":"490009248B","lat":51.618611,"lon":-0.107665,"name":"Lodge Drive","parentId":"490G00009248","stationId":"490G00009248","stopLetter":"B","topMostParentId":"490G00009248"},{"icsId":"1010736","id":"490010736H","lat":51.616739,"lon":-0.109202,"name":"Palmers Green / The Triangle","parentId":"490G000696","stationId":"490G000696","stopLetter":"H","topMostParentId":"490G000696"},{"icsId":"1004486","id":"490004486K","lat":51.615162,"lon":-0.109556,"name":"Broomfield Lane","parentId":"490G00004486","stationId":"490G00004486","stopLetter":"K","topMostParentId":"490G00004486"},{"icsId":"1015331","id":"490015399S","lat":51.613203,"lon":-0.109638,"name":"North Circular Road","parentId":"490G00015331","stationId":"490G00015331","stopLetter":"M","topMostParentId":"490G00015331"},{"icsId":"1010333","id":"490010333W","lat":51.611275,"lon":-0.109443,"name":"Tottenhall Road","parentId":"490G00010333","stationId":"490G00010333","stopLetter":"W","topMostParentId":"490G00010333"},{"icsId":"1003875","id":"490003925S","lat":51.60842,"lon":-0.11027,"name":"Berkshire Gardens","parentId":"490G00003875","stationId":"490G00003875","stopLetter":"BT","topMostParentId":"490G00003875"},{"icsId":"1009709","id":"490009709S","lat":51.60701,"lon":-0.11092,"name":"Arcadian Gardens","parentId":"490G00009709","stationId":"490G00009709","stopLetter":"BU","topMostParentId":"490G00009709"},{"icsId":"1010274","id":"490010274S","lat":51.603408,"lon":-0.111734,"name":"Nightingale Road","parentId":"490G00010274","stationId":"490G00010274","stopLetter":"BV","topMostParentId":"490G00010274"},{"icsId":"1004746","id":"490004746S","lat":51.601794,"lon":-0.112032,"name":"Canning Crescent","parentId":"490G00004746","stationId":"490G00004746","stopLetter":"BW","topMostParentId":"490G00004746"},{"icsId":"1007797","id":"490007797S","lat":51.599956,"lon":-0.111271,"name":"Haringey Civic Centre","parentId":"490G00007797","stationId":"490G00007797","stopLetter":"BY","topMostParentId":"490G00007797"},{"icsId":"1000275","id":"490000275D","lat":51.597592,"lon":-0.110185,"name":"Wood Green Station","parentId":"490G00275D","stationId":"490G00275D","stopLetter":"D","topMostParentId":"940GZZLUWOG","zone":"3"},{"icsId":"1009469","id":"490014854GB","lat":51.595593,"lon":-0.108896,"name":"Wood Green Shopping City","parentId":"490G00009469","stationId":"490G00009469","stopLetter":"GB","topMostParentId":"490G00009469"},{"icsId":"1009461","id":"490009461K","lat":51.593141,"lon":-0.106284,"name":"Brampton Park Road","parentId":"490G00009461","stationId":"490G00009461","stopLetter":"K","topMostParentId":"490G00009461"},{"icsId":"1014669","id":"490000241MA","lat":51.591089,"lon":-0.104002,"name":"Coleraine Road","parentId":"490G000835","stationId":"490G000835","stopLetter":"MA","topMostParentId":"490G000835"},{"icsId":"1000241","id":"490015475Y","lat":51.589626,"lon":-0.102475,"name":"Turnpike Lane Station","parentId":"490G00241M","stationId":"490G00241M","stopLetter":"Y","topMostParentId":"940GZZLUTPN","zone":"3"}]}]}