{"direction":"outbound","lineId":"344","lineName":"344","mode":"bus","stopPointSequences":[{"stopPoint":[{"icsId":"1001069","id":"490001069C","lat":51.463013,"lon":-0.170484,"name":"Clapham Junction Station","parentId":"490G01069M","stationId":"490G01069M","stopLetter":"C","topMostParentId":"490G01069M"},{"icsId":"1005331","id":"490005331E","lat":51.464316,"lon":-0.168129,"name":"Clapham Junction Station  / Falcon Road","parentId":"490G000461","stationId":"490G000461","stopLetter":"E","topMostParentId":"HUBCLJ"},{"icsId":"1009849","id":"490009843F","lat":51.466325,"lon":-0.169531,"name":"Clapham Junction Station  / Falcon Road","parentId":"490G00009849","stationId":"490G00009849","stopLetter":"F","topMostParentId":"490G00009849"},{"icsId":"1008486","id":"490008486N","lat":51.467259,"lon":-0.170602,"name":"Ingrave Street","parentId":"490G00008486","stationId":"490G00008486","stopLetter":"N","topMostParentId":"490G00008486"},{"icsId":"1003687","id":"490003687N1","lat":51.469549,"lon":-0.171547,"name":"Battersea High Street","parentId":"490G00003687","stationId":"490G00003687","stopLetter":"LK","topMostParentId":"490G00003687"},{"icsId":"1004568","id":"490004568E","lat":51.471134,"lon":-0.169353,"name":"Bullen Street","parentId":"490G00004568","stationId":"490G00004568","stopLetter":"LQ","topMostParentId":"490G00004568"},{"icsId":"1013443","id":"490013443E","lat":51.472392,"lon":-0.164709,"name":"The Latchmere","parentId":"490G00013443","stationId":"490G00013443","stopLetter":"LS","topMostParentId":"490G00013443"},{"icsId":"1003685","id":"490003685E","lat":51.474037,"lon":-0.158941,"name":"Harris Academy / Battersea","parentId":"490G00003685","stationId":"490G00003685","stopLetter":"LT","topMostParentId":"490G00003685"},{"icsId":"1003690","id":"490003690E","lat":51.474459,"lon":-0.156635,"name":"Battersea Park Library","parentId":"490G00003690","stationId":"490G00003690","stopLetter":"LY","topMostParentId":"490G00003690"},{"icsId":"1014497","id":"490014497E","lat":51.47523,"lon":-0.152442,"name":"Macduff Road","parentId":"490G00014497","stationId":"490G00014497","stopLetter":"LZ","topMostParentId":"490G00014497"},{"icsId":"1013341","id":"490011361G","lat":51.476182,"lon":-0.148976,"name":"Battersea Medical Centre","parentId":"490G000784","stationId":"490G000784","stopLetter":"G","topMostParentId":"490G000784"},{"icsId":"1001016","id":"490001016A","lat":51.477107,"lon":-0.147167,"name":"Battersea Park Station","parentId":"490G01016A","stationId":"490G01016A","stopLetter":"A","topMostParentId":"910GBATRSPK"},{"icsId":"1003686","id":"490003686E","lat":51.478197,"lon":-0.145035,"name":"Battersea Dogs & Cats Home","parentId":"490G00003686","stationId":"490G00003686","stopLetter":"J","topMostParentId":"490G00003686"},{"icsId":"1012196","id":"490012196E","lat":51.479836,"lon":-0.141224,"name":"Sleaford Street","parentId":"490G00012196","stationId":"490G00012196","stopLetter":"A","topMostParentId":"490G00012196"},{"icsId":"1005777","id":"490005777E","lat":51.481612,"lon":-0.138084,"name":"Riverlight Quay","parentId":"490G00005777","stationId":"490G00005777","stopLetter":"B","topMostParentId":"490G00005777"},{"icsId":"1001274","id":"490006515E","lat":51.483286,"lon":-0.133652,"name":"United States Embassy","parentId":"490G000272","stationId":"490G000272","stopLetter":"C","topMostParentId":"490G000272"},{"icsId":"1000714","id":"490014193E","lat":51.484625,"lon":-0.129089,"name":"St George Wharf Pier","parentId":"490G000270","stationId":"490G000270","topMostParentId":"490G000270"},{"icsId":"1020252","id":"490000247J","lat":51.484684,"lon":-0.124853,"name":"Vauxhall Bus Station","parentId":"490G00020252","stationId":"490G00020252","stopLetter":"J","topMostParentId":"HUBVXH"},{"icsId":"1014020","id":"490014020P","lat":51.487234,"lon":-0.123538,"name":"Vauxhall Cross","parentId":"490G00014020","stationId":"490G00014020","stopLetter":"P","topMostParentId":"HUBVXH"},{"icsId":"1011192","id":"490011192N","lat":51.490432,"lon":-0.122744,"name":"Albert Embankment / Prince Consort House","parentId":"490G00011192","stationId":"490G00011192","stopLetter":"SL","topMostParentId":"490G00011192"},{"icsId":"1011858","id":"490011858N","lat":51.491279,"lon":-0.122263,"name":"Salamanca Street","parentId":"490G00011858","stationId":"490G00011858","stopLetter":"SM","topMostParentId":"490G00011858"},{"icsId":"1008916","id":"490008916E","lat":51.493541,"lon":-0.121464,"name":"Lambeth Bridge","parentId":"490G00008916","stationId":"490G00008916","stopLetter":"SN","topMostParentId":"490G00008916"},{"icsId":"1008917","id":"490008917E1","lat":51.494792,"lon":-0.11928,"name":"Lambeth Palace","parentId":"490G00008917","stationId":"490G00008917","stopLetter":"SC","topMostParentId":"490G00008917"},{"icsId":"1011169","id":"490011169E","lat":51.495274,"lon":-0.116797,"name":"Pratt Walk","parentId":"490G00011169","stationId":"490G00011169","stopLetter":"->E","topMostParentId":"490G00011169"},{"icsId":"1008647","id":"490008647E","lat":51.49626,"lon":-0.112708,"name":"Lambeth Road / Kennington Road","parentId":"490G00008647","stationId":"490G00008647","stopLetter":"J","topMostParentId":"490G00008647"},{"icsId":"1008473","id":"490015351E","lat":51.497032,"lon":-0.10929,"name":"Imperial War Museum","parentId":"490G000607","stationId":"490G000607","stopLetter":"K","topMostParentId":"490G000607"},{"icsId":"1012693","id":"490012693D","lat":51.498615,"lon":-0.108173,"name":"St George's Circus","parentId":"490G00012693","stationId":"490G00012693","stopLetter":"D","topMostParentId":"490G00012693"},{"icsId":"1009281","id":"490009281C","lat":51.496819,"lon":-0.102226,"name":"Elephant & Castle / London Road","parentId":"490G000642","stationId":"490G000642","stopLetter":"C","topMostParentId":"490G000642"},{"icsId":"1009297","id":"490000073F","lat":51.496432,"lon":-0.09998,"name":"Elephant & Castle / Newington Causeway","parentId":"490G000644","stationId":"490G000644","stopLetter":"F","topMostParentId":"490G000644"},{"icsId":"1004158","id":"490004158N","lat":51.498332,"lon":-0.100117,"name":"Borough Road","parentId":"490G00004158","stationId":"490G00004158","stopLetter":"->N","topMostParentId":"490G00004158"},{"icsId":"1007416","id":"490007416N","lat":51.50062,"lon":-0.099244,"name":"Great Suffolk Street","parentId":"490G00007416","stationId":"490G00007416","stopLetter":"->N","topMostParentId":"490G00007416"},{"icsId":"1009693","id":"490009693N","lat":51.50279,"lon":-0.097208,"name":"Marshalsea Road","parentId":"490G00009693","stationId":"490G00009693","stopLetter":"BH","topMostParentId":"490G00009693"},{"icsId":"1012348","id":"490012348E","lat":51.50489,"lon":-0.094714,"name":"Southwark Street / Southwark Bridge Road","parentId":"490G000754","stationId":"490G000754","stopLetter":"BV","topMostParentId":"490G000754"},{"icsId":"1013424","id":"490013424E","lat":51.504884,"lon":-0.091616,"name":"The Hop Exchange","parentId":"490G00013424","stationId":"490G00013424","stopLetter":"->E","topMostParentId":"490G00013424"},{"icsId":"1018542","id":"490000139M","lat":51.506555,"lon":-0.088175,"name":"London Bridge","parentId":"490G000922","stationId":"490G000922","stopLetter":"M","topMostParentId":"HUBLBG"},{"icsId":"1000148","id":"490009267D","lat":51.509466,"lon":-0.087476,"name":"Monument Station","parentId":"490G09267E","stationId":"490G09267E","stopLetter":"Q","topMostParentId":"940GZZLUMMT","zone":"1"},{"icsId":"1019174","id":"490000148M","lat":51.512017,"lon":-0.085107,"name":"Fenchurch Street","parentId":"490G000934","stationId":"490G000934","stopLetter":"M","topMostParentId":"490G000934"},{"icsId":"1009037","id":"490009037N","lat":51.514112,"lon":-0.083953,"name":"Threadneedle Street","parentId":"490G00009037","stationId":"490G00009037","stopLetter":"LN","topMostParentId":"490G00009037"},{"icsId":"1004043","id":"490004043N2","lat":51.515657,"lon":-0.082216,"name":"Wormwood Street","parentId":"490G00004043","stationId":"490G00004043","stopLetter":"W","topMostParentId":"490G00004043"},{"icsId":"1000138","id":"490000138E","lat":51.518103,"lon":-0.080052,"name":"Liverpool Street Station","parentId":"490G00138E","stationId":"490G00138E","stopLetter":"E","topMostParentId":"HUBLST","zone":"1"},{"icsId":"1012391","id":"490011187N","lat":51.520362,"lon":-0.079049,"name":"Primrose Street","parentId":"490G00012391","stationId":"490G00012391","stopLetter":"H","topMostParentId":"490G00012391"},{"icsId":"1016576","id":"490016576AP","lat":51.521755,"lon":-0.08121,"name":"Appold Street","parentId":"490G00016576","stationId":"490G00016576","topMostParentId":"490G00016576"}]}]}