{"direction":"outbound","lineId":"357","lineName":"357","mode":"bus","stopPointSequences":[{"stopPoint":[{"icsId":"1005167","id":"490005167S","lat":51.619852,"lon":0.008734,"name":"Chingdale Road","parentId":"490G00005167","stationId":"490G00005167","stopLetter":"HM","topMostParentId":"490G00005167"},{"icsId":"1005174","id":"490005174W","lat":51.618602,"lon":0.003984,"name":"Hatch Lane","parentId":"490G00005174","stationId":"490G00005174","stopLetter":"HS","topMostParentId":"490G00005174"},{"icsId":"1009632","id":"490009632W","lat":51.618291,"lon":-0.002053,"name":"Mapleton Road","parentId":"490G00009632","stationId":"490G00009632","stopLetter":"HW","topMostParentId":"490G00009632"},{"icsId":"1007574","id":"490007574W","lat":51.617623,"lon":-0.007716,"name":"Grove Road","parentId":"490G00007574","stationId":"490G00007574","stopLetter":"N","topMostParentId":"490G00007574"},{"icsId":"1008982","id":"490008982W","lat":51.617128,"lon":-0.012461,"name":"Larkswood School","parentId":"490G00008982","stationId":"490G00008982","stopLetter":"M","topMostParentId":"490G00008982"},{"icsId":"1005178","id":"490005178K","lat":51.616739,"lon":-0.016595,"name":"Brook Crescent","parentId":"490G000451","stationId":"490G000451","stopLetter":"K","topMostParentId":"490G000451"},{"icsId":"1007676","id":"490007676J","lat":51.616635,"lon":-0.017351,"name":"Hall Lane","parentId":"490G000561","stationId":"490G000561","stopLetter":"J","topMostParentId":"490G000561"},{"icsId":"1008981","id":"490008981S","lat":51.613543,"lon":-0.017413,"name":"Larkswood Road","parentId":"490G00008981","stationId":"490G00008981","stopLetter":"U","topMostParentId":"490G00008981"},{"icsId":"1003124","id":"490003124S","lat":51.612192,"lon":-0.017848,"name":"Ainslie Wood Road","parentId":"490G00003124","stationId":"490G00003124","stopLetter":"V","topMostParentId":"490G00003124"},{"icsId":"1009091","id":"490009091S","lat":51.609614,"lon":-0.017469,"name":"Leonard Road","parentId":"490G00009091","stationId":"490G00009091","stopLetter":"->S","topMostParentId":"490G00009091"},{"icsId":"1008132","id":"490008132S","lat":51.60738,"lon":-0.016686,"name":"Higham Station Avenue","parentId":"490G00008132","stationId":"490G00008132","stopLetter":"->S","topMostParentId":"490G00008132"},{"icsId":"1011741","id":"490011741S","lat":51.605207,"lon":-0.016347,"name":"Rowden Park Gardens","parentId":"490G00011741","stationId":"490G00011741","stopLetter":"CC","topMostParentId":"490G00011741"},{"icsId":"1014170","id":"490014170S","lat":51.60366,"lon":-0.016342,"name":"Walthamstow Stadium","parentId":"490G00014170","stationId":"490G00014170","stopLetter":"CD","topMostParentId":"490G00014170"},{"icsId":"1005781","id":"490005781S","lat":51.599747,"lon":-0.015719,"name":"Crooked Billet Roundabout","parentId":"490G00005781","stationId":"490G00005781","stopLetter":"CE","topMostParentId":"490G00005781"},{"icsId":"1004303","id":"490004303S","lat":51.597703,"lon":-0.015057,"name":"Brettenham Road","parentId":"490G00004303","stationId":"490G00004303","stopLetter":"CF","topMostParentId":"490G00004303"},{"icsId":"1012179","id":"490012179S","lat":51.595044,"lon":-0.01575,"name":"Sir George Monoux College","parentId":"490G00012179","stationId":"490G00012179","stopLetter":"BK","topMostParentId":"490G00012179"},{"icsId":"1014158","id":"490014158S","lat":51.593778,"lon":-0.01748,"name":"Aveling Park Road","parentId":"490G00014158","stationId":"490G00014158","stopLetter":"BL","topMostParentId":"490G00014158"},{"icsId":"1014163","id":"490014163S","lat":51.590619,"lon":-0.017315,"name":"Forest Road / Bell Corner","parentId":"490G00014163","stationId":"490G00014163","stopLetter":"BM","topMostParentId":"490G00014163"},{"icsId":"1004518","id":"490004518S","lat":51.588494,"lon":-0.020323,"name":"Jewel Road","parentId":"490G00004518","stationId":"490G00004518","stopLetter":"BN","topMostParentId":"490G00004518"},{"icsId":"1014165","id":"490014165J","lat":51.585359,"lon":-0.019478,"name":"Walthamstow Market","parentId":"490G00014165","stationId":"490G00014165","stopLetter":"J","topMostParentId":"490G00014165"},{"icsId":"1000249","id":"490000249XX","lat":51.582983,"lon":-0.018311,"name":"Walthamstow Central Station","parentId":"490G00249M","stationId":"490G00249M","stopLetter":"->S","topMostParentId":"HUBWHC","zone":"3"},{"icsId":"1007547","id":"490007547S","lat":51.579562,"lon":-0.018056,"name":"Grosvenor Park Road","parentId":"490G00007547","stationId":"490G00007547","stopLetter":"K","topMostParentId":"490G00007547"},{"icsId":"1007576","id":"490007576S","lat":51.577582,"lon":-0.016367,"name":"Grove Road","parentId":"490G00007576","stationId":"490G00007576","stopLetter":"SJ","topMostParentId":"490G00007576"},{"icsId":"1015099","id":"490015099A","lat":51.576197,"lon":-0.014796,"name":"Bakers Avenue","parentId":"490G00015099","stationId":"490G00015099","stopLetter":"SK","topMostParentId":"490G00015099"},{"icsId":"1015102","id":"490015102C","lat":51.576388,"lon":-0.011685,"name":"Lea Bridge Road / Bakers Arms","parentId":"490G00015102","stationId":"490G00015102","stopLetter":"EH","topMostParentId":"490G00015102"},{"icsId":"1009135","id":"490009135EJ","lat":51.57768,"lon":-0.008352,"name":"Leyton Green Road","parentId":"490G00009135","stationId":"490G00009135","stopLetter":"EJ","topMostParentId":"490G00009135"},{"icsId":"1012080","id":"490012080E","lat":51.579617,"lon":-0.005381,"name":"Shernhall Street","parentId":"490G00012080","stationId":"490G00012080","stopLetter":"EK","topMostParentId":"490G00012080"},{"icsId":"1006342","id":"490006342E","lat":51.580025,"lon":-0.003443,"name":"Peterborough Road","parentId":"490G00006342","stationId":"490G00006342","stopLetter":"EL","topMostParentId":"490G00006342"},{"icsId":"1014569","id":"490014569A","lat":51.58116,"lon":-0.000925,"name":"Whipps Cross / Wood Street","parentId":"490G00014569","stationId":"490G00014569","stopLetter":"A","topMostParentId":"490G00014569"}]},{"stopPoint":[{"icsId":"1014569","id":"490014569A","lat":51.58116,"lon":-0.000925,"name":"Whipps Cross / Wood Street","parentId":"490G00014569","stationId":"490G00014569","stopLetter":"A","topMostParentId":"490G00014569"},{"icsId":"1002116","id":"490002116Z","lat":51.581141,"lon":0.001773,"name":"Whipps Cross Bus Stand","parentId":"490G000338","stationId":"490G000338","topMostParentId":"490G000338"},{"icsId":"1014568","id":"490014568S2","lat":51.579568,"lon":0.001184,"name":"Whipps Cross Hospital / Main Entrance","parentId":"490G00014568","stationId":"490G00014568","stopLetter":"K","topMostParentId":"490G00014568"},{"icsId":"1014567","id":"490014567E","lat":51.577473,"lon":0.002752,"name":"Whipps Cross Hospital / A & E","parentId":"490G00014567","stationId":"490G00014567","stopLetter":"L","topMostParentId":"490G00014567"}]},{"stopPoint":[{"icsId":"1014569","id":"490014569A","lat":51.58116,"lon":-0.000925,"name":"Whipps Cross / Wood Street","parentId":"490G00014569","stationId":"490G00014569","stopLetter":"A","topMostParentId":"490G00014569"},{"icsId":"1002116","id":"490002116V","lat":51.581509,"lon":0.001284,"name":"Whipps Cross Bus Stand","parentId":"490G000338","stationId":"490G000338","stopLetter":"->N","topMostParentId":"490G000338"}]}]}