{"direction":"outbound","lineId":"366","lineName":"366","mode":"bus","stopPointSequences":[{"stopPoint":[{"icsId":"1015719","id":"490015719S","lat":51.58557,"lon":0.043758,"name":"Falmouth Gardens","parentId":"490G00015719","stationId":"490G00015719","stopLetter":"->S","topMostParentId":"490G00015719"},{"icsId":"1015719","id":"490015719S2","lat":51.58452,"lon":0.042094,"name":"Falmouth Gardens","parentId":"490G00015719","stationId":"490G00015719","topMostParentId":"490G00015719"},{"icsId":"1011630","id":"490011630S2","lat":51.578531,"lon":0.044106,"name":"Roding Lane S  Vista Drive","parentId":"490G00011630","stationId":"490G00011630","stopLetter":"->S","topMostParentId":"490G00011630"},{"icsId":"1011630","id":"490011630S1","lat":51.577152,"lon":0.045357,"name":"Roding Lane S  Vista Drive","parentId":"490G00011630","stationId":"490G00011630","topMostParentId":"490G00011630"},{"icsId":"1006659","id":"490006659E","lat":51.57618,"lon":0.047449,"name":"Redbridge Station","parentId":"490G00006659","stationId":"490G00006659","stopLetter":"RH","topMostParentId":"490G00006659"},{"icsId":"1013334","id":"490013334S","lat":51.575693,"lon":0.052666,"name":"The Drive Methodist Church","parentId":"490G00013334","stationId":"490G00013334","stopLetter":"RK","topMostParentId":"490G00013334"},{"icsId":"1014203","id":"490014203S","lat":51.572854,"lon":0.054602,"name":"Wanstead Lane","parentId":"490G00014203","stationId":"490G00014203","topMostParentId":"490G00014203"},{"icsId":"1007245","id":"490007245S","lat":51.571345,"lon":0.056006,"name":"Cranbrook Primary School","parentId":"490G00007245","stationId":"490G00007245","stopLetter":"VZ","topMostParentId":"490G00007245"},{"icsId":"1012535","id":"490012535S","lat":51.569782,"lon":0.057436,"name":"St Andrew's Church","parentId":"490G00012535","stationId":"490G00012535","stopLetter":"VU","topMostParentId":"490G00012535"},{"icsId":"1012013","id":"490012013S","lat":51.567632,"lon":0.060038,"name":"Seymour Gardens","parentId":"490G00012013","stationId":"490G00012013","stopLetter":"VV","topMostParentId":"490G00012013"},{"icsId":"1006063","id":"490006063S","lat":51.566579,"lon":0.062154,"name":"De Vere Gardens","parentId":"490G00006063","stationId":"490G00006063","stopLetter":"VX","topMostParentId":"490G00006063"},{"icsId":"1005697","id":"490005697S","lat":51.565442,"lon":0.064931,"name":"Cranbrook Road","parentId":"490G00005697","stationId":"490G00005697","stopLetter":"VY","topMostParentId":"490G00005697"},{"icsId":"1013311","id":"490013311OA","lat":51.563274,"lon":0.06756,"name":"Coventry Road","parentId":"490G00013311","stationId":"490G00013311","stopLetter":"VH","topMostParentId":"490G00013311"},{"icsId":"1001157","id":"490001157K","lat":51.559432,"lon":0.070228,"name":"Ilford Station","parentId":"490G01157G","stationId":"490G01157G","stopLetter":"K","topMostParentId":"910GILFORD"},{"icsId":"1008466","id":"490008466R","lat":51.558154,"lon":0.074353,"name":"Redbridge Central Library","parentId":"490G00008466","stationId":"490G00008466","stopLetter":"R","topMostParentId":"490G00008466"},{"icsId":"1007657","id":"490007657T","lat":51.559882,"lon":0.077317,"name":"Hainault Street","parentId":"490G00007657","stationId":"490G00007657","stopLetter":"T","topMostParentId":"490G00007657"},{"icsId":"1003163","id":"490003163S2","lat":51.558803,"lon":0.082375,"name":"Sunnyside Road  Albert Road","parentId":"490G00003163","stationId":"490G00003163","stopLetter":"->S","topMostParentId":"490G00003163"},{"icsId":"1013025","id":"490013025S","lat":51.55191,"lon":0.085652,"name":"Sunnyside Road Loxford","parentId":"490G00013025","stationId":"490G00013025","stopLetter":"->S","topMostParentId":"490G00013025"},{"icsId":"1017309","id":"490017309E2","lat":51.552857,"lon":0.091047,"name":"South Park Road  Eton Road","parentId":"490G00017309","stationId":"490G00017309","stopLetter":"->E","topMostParentId":"490G00017309"},{"icsId":"1006656","id":"490006656E","lat":51.553415,"lon":0.093568,"name":"Eton Road","parentId":"490G00006656","stationId":"490G00006656","stopLetter":"->E","topMostParentId":"490G00006656"},{"icsId":"1006656","id":"490006656S","lat":51.553302,"lon":0.094328,"name":"Eton Road","parentId":"490G00006656","stationId":"490G00006656","stopLetter":"->S","topMostParentId":"490G00006656"},{"icsId":"1008449","id":"490008449W","lat":51.550484,"lon":0.09153,"name":"Loxford School Of Science and Technology","parentId":"490G00008449","stationId":"490G00008449","stopLetter":"BU","topMostParentId":"490G00008449"},{"icsId":"1009437","id":"490009437W","lat":51.549875,"lon":0.087304,"name":"Loxford Youth Centre","parentId":"490G00009437","stationId":"490G00009437","stopLetter":"BV","topMostParentId":"490G00009437"},{"icsId":"1003581","id":"490003581W","lat":51.547204,"lon":0.082307,"name":"Bankside Road","parentId":"490G00003581","stationId":"490G00003581","stopLetter":"U","topMostParentId":"490G00003581"},{"icsId":"1009434","id":"490009434W","lat":51.546876,"lon":0.080518,"name":"Buttsbury Road","parentId":"490G00009434","stationId":"490G00009434","stopLetter":"V","topMostParentId":"490G00009434"},{"icsId":"1010310","id":"490011652S","lat":51.545444,"lon":0.077049,"name":"Loxford Polyclinic","parentId":"490G00010310","stationId":"490G00010310","stopLetter":"H","topMostParentId":"490G00010310"},{"icsId":"1009433","id":"490009432S","lat":51.543588,"lon":0.078767,"name":"Park Avenue","parentId":"490G00009433","stationId":"490G00009433","topMostParentId":"490G00009433"},{"icsId":"1009294","id":"490009294S","lat":51.541683,"lon":0.082257,"name":"Longbridge Road","parentId":"490G00009294","stationId":"490G00009294","stopLetter":"R","topMostParentId":"490G00009294"},{"icsId":"1000015","id":"490000015X","lat":51.539859,"lon":0.082145,"name":"Barking Station","parentId":"490G00015G","stationId":"490G00015G","stopLetter":"->N","topMostParentId":"HUBBKG","zone":"4"},{"icsId":"1003616","id":"490003616C","lat":51.538056,"lon":0.078357,"name":"Barking Town Centre","parentId":"490G00003616","stationId":"490G00003616","stopLetter":"C","topMostParentId":"490G00003616"},{"icsId":"1010408","id":"490010408F","lat":51.537621,"lon":0.07551,"name":"North Street","parentId":"490G00010408","stationId":"490G00010408","stopLetter":"F","topMostParentId":"490G00010408"},{"icsId":"1003615","id":"490003615S","lat":51.537089,"lon":0.070987,"name":"Barking Tesco","parentId":"490G00003615","stationId":"490G00003615","stopLetter":"Z","topMostParentId":"490G00003615"},{"icsId":"1003305","id":"490003305S","lat":51.529989,"lon":0.072813,"name":"Quay Road","parentId":"490G00003305","stationId":"490G00003305","stopLetter":"->S","topMostParentId":"490G00003305"},{"icsId":"1003754","id":"490003754S","lat":51.525559,"lon":0.0792,"name":"Beckton Showcase Cinema","parentId":"490G00003754","stationId":"490G00003754","stopLetter":"->S","topMostParentId":"490G00003754"},{"icsId":"1005335","id":"490005335W","lat":51.521405,"lon":0.070521,"name":"Beckton Triangle Retail Park","parentId":"490G00005335","stationId":"490G00005335","stopLetter":"D","topMostParentId":"490G00005335"},{"icsId":"1006318","id":"490006318N1","lat":51.52121,"lon":0.066821,"name":"East Beckton / Sainsbury's","parentId":"490G00006318","stationId":"490G00006318","stopLetter":"A","topMostParentId":"490G00006318"},{"icsId":"1005335","id":"490005335E","lat":51.521586,"lon":0.070457,"name":"Beckton Triangle Retail Park","parentId":"490G00005335","stationId":"490G00005335","stopLetter":"C","topMostParentId":"490G00005335"},{"icsId":"1016872","id":"490016872S","lat":51.516405,"lon":0.079663,"name":"Gallions Reach Shopping Park","parentId":"490G00016872","stationId":"490G00016872","stopLetter":"R","topMostParentId":"490G00016872"},{"icsId":"1000425","id":"490018760S","lat":51.511906,"lon":0.080827,"name":"Hornet Way","parentId":"490G000074","stationId":"490G000074","stopLetter":"->S","topMostParentId":"490G000074"},{"icsId":"1018760","id":"490018760W","lat":51.510654,"lon":0.078421,"name":"Beckton DLR Depot","parentId":"490G00018760","stationId":"490G00018760","stopLetter":"->W","topMostParentId":"490G00018760"},{"icsId":"1018714","id":"490018714S","lat":51.509469,"lon":0.074764,"name":"Armada Point","parentId":"490G00018714","stationId":"490G00018714","stopLetter":"H","topMostParentId":"490G00018714"},{"icsId":"1002039","id":"490002039B","lat":51.508313,"lon":0.072492,"name":"Gallions Reach Station","parentId":"490G02039A","stationId":"490G02039A","stopLetter":"D","topMostParentId":"940GZZDLGAL","zone":"3"},{"icsId":"1006810","id":"490006804N1","lat":51.51065,"lon":0.068981,"name":"Ferndale Street","parentId":"490G00006810","stationId":"490G00006810","stopLetter":"E","topMostParentId":"490G00006810"},{"icsId":"1013355","id":"490013355W","lat":51.508956,"lon":0.066123,"name":"Devalls Close","parentId":"490G00013355","stationId":"490G00013355","stopLetter":"W","topMostParentId":"490G00013355"},{"icsId":"1002028","id":"490002028Q","lat":51.509044,"lon":0.064196,"name":"Cyprus Station","parentId":"490G02028M","stationId":"490G02028M","stopLetter":"Q","topMostParentId":"940GZZDLCYP","zone":"3"},{"icsId":"1009040","id":"490009040P","lat":51.509833,"lon":0.062761,"name":"Royal Docks Medical Centre","parentId":"490G000631","stationId":"490G000631","stopLetter":"P","topMostParentId":"490G000631"},{"icsId":"1011932","id":"490011932L","lat":51.51175,"lon":0.061652,"name":"Savage Gardens","parentId":"490G00011932","stationId":"490G00011932","stopLetter":"L","topMostParentId":"490G00011932"},{"icsId":"1006317","id":"490006317A","lat":51.513883,"lon":0.060523,"name":"Beckton Bus Station","parentId":"490G000496","stationId":"490G000496","stopLetter":"A","topMostParentId":"490G000496"}]}]}