{"direction":"outbound","lineId":"368","lineName":"368","mode":"bus","stopPointSequences":[{"stopPoint":[{"icsId":"1014196","id":"490004954F","lat":51.570133,"lon":0.129042,"name":"Wangey Road","parentId":"490G00014196","stationId":"490G00014196","stopLetter":"F","topMostParentId":"490G00014196"},{"icsId":"1004947","id":"490004947S","lat":51.570276,"lon":0.130578,"name":"Herbert Gardens","parentId":"490G00004947","stationId":"490G00004947","stopLetter":"E","topMostParentId":"490G00004947"},{"icsId":"1001055","id":"490001055B","lat":51.567475,"lon":0.129812,"name":"Chadwell Heath Station","parentId":"490G01055B","stationId":"490G01055B","stopLetter":"B","topMostParentId":"910GCHDWLHT"},{"icsId":"1009753","id":"490009741S","lat":51.564875,"lon":0.129878,"name":"Kemp Road","parentId":"490G00009753","stationId":"490G00009753","stopLetter":"E","topMostParentId":"490G00009753"},{"icsId":"1000354","id":"490007462S","lat":51.562561,"lon":0.130016,"name":"Valence Avenue / Green Lane","parentId":"490G00000354","stationId":"490G00000354","stopLetter":"F","topMostParentId":"490G00000354"},{"icsId":"1003900","id":"490003900W","lat":51.561639,"lon":0.126293,"name":"Greenway","parentId":"490G00003900","stationId":"490G00003900","stopLetter":"Q","topMostParentId":"490G00003900"},{"icsId":"1013542","id":"490013542S","lat":51.561396,"lon":0.124854,"name":"Tulasi Medical Centre","parentId":"490G00013542","stationId":"490G00013542","stopLetter":"Y","topMostParentId":"490G00013542"},{"icsId":"1020379","id":"490003901S","lat":51.559028,"lon":0.125984,"name":"Haydon Road","parentId":"490G00020379","stationId":"490G00020379","stopLetter":"Z","topMostParentId":"490G00020379"},{"icsId":"1014121","id":"490014121W","lat":51.557969,"lon":0.123381,"name":"Waldegrave Road","parentId":"490G00014121","stationId":"490G00014121","stopLetter":"T","topMostParentId":"490G00014121"},{"icsId":"1011948","id":"490011948W","lat":51.556335,"lon":0.120275,"name":"School Way","parentId":"490G00011948","stationId":"490G00011948","stopLetter":"UK","topMostParentId":"490G00011948"},{"icsId":"1009733","id":"490009733S","lat":51.554165,"lon":0.117434,"name":"Mayesbrook Road","parentId":"490G00009733","stationId":"490G00009733","stopLetter":"UL","topMostParentId":"490G00009733"},{"icsId":"1009295","id":"490009295S","lat":51.552179,"lon":0.114846,"name":"Longbridge Road","parentId":"490G00009295","stationId":"490G00009295","stopLetter":"UM","topMostParentId":"490G00009295"},{"icsId":"1008457","id":"490008457S","lat":51.548676,"lon":0.113616,"name":"Ilchester Road","parentId":"490G00008457","stationId":"490G00008457","stopLetter":"UN","topMostParentId":"490G00008457"},{"icsId":"1008523","id":"490008523S","lat":51.546557,"lon":0.113431,"name":"Ivinghoe Road","parentId":"490G00008523","stationId":"490G00008523","stopLetter":"UQ","topMostParentId":"490G00008523"},{"icsId":"1012644","id":"490012644S","lat":51.54416,"lon":0.113191,"name":"St Cedd's Church","parentId":"490G00012644","stationId":"490G00012644","stopLetter":"->S","topMostParentId":"490G00012644"},{"icsId":"1011123","id":"490011123S","lat":51.541034,"lon":0.112988,"name":"Porters Avenue","parentId":"490G00011123","stationId":"490G00011123","stopLetter":"->S","topMostParentId":"490G00011123"},{"icsId":"1014919","id":"490014919S","lat":51.537116,"lon":0.112345,"name":"Woodward Road","parentId":"490G00014919","stationId":"490G00014919","stopLetter":"L","topMostParentId":"490G00014919"},{"icsId":"1009629","id":"490009629S","lat":51.534143,"lon":0.11065,"name":"Maplestead Road","parentId":"490G00009629","stationId":"490G00009629","stopLetter":"M","topMostParentId":"490G00009629"},{"icsId":"1013224","id":"490013224W","lat":51.533389,"lon":0.106059,"name":"Barking Industrial Park","parentId":"490G00013224","stationId":"490G00013224","stopLetter":"Q","topMostParentId":"490G00013224"},{"icsId":"1011591","id":"490011591W","lat":51.534841,"lon":0.103833,"name":"Rippleside Cemetery","parentId":"490G00011591","stationId":"490G00011591","stopLetter":"T","topMostParentId":"490G00011591"},{"icsId":"1013834","id":"490013834W","lat":51.535681,"lon":0.098104,"name":"Tudor Road","parentId":"490G00013834","stationId":"490G00013834","stopLetter":"X","topMostParentId":"490G00013834"},{"icsId":"1004086","id":"490004086W","lat":51.535527,"lon":0.09468,"name":"Blake Avenue","parentId":"490G00004086","stationId":"490G00004086","stopLetter":"Y","topMostParentId":"490G00004086"},{"icsId":"1008741","id":"490008741W","lat":51.534333,"lon":0.086449,"name":"King Edwards Road","parentId":"490G00008741","stationId":"490G00008741","stopLetter":"W","topMostParentId":"490G00008741"},{"icsId":"1018827","id":"490018827N","lat":51.53464,"lon":0.083334,"name":"Westbury Road","parentId":"490G00018827","stationId":"490G00018827","stopLetter":"T","topMostParentId":"490G00018827"},{"icsId":"1003033","id":"490003033W","lat":51.534795,"lon":0.079708,"name":"Abbey Sports Centre","parentId":"490G00003033","stationId":"490G00003033","stopLetter":"Y","topMostParentId":"490G00003033"},{"icsId":"1004383","id":"490004383S","lat":51.535471,"lon":0.077042,"name":"Broadway Theatre","parentId":"490G00004383","stationId":"490G00004383","stopLetter":"S","topMostParentId":"490G00004383"},{"icsId":"1003603","id":"490003603A","lat":51.537113,"lon":0.076237,"name":"Barking Abbey","parentId":"490G00003603","stationId":"490G00003603","stopLetter":"A","topMostParentId":"490G00003603"},{"icsId":"1003616","id":"490003616E","lat":51.53834,"lon":0.078557,"name":"Barking Town Centre","parentId":"490G00003616","stationId":"490G00003616","stopLetter":"E","topMostParentId":"490G00003616"},{"icsId":"1000015","id":"490000015K","lat":51.539327,"lon":0.081227,"name":"Barking Station","parentId":"490G00015G","stationId":"490G00015G","stopLetter":"K","topMostParentId":"HUBBKG","zone":"4"},{"icsId":"1005686","id":"490005686N","lat":51.541026,"lon":0.074166,"name":"Cowbridge Lane","parentId":"490G00005686","stationId":"490G00005686","topMostParentId":"490G00005686"},{"icsId":"1007878","id":"490007878E","lat":51.541769,"lon":0.071286,"name":"Harts Lane Estate","parentId":"490G00007878","stationId":"490G00007878","topMostParentId":"490G00007878"}]}]}