{"direction":"outbound","lineId":"376","lineName":"376","mode":"bus","stopPointSequences":[{"stopPoint":[{"icsId":"1006317","id":"490006317B","lat":51.513789,"lon":0.060245,"name":"Beckton Bus Station","parentId":"490G000496","stationId":"490G000496","stopLetter":"B","topMostParentId":"490G000496"},{"icsId":"1002011","id":"490002011H","lat":51.514148,"lon":0.060794,"name":"Beckton Station","parentId":"490G02011G","stationId":"490G02011G","stopLetter":"H","topMostParentId":"940GZZDLBEC","zone":"3"},{"icsId":"1006389","id":"490006389E","lat":51.512092,"lon":0.064737,"name":"Covelees Wall","parentId":"490G00006389","stationId":"490G00006389","stopLetter":"G","topMostParentId":"490G00006389"},{"icsId":"1014787","id":"490014787S","lat":51.513392,"lon":0.068024,"name":"Winsor Park Estate","parentId":"490G00014787","stationId":"490G00014787","topMostParentId":"490G00014787"},{"icsId":"1008378","id":"490008378S","lat":51.511978,"lon":0.066591,"name":"Horse Leaze","parentId":"490G00008378","stationId":"490G00008378","stopLetter":"A","topMostParentId":"490G00008378"},{"icsId":"1013355","id":"490013355W","lat":51.508956,"lon":0.066123,"name":"Devalls Close","parentId":"490G00013355","stationId":"490G00013355","stopLetter":"W","topMostParentId":"490G00013355"},{"icsId":"1002028","id":"490002028Q","lat":51.509044,"lon":0.064196,"name":"Cyprus Station","parentId":"490G02028M","stationId":"490G02028M","stopLetter":"Q","topMostParentId":"940GZZDLCYP","zone":"3"},{"icsId":"1012896","id":"490006361E","lat":51.508893,"lon":0.061494,"name":"Strait Road / East Ham Manor Way","parentId":"490G000772","stationId":"490G000772","stopLetter":"R","topMostParentId":"490G000772"},{"icsId":"1011520","id":"490011520T","lat":51.508971,"lon":0.059148,"name":"Renfrew Close","parentId":"490G00011520","stationId":"490G00011520","stopLetter":"T","topMostParentId":"490G00011520"},{"icsId":"1002012","id":"490002012X","lat":51.50904,"lon":0.056197,"name":"Beckton Park Station","parentId":"490G02012X","stationId":"490G02012X","stopLetter":"X","topMostParentId":"940GZZDLBPK","zone":"3"},{"icsId":"1012577","id":"490012577W","lat":51.509264,"lon":0.050097,"name":"Strait Road / Stansfeld Road","parentId":"490G000761","stationId":"490G000761","stopLetter":"->W","topMostParentId":"490G000761"},{"icsId":"1012897","id":"490012897N","lat":51.510356,"lon":0.047278,"name":"Jake Russell Walk","parentId":"490G00012897","stationId":"490G00012897","stopLetter":"B","topMostParentId":"490G00012897"},{"icsId":"1014716","id":"490014716W","lat":51.512193,"lon":0.044579,"name":"Will Thorne Pavilion","parentId":"490G00014716","stationId":"490G00014716","stopLetter":"->W","topMostParentId":"490G00014716"},{"icsId":"1007062","id":"490007062N","lat":51.514341,"lon":0.042081,"name":"Fulmer Road","parentId":"490G00007062","stationId":"490G00007062","stopLetter":"->N","topMostParentId":"490G00007062"},{"icsId":"1003753","id":"490003753W","lat":51.516593,"lon":0.039818,"name":"Sullivan Avenue","parentId":"490G00003753","stationId":"490G00003753","stopLetter":"K","topMostParentId":"490G00003753"},{"icsId":"1005505","id":"490005505W","lat":51.516676,"lon":0.036045,"name":"Colman Road","parentId":"490G00005505","stationId":"490G00005505","stopLetter":"L","topMostParentId":"490G00005505"},{"icsId":"1003898","id":"490003898N","lat":51.519407,"lon":0.032045,"name":"Bennett Road","parentId":"490G00003898","stationId":"490G00003898","stopLetter":"T","topMostParentId":"490G00003898"},{"icsId":"1015395","id":"490007236E","lat":51.522514,"lon":0.03286,"name":"Newham University Hosp Emergency Dept","parentId":"490G00015395","stationId":"490G00015395","stopLetter":"HC","topMostParentId":"490G00015395"},{"icsId":"1007236","id":"490007236E1","lat":51.52223,"lon":0.037273,"name":"Newham University Hosp Main Reception","parentId":"490G00007236","stationId":"490G00007236","stopLetter":"HG","topMostParentId":"490G00007236"},{"icsId":"1004182","id":"490004182N","lat":51.523323,"lon":0.0396,"name":"Brampton Manor School","parentId":"490G00004182","stationId":"490G00004182","stopLetter":"HJ","topMostParentId":"490G00004182"},{"icsId":"1010202","id":"490010202N","lat":51.524884,"lon":0.039266,"name":"New City Road","parentId":"490G00010202","stationId":"490G00010202","stopLetter":"HL","topMostParentId":"490G00010202"},{"icsId":"1014724","id":"490014724N","lat":51.527604,"lon":0.038537,"name":"Wilson Road","parentId":"490G00014724","stationId":"490G00014724","stopLetter":"P","topMostParentId":"490G00014724"},{"icsId":"1003151","id":"490003151R","lat":51.529746,"lon":0.037407,"name":"Barking Road","parentId":"490G00003151","stationId":"490G00003151","stopLetter":"R","topMostParentId":"490G00003151"},{"icsId":"1013958","id":"490015134N","lat":51.530902,"lon":0.037617,"name":"Upton Park / Boleyn","parentId":"490G00013958","stationId":"490G00013958","stopLetter":"G","topMostParentId":"490G00013958"},{"icsId":"1013833","id":"490013833E","lat":51.53338,"lon":0.036286,"name":"Tudor Road","parentId":"490G00013833","stationId":"490G00013833","stopLetter":"E","topMostParentId":"490G00013833"},{"icsId":"1000245","id":"490000245A","lat":51.534673,"lon":0.035377,"name":"Upton Park Station","parentId":"490G00245A","stationId":"490G00245A","stopLetter":"A","topMostParentId":"940GZZLUUPK","zone":"3"},{"icsId":"1011052","id":"490011052N","lat":51.537147,"lon":0.034781,"name":"Plashet Road","parentId":"490G00011052","stationId":"490G00011052","stopLetter":"D","topMostParentId":"490G00011052"},{"icsId":"1011051","id":"490011051E","lat":51.53745,"lon":0.034968,"name":"Washington Road","parentId":"490G000705","stationId":"490G000705","stopLetter":"H","topMostParentId":"490G000705"},{"icsId":"1014148","id":"490014148K","lat":51.536995,"lon":0.037356,"name":"Walpole Road","parentId":"490G00014148","stationId":"490G00014148","stopLetter":"K","topMostParentId":"490G00014148"},{"icsId":"1011050","id":"490011050E","lat":51.537987,"lon":0.041337,"name":"Katherine Road","parentId":"490G00011050","stationId":"490G00011050","stopLetter":"R","topMostParentId":"490G00011050"},{"icsId":"1012130","id":"490012130E","lat":51.53957,"lon":0.04595,"name":"Shrewsbury Road","parentId":"490G00012130","stationId":"490G00012130","stopLetter":"S","topMostParentId":"490G00012130"},{"icsId":"1011055","id":"490011055E","lat":51.540388,"lon":0.049549,"name":"Plashet School","parentId":"490G00011055","stationId":"490G00011055","stopLetter":"T","topMostParentId":"490G00011055"},{"icsId":"1000068","id":"490000068A","lat":51.540031,"lon":0.050975,"name":"East Ham Station","parentId":"490G00068A","stationId":"490G00068A","stopLetter":"A","topMostParentId":"940GZZLUEHM","zone":"3+4"},{"icsId":"1003888","id":"490003888N","lat":51.537545,"lon":0.051714,"name":"Bendish Road","parentId":"490G00003888","stationId":"490G00003888","stopLetter":"N","topMostParentId":"490G00003888"},{"icsId":"1011001","id":"490011001M","lat":51.535537,"lon":0.051364,"name":"Ron Leighton Way","parentId":"490G00011001","stationId":"490G00011001","stopLetter":"M","topMostParentId":"490G00011001"},{"icsId":"1006360","id":"490006360R","lat":51.532925,"lon":0.053092,"name":"High Street North","parentId":"490G00006360","stationId":"490G00006360","stopLetter":"R","topMostParentId":"490G00006360"},{"icsId":"1010218","id":"490010218V","lat":51.53188,"lon":0.055294,"name":"Newham Town Hall","parentId":"490G00010218","stationId":"490G00010218","stopLetter":"V","topMostParentId":"490G00010218"}]}]}