{"direction":"outbound","lineId":"38","lineName":"38","mode":"bus","stopPointSequences":[{"stopPoint":[{"icsId":"1005340","id":"490009035E","lat":51.556802,"lon":-0.055687,"name":"Clapton Pond","parentId":"490G00005340","stationId":"490G00005340","stopLetter":"E","topMostParentId":"490G00005340"},{"icsId":"1009896","id":"490009896G","lat":51.554975,"lon":-0.05451,"name":"Millfields Road","parentId":"490G00009896","stationId":"490G00009896","stopLetter":"G","topMostParentId":"490G00009896"},{"icsId":"1009195","id":"490009195S","lat":51.553289,"lon":-0.053154,"name":"Clapton Girls' Academy","parentId":"490G00009195","stationId":"490G00009195","stopLetter":"M","topMostParentId":"490G00009195"},{"icsId":"1007619","id":"490007619VA","lat":51.550737,"lon":-0.052196,"name":"Hackney Baths","parentId":"490G00007619","stationId":"490G00007619","stopLetter":"Q","topMostParentId":"490G00007619"},{"icsId":"1005341","id":"490005341S","lat":51.549837,"lon":-0.053806,"name":"Clapton Square","parentId":"490G00005341","stationId":"490G00005341","stopLetter":"S","topMostParentId":"490G00005341"},{"icsId":"1010154","id":"490010154Y","lat":51.549476,"lon":-0.058582,"name":"Pembury Circus","parentId":"490G00010154","stationId":"490G00010154","stopLetter":"Y","topMostParentId":"490G00010154"},{"icsId":"1001127","id":"490001127E","lat":51.547485,"lon":-0.055652,"name":"Hackney Central Station","parentId":"490G01127JA","stationId":"490G01127JA","stopLetter":"T","topMostParentId":"910GHACKNYC"},{"icsId":"1019202","id":"490009644E","lat":51.546542,"lon":-0.056846,"name":"Graham Road / Hackney Central","parentId":"490G00019202","stationId":"490G00019202","stopLetter":"E","topMostParentId":"490G00019202"},{"icsId":"1010161","id":"490010161W","lat":51.546109,"lon":-0.061638,"name":"Royal Oak Road","parentId":"490G00010161","stationId":"490G00010161","stopLetter":"Z","topMostParentId":"490G00010161"},{"icsId":"1010160","id":"490010160W","lat":51.545798,"lon":-0.06455,"name":"Greenwood Road","parentId":"490G00010160","stationId":"490G00010160","stopLetter":"B","topMostParentId":"490G00010160"},{"icsId":"1012569","id":"490012569W","lat":51.546153,"lon":-0.068631,"name":"Stannard Road","parentId":"490G00012569","stationId":"490G00012569","stopLetter":"C","topMostParentId":"490G00012569"},{"icsId":"1001568","id":"490005945G","lat":51.546179,"lon":-0.07463,"name":"Dalston Junction Station","parentId":"490G05945G","stationId":"490G05945G","stopLetter":"G","topMostParentId":"910GDALS"},{"icsId":"1004583","id":"490004583F","lat":51.546134,"lon":-0.077877,"name":"Balls Pond Road / Burder Road","parentId":"490G00004583","stationId":"490G00004583","stopLetter":"F","topMostParentId":"490G00004583"},{"icsId":"1012302","id":"490012302W","lat":51.546506,"lon":-0.083068,"name":"Southgate Road","parentId":"490G00012302","stationId":"490G00012302","stopLetter":"BH","topMostParentId":"490G00012302"},{"icsId":"1006645","id":"490006645W","lat":51.546503,"lon":-0.086169,"name":"Essex Road / Newington Green Road","parentId":"490G00006645","stationId":"490G00006645","stopLetter":"CD","topMostParentId":"490G00006645"},{"icsId":"1009688","id":"490009688S","lat":51.545583,"lon":-0.087679,"name":"Essex Road / Marquess Road","parentId":"490G00009688","stationId":"490G00009688","stopLetter":"CG","topMostParentId":"490G00009688"},{"icsId":"1010326","id":"490010326S","lat":51.543507,"lon":-0.09052,"name":"Northchurch Road","parentId":"490G00010326","stationId":"490G00010326","stopLetter":"EH","topMostParentId":"490G00010326"},{"icsId":"1001103","id":"490001103S1","lat":51.540905,"lon":-0.095287,"name":"Essex Road Station","parentId":"490G01103N2","stationId":"490G01103N2","stopLetter":"EJ","topMostParentId":"910GESSEXRD"},{"icsId":"1005816","id":"490005816E","lat":51.538211,"lon":-0.099379,"name":"Cross Street","parentId":"490G00005816","stationId":"490G00005816","stopLetter":"E","topMostParentId":"490G00005816"},{"icsId":"1010709","id":"490010709S","lat":51.536844,"lon":-0.10108,"name":"Packington Street","parentId":"490G00010709","stationId":"490G00010709","stopLetter":"A","topMostParentId":"490G00010709"},{"icsId":"1008515","id":"490008515D","lat":51.535772,"lon":-0.103158,"name":"Islington Green","parentId":"490G00008515","stationId":"490G00008515","stopLetter":"D","topMostParentId":"490G00008515"},{"icsId":"1000007","id":"490000007F","lat":51.533732,"lon":-0.105449,"name":"Angel Station","parentId":"490G00007G","stationId":"490G00007G","stopLetter":"F","topMostParentId":"940GZZLUAGL","zone":"1"},{"icsId":"1013229","id":"490013229M","lat":51.531006,"lon":-0.105937,"name":"St John Street / Goswell Road","parentId":"490G00013229","stationId":"490G00013229","stopLetter":"M","topMostParentId":"490G00013229"},{"icsId":"1011849","id":"490011849RB","lat":51.529119,"lon":-0.106044,"name":"Sadler's Wells Theatre","parentId":"490G00011849","stationId":"490G00011849","stopLetter":"UC","topMostParentId":"490G00011849"},{"icsId":"1013895","id":"490013891S","lat":51.527111,"lon":-0.108074,"name":"Finsbury Town Hall","parentId":"490G00013895","stationId":"490G00013895","stopLetter":"UD","topMostParentId":"490G00013895"},{"icsId":"1010085","id":"490010085S1","lat":51.525413,"lon":-0.110436,"name":"Mount Pleasant","parentId":"490G00010085","stationId":"490G00010085","stopLetter":"CK","topMostParentId":"490G00010085"},{"icsId":"1014092","id":"490014092W","lat":51.522645,"lon":-0.111661,"name":"Clerkenwell Road","parentId":"490G00014092","stationId":"490G00014092","stopLetter":"CN","topMostParentId":"490G00014092"},{"icsId":"1007391","id":"490007391W","lat":51.521353,"lon":-0.114049,"name":"Gray's Inn Road","parentId":"490G00007391","stationId":"490G00007391","stopLetter":"CP","topMostParentId":"490G00007391"},{"icsId":"1007834","id":"490007834F","lat":51.519975,"lon":-0.118964,"name":"Red Lion Street","parentId":"490G00007834","stationId":"490G00007834","stopLetter":"A","topMostParentId":"490G00007834"},{"icsId":"1004114","id":"490018901W","lat":51.518661,"lon":-0.121699,"name":"Bloomsbury Square","parentId":"490G00004114","stationId":"490G00004114","stopLetter":"B","topMostParentId":"490G00004114"},{"icsId":"1010131","id":"490010131W","lat":51.517412,"lon":-0.124604,"name":"Museum Street","parentId":"490G00010131","stationId":"490G00010131","stopLetter":"C","topMostParentId":"490G00010131"},{"icsId":"1004695","id":"490004695S","lat":51.513653,"lon":-0.12852,"name":"Cambridge Circus","parentId":"490G00004695","stationId":"490G00004695","stopLetter":"B","topMostParentId":"490G00004695"},{"icsId":"1006008","id":"490006008W","lat":51.512352,"lon":-0.130937,"name":"Dean Street / Chinatown","parentId":"490G00006008","stationId":"490G00006008","stopLetter":"W","topMostParentId":"490G00006008"},{"icsId":"1011791","id":"490011791K","lat":51.511195,"lon":-0.133391,"name":"Trocadero / Haymarket","parentId":"490G00011791","stationId":"490G00011791","stopLetter":"K","topMostParentId":"490G00011791"},{"icsId":"1000179","id":"490000179S","lat":51.509154,"lon":-0.13627,"name":"Piccadilly Circus","parentId":"490G00179B","stationId":"490G00179B","stopLetter":"S","topMostParentId":"940GZZLUPCC","zone":"1"},{"icsId":"1010526","id":"490010526G","lat":51.508095,"lon":-0.139801,"name":"Old Bond Street / Royal Academy","parentId":"490G00010526","stationId":"490G00010526","stopLetter":"G","topMostParentId":"490G00010526"},{"icsId":"1000093","id":"490000093PE","lat":51.506678,"lon":-0.142841,"name":"Green Park Station","parentId":"490G00093PE","stationId":"490G00093PE","stopLetter":"H","topMostParentId":"940GZZLUGPK","zone":"1"},{"icsId":"1007492","id":"490007492E","lat":51.503995,"lon":-0.147792,"name":"Green Park / Constitution Hill","parentId":"490G00007492","stationId":"490G00007492","stopLetter":"E","topMostParentId":"490G00007492"},{"icsId":"1000119","id":"490000119F","lat":51.50209,"lon":-0.150679,"name":"Hyde Park Corner","parentId":"490G00119F","stationId":"490G00119F","stopLetter":"F","topMostParentId":"940GZZLUHPC","zone":"1"},{"icsId":"1014728","id":"490014728S","lat":51.499284,"lon":-0.147867,"name":"Wilton Street","parentId":"490G00014728","stationId":"490G00014728","stopLetter":"S","topMostParentId":"490G00014728"},{"icsId":"1000720","id":"490004555P","lat":51.497242,"lon":-0.144406,"name":"Buckingham Palace Rd / Bressenden Place","parentId":"490G000130","stationId":"490G000130","stopLetter":"P","topMostParentId":"490G000130"},{"icsId":"1014050","id":"490014050D","lat":51.496124,"lon":-0.143602,"name":"Victoria Bus Station","parentId":"490G000812","stationId":"490G000812","stopLetter":"D","topMostParentId":"490G000812"}]}]}