{"direction":"outbound","lineId":"383","lineName":"383","mode":"bus","stopPointSequences":[{"stopPoint":[{"icsId":"1013559","id":"490013559S","lat":51.656453,"lon":-0.203966,"name":"The Spires","parentId":"490G00013559","stationId":"490G00013559","stopLetter":"S","topMostParentId":"490G00013559"},{"icsId":"1011868","id":"490011868T","lat":51.654949,"lon":-0.204387,"name":"Salisbury Road","parentId":"490G00011868","stationId":"490G00011868","stopLetter":"T","topMostParentId":"490G00011868"},{"icsId":"1003639","id":"490003639D","lat":51.654663,"lon":-0.201594,"name":"Barnet High Street","parentId":"490G00003639","stationId":"490G00003639","stopLetter":"D","topMostParentId":"490G00003639"},{"icsId":"1019009","id":"490003634H","lat":51.652624,"lon":-0.198812,"name":"Barnet High Street / Barnet Church","parentId":"490G00019009","stationId":"490G00019009","stopLetter":"H","topMostParentId":"490G00019009"},{"icsId":"1009772","id":"490009772N","lat":51.651363,"lon":-0.196896,"name":"High Barnet Station / Meadway","parentId":"490G000664","stationId":"490G000664","stopLetter":"N","topMostParentId":"490G000664"},{"icsId":"1008737","id":"490008737W2","lat":51.653301,"lon":-0.189576,"name":"King Edward Road","parentId":"490G00008737","stationId":"490G00008737","stopLetter":"->E","topMostParentId":"490G00008737"},{"icsId":"1012778","id":"490012778E","lat":51.653246,"lon":-0.186601,"name":"St Mark's Close","parentId":"490G00012778","stationId":"490G00012778","topMostParentId":"490G00012778"},{"icsId":"1005413","id":"490005413E","lat":51.652745,"lon":-0.180954,"name":"Clifford Road","parentId":"490G00005413","stationId":"490G00005413","topMostParentId":"490G00005413"},{"icsId":"1011048","id":"490011048G","lat":51.650679,"lon":-0.17881,"name":"Bulwer Road","parentId":"490G00011048","stationId":"490G00011048","stopLetter":"G","topMostParentId":"490G00011048"},{"icsId":"1001203","id":"490001201D","lat":51.649684,"lon":-0.176089,"name":"New Barnet Station  / Station Road","parentId":"490G00001203","stationId":"490G00001203","stopLetter":"D","topMostParentId":"490G00001203"},{"icsId":"1001201","id":"490001201A","lat":51.648931,"lon":-0.173387,"name":"New Barnet Station","parentId":"490G01201S","stationId":"490G01201S","stopLetter":"A","topMostParentId":"910GNBARNET"},{"icsId":"1010193","id":"490010193C","lat":51.649874,"lon":-0.171572,"name":"New Barnet Sainsbury's","parentId":"490G00010193","stationId":"490G00010193","stopLetter":"C","topMostParentId":"490G00010193"},{"icsId":"1006313","id":"490006313E","lat":51.647547,"lon":-0.167647,"name":"Victoria Road","parentId":"490G00006313","stationId":"490G00006313","stopLetter":"BA","topMostParentId":"490G00006313"},{"icsId":"1005744","id":"490006284W","lat":51.643246,"lon":-0.166317,"name":"Crescent Road","parentId":"490G00005744","stationId":"490G00005744","stopLetter":"BT","topMostParentId":"490G00005744"},{"icsId":"1008933","id":"490008933W","lat":51.643451,"lon":-0.171367,"name":"York Road","parentId":"490G00008933","stationId":"490G00008933","topMostParentId":"490G00008933"},{"icsId":"1001218","id":"490001218S","lat":51.636657,"lon":-0.165875,"name":"Oakleigh Park Station","parentId":"490G01218N","stationId":"490G01218N","stopLetter":"BW","topMostParentId":"910GOKLGHPK"},{"icsId":"1014562","id":"490014562W","lat":51.630755,"lon":-0.174334,"name":"Oakleigh Gardens","parentId":"490G00014562","stationId":"490G00014562","stopLetter":"O","topMostParentId":"490G00014562"},{"icsId":"1007028","id":"490007028S","lat":51.628733,"lon":-0.174459,"name":"Whetstone High Road / Friern Barnet Lane","parentId":"490G00007028","stationId":"490G00007028","stopLetter":"E","topMostParentId":"490G00007028"},{"icsId":"1014564","id":"490014564F","lat":51.627429,"lon":-0.174425,"name":"Sweets Way","parentId":"490G00014564","stationId":"490G00014564","stopLetter":"F","topMostParentId":"490G00014564"},{"icsId":"1009021","id":"490010139S1","lat":51.625442,"lon":-0.170387,"name":"Lawrence Campe Close","parentId":"490G00009021","stationId":"490G00009021","topMostParentId":"490G00009021"},{"icsId":"1007280","id":"490007280S","lat":51.622778,"lon":-0.166232,"name":"Golfside Close","parentId":"490G00007280","stationId":"490G00007280","stopLetter":"->S","topMostParentId":"490G00007280"},{"icsId":"1007018","id":"490007018S","lat":51.621009,"lon":-0.162952,"name":"Friary Road","parentId":"490G00007018","stationId":"490G00007018","stopLetter":"->S","topMostParentId":"490G00007018"},{"icsId":"1013525","id":"490013525S","lat":51.617775,"lon":-0.159674,"name":"The Ridgeway","parentId":"490G00013525","stationId":"490G00013525","stopLetter":"->S","topMostParentId":"490G00013525"},{"icsId":"1000276","id":"490000276W","lat":51.61783,"lon":-0.185181,"name":"Woodside Park Station","parentId":"490G00276S","stationId":"490G00276S","stopLetter":"L","topMostParentId":"940GZZLUWOP","zone":"4"}]}]}