{"direction":"outbound","lineId":"385","lineName":"385","mode":"bus","stopPointSequences":[{"stopPoint":[{"icsId":"1001063","id":"490001063D","lat":51.633484,"lon":0.009814,"name":"Chingford Station","parentId":"490G01063B","stationId":"490G01063B","stopLetter":"D","topMostParentId":"910GCHINGFD"},{"icsId":"1012617","id":"490012617E","lat":51.633036,"lon":0.008652,"name":"Station Road / Chingford Station","parentId":"490G000764","stationId":"490G000764","stopLetter":"E","topMostParentId":"490G000764"},{"icsId":"1012558","id":"490012558G","lat":51.631782,"lon":0.005215,"name":"Stanley Road","parentId":"490G00012558","stationId":"490G00012558","stopLetter":"G","topMostParentId":"490G00012558"},{"icsId":"1012619","id":"490012619J","lat":51.630891,"lon":0.002113,"name":"Station Road / The Green","parentId":"490G00012619","stationId":"490G00012619","stopLetter":"J","topMostParentId":"490G00012619"},{"icsId":"1005182","id":"490005182N","lat":51.631659,"lon":-0.001827,"name":"Chingford Police Station","parentId":"490G00005182","stationId":"490G00005182","stopLetter":"N","topMostParentId":"490G00005182"},{"icsId":"1011083","id":"490011083W","lat":51.632362,"lon":-0.006117,"name":"Pole Hill Road","parentId":"490G00011083","stationId":"490G00011083","stopLetter":"U","topMostParentId":"490G00011083"},{"icsId":"1007924","id":"490007924W","lat":51.634278,"lon":-0.009327,"name":"Hawksmouth","parentId":"490G00007924","stationId":"490G00007924","stopLetter":"D","topMostParentId":"490G00007924"},{"icsId":"1012009","id":"490012009W","lat":51.635797,"lon":-0.012469,"name":"Kings Head Hill / Sewardstone Road","parentId":"490G00012009","stationId":"490G00012009","stopLetter":"E","topMostParentId":"490G00012009"},{"icsId":"1009050","id":"490009050S","lat":51.635149,"lon":-0.013018,"name":"Lea Valley Road","parentId":"490G00009050","stationId":"490G00009050","stopLetter":"H","topMostParentId":"490G00009050"},{"icsId":"1014175","id":"490005489S","lat":51.632999,"lon":-0.013502,"name":"Maida Avenue","parentId":"490G00014175","stationId":"490G00014175","stopLetter":"J","topMostParentId":"490G00014175"},{"icsId":"1014173","id":"490014173N","lat":51.631183,"lon":-0.014578,"name":"Valley Side","parentId":"490G00014173","stationId":"490G00014173","topMostParentId":"490G00014173"},{"icsId":"1009690","id":"490009686N","lat":51.618537,"lon":-0.026701,"name":"Hall Lane  Russell Road","parentId":"490G00009690","stationId":"490G00009690","topMostParentId":"490G00009690"},{"icsId":"1005036","id":"490005036E","lat":51.616878,"lon":-0.022671,"name":"Chase Lane School","parentId":"490G00005036","stationId":"490G00005036","stopLetter":"S","topMostParentId":"490G00005036"},{"icsId":"1005180","id":"490005178D","lat":51.617026,"lon":-0.018663,"name":"Chingford Mount","parentId":"490G000452","stationId":"490G000452","stopLetter":"D","topMostParentId":"490G000452"},{"icsId":"1007676","id":"490007676J","lat":51.616635,"lon":-0.017351,"name":"Hall Lane","parentId":"490G000561","stationId":"490G000561","stopLetter":"J","topMostParentId":"490G000561"},{"icsId":"1008981","id":"490008981S","lat":51.613543,"lon":-0.017413,"name":"Larkswood Road","parentId":"490G00008981","stationId":"490G00008981","stopLetter":"U","topMostParentId":"490G00008981"},{"icsId":"1003124","id":"490003124S","lat":51.612192,"lon":-0.017848,"name":"Ainslie Wood Road","parentId":"490G00003124","stationId":"490G00003124","stopLetter":"V","topMostParentId":"490G00003124"},{"icsId":"1009091","id":"490009091S","lat":51.609614,"lon":-0.017469,"name":"Leonard Road","parentId":"490G00009091","stationId":"490G00009091","stopLetter":"->S","topMostParentId":"490G00009091"},{"icsId":"1008132","id":"490008132S","lat":51.60738,"lon":-0.016686,"name":"Higham Station Avenue","parentId":"490G00008132","stationId":"490G00008132","stopLetter":"->S","topMostParentId":"490G00008132"},{"icsId":"1011741","id":"490011741S","lat":51.605207,"lon":-0.016347,"name":"Rowden Park Gardens","parentId":"490G00011741","stationId":"490G00011741","stopLetter":"CC","topMostParentId":"490G00011741"},{"icsId":"1014170","id":"490014170S","lat":51.60366,"lon":-0.016342,"name":"Walthamstow Stadium","parentId":"490G00014170","stationId":"490G00014170","stopLetter":"CD","topMostParentId":"490G00014170"},{"icsId":"1011866","id":"490011866N2","lat":51.603688,"lon":-0.020673,"name":"Salisbury Hall Sainsbury's","parentId":"490G00011866","stationId":"490G00011866","stopLetter":"CB","topMostParentId":"490G00011866"}]}]}