{"direction":"outbound","lineId":"391","lineName":"391","mode":"bus","stopPointSequences":[{"stopPoint":[{"icsId":"1007166","id":"490007166B","lat":51.460642,"lon":-0.305305,"name":"George Street","parentId":"490G00007166","stationId":"490G00007166","stopLetter":"B","topMostParentId":"490G00007166"},{"icsId":"1000192","id":"490013511C","lat":51.462744,"lon":-0.302679,"name":"Richmond Station","parentId":"490G00192M","stationId":"490G00192M","stopLetter":"C","topMostParentId":"HUBRMD","zone":"4"},{"icsId":"1011557","id":"490011557E","lat":51.465389,"lon":-0.297153,"name":"Richmond Circus","parentId":"490G00011557","stationId":"490G00011557","stopLetter":"RS","topMostParentId":"490G00011557"},{"icsId":"1012048","id":"490012048E","lat":51.465961,"lon":-0.294425,"name":"Sheendale Road","parentId":"490G00012048","stationId":"490G00012048","stopLetter":"ST","topMostParentId":"490G00012048"},{"icsId":"1009547","id":"490009547SA","lat":51.467114,"lon":-0.290293,"name":"Manor Circus","parentId":"490G00009547","stationId":"490G00009547","stopLetter":"SA","topMostParentId":"490G00009547"},{"icsId":"1007080","id":"490007080N","lat":51.469405,"lon":-0.288264,"name":"Gainsborough Road","parentId":"490G00007080","stationId":"490G00007080","stopLetter":"SR","topMostParentId":"490G00007080"},{"icsId":"1006220","id":"490006220N","lat":51.471951,"lon":-0.287132,"name":"Dudley Road","parentId":"490G00006220","stationId":"490G00006220","stopLetter":"L","topMostParentId":"490G00006220"},{"icsId":"1008694","id":"490008694C","lat":51.476137,"lon":-0.286788,"name":"Kew Gardens Hotel","parentId":"490G00008694","stationId":"490G00008694","stopLetter":"M","topMostParentId":"490G00008694"},{"icsId":"1000125","id":"490000125D","lat":51.478705,"lon":-0.287196,"name":"Kew Gardens Station","parentId":"490G00125B","stationId":"490G00125B","stopLetter":"N","topMostParentId":"HUBKWG","zone":"3+4"},{"icsId":"1008695","id":"490008695J","lat":51.480618,"lon":-0.288838,"name":"Kew Gardens Road","parentId":"490G00008695","stationId":"490G00008695","stopLetter":"S","topMostParentId":"490G00008695"},{"icsId":"1010048","id":"490010048L","lat":51.482233,"lon":-0.287395,"name":"Mortlake Road","parentId":"490G00010048","stationId":"490G00010048","stopLetter":"T","topMostParentId":"490G00010048"},{"icsId":"1008688","id":"490008696N","lat":51.485363,"lon":-0.28745,"name":"Kew Bridge","parentId":"490G000617","stationId":"490G000617","stopLetter":"Z","topMostParentId":"490G000617"},{"icsId":"1001167","id":"490001167X","lat":51.489387,"lon":-0.287127,"name":"Kew Bridge Station","parentId":"490G01167X","stationId":"490G01167X","stopLetter":"X","topMostParentId":"910GKEWBDGE"},{"icsId":"1004290","id":"490004290Q","lat":51.490777,"lon":-0.284367,"name":"Brentford Fountain Leisure Centre","parentId":"490G00004290","stationId":"490G00004290","stopLetter":"L","topMostParentId":"490G00004290"},{"icsId":"1010687","id":"490010687K","lat":51.492265,"lon":-0.277958,"name":"Oxford Road North","parentId":"490G00010687","stationId":"490G00010687","stopLetter":"K","topMostParentId":"490G00010687"},{"icsId":"1000094","id":"490000094B","lat":51.49244,"lon":-0.275776,"name":"Gunnersbury Station","parentId":"490G00094B","stationId":"490G00094B","stopLetter":"B","topMostParentId":"HUBGUN","zone":"3"},{"icsId":"1005211","id":"490005211E","lat":51.492988,"lon":-0.270829,"name":"Chiswick Road","parentId":"490G00005211","stationId":"490G00005211","stopLetter":"S","topMostParentId":"490G00005211"},{"icsId":"1013848","id":"490013848DD","lat":51.492639,"lon":-0.264878,"name":"Turnham Green Church","parentId":"490G000807","stationId":"490G000807","stopLetter":"DD","topMostParentId":"490G000807"},{"icsId":"1005423","id":"490005423GG","lat":51.492508,"lon":-0.261512,"name":"Clifton Gardens","parentId":"490G00005423","stationId":"490G00005423","stopLetter":"GG","topMostParentId":"490G00005423"},{"icsId":"1005210","id":"490005210HH","lat":51.492637,"lon":-0.258093,"name":"Chiswick Police Station","parentId":"490G00005210","stationId":"490G00005210","stopLetter":"HH","topMostParentId":"490G00005210"},{"icsId":"1013850","id":"490013850OO","lat":51.493066,"lon":-0.253064,"name":"Chiswick Lane","parentId":"490G00013850","stationId":"490G00013850","stopLetter":"OO","topMostParentId":"490G00013850"},{"icsId":"1012521","id":"490012521E","lat":51.493154,"lon":-0.249286,"name":"Stamford Brook Bus Garage","parentId":"490G00012521","stationId":"490G00012521","stopLetter":"H","topMostParentId":"490G00012521"},{"icsId":"1007273","id":"490007273M","lat":51.493413,"lon":-0.246755,"name":"Goldhawk Road / Young's Corner","parentId":"490G000535","stationId":"490G000535","stopLetter":"M","topMostParentId":"490G000535"},{"icsId":"1012533","id":"490015027F","lat":51.493531,"lon":-0.240268,"name":"Ravenscourt Park","parentId":"490G00012533","stationId":"490G00012533","stopLetter":"F","topMostParentId":"490G00012533"},{"icsId":"1000188","id":"490011438E","lat":51.493268,"lon":-0.237124,"name":"Ravenscourt Park Station","parentId":"490G00188A","stationId":"490G00188A","stopLetter":"E","topMostParentId":"940GZZLURVP","zone":"2"},{"icsId":"1005937","id":"490005937E","lat":51.492979,"lon":-0.235233,"name":"Dalling Road","parentId":"490G00005937","stationId":"490G00005937","stopLetter":"C","topMostParentId":"490G00005937"},{"icsId":"1015588","id":"490015588E","lat":51.494432,"lon":-0.232613,"name":"Lamington Street","parentId":"490G00015588","stationId":"490G00015588","stopLetter":"->E","topMostParentId":"490G00015588"},{"icsId":"1007239","id":"490007239E","lat":51.494575,"lon":-0.230115,"name":"Iffley Road","parentId":"490G00007239","stationId":"490G00007239","topMostParentId":"490G00007239"},{"icsId":"1000097","id":"490000097T","lat":51.493589,"lon":-0.226163,"name":"Hammersmith Stn / H'smith & City Line","parentId":"490G00097T","stationId":"490G00097T","stopLetter":"W","topMostParentId":"HUBHMS","zone":"2"},{"icsId":"1007705","id":"490007705G","lat":51.492548,"lon":-0.223956,"name":"Hammersmith Bus Station","parentId":"490G000565","stationId":"490G000565","stopLetter":"F","topMostParentId":"HUBHMS"},{"icsId":"1008997","id":"490008990J","lat":51.493319,"lon":-0.219043,"name":"Latymer Court","parentId":"490G00008997","stationId":"490G00008997","stopLetter":"G","topMostParentId":"490G00008997"},{"icsId":"1004455","id":"490004455BB","lat":51.493711,"lon":-0.215858,"name":"Brook Green","parentId":"490G00004455","stationId":"490G00004455","stopLetter":"H","topMostParentId":"490G00004455"},{"icsId":"1007709","id":"490007709S","lat":51.49443,"lon":-0.210543,"name":"Kensington Olympia","parentId":"490G00007709","stationId":"490G00007709","stopLetter":"P","topMostParentId":"HUBKPA"},{"icsId":"1009492","id":"490009492S","lat":51.49267,"lon":-0.207717,"name":"Lytton Estate","parentId":"490G00009492","stationId":"490G00009492","stopLetter":"R","topMostParentId":"490G00009492"},{"icsId":"1000265","id":"490000265A","lat":51.490567,"lon":-0.206632,"name":"West Kensington Station","parentId":"490G00265W","stationId":"490G00265W","stopLetter":"S","topMostParentId":"940GZZLUWKN","zone":"2"},{"icsId":"1014485","id":"490014485S","lat":51.488033,"lon":-0.203808,"name":"West Kensington Estate","parentId":"490G00014485","stationId":"490G00014485","stopLetter":"BS","topMostParentId":"490G00014485"},{"icsId":"1009156","id":"490009156X","lat":51.486137,"lon":-0.202773,"name":"Lillie Road","parentId":"490G00009156","stationId":"490G00009156","stopLetter":"BR","topMostParentId":"490G00009156"},{"icsId":"1011382","id":"490011382Z","lat":51.483994,"lon":-0.20136,"name":"North End Road Market","parentId":"490G00011382","stationId":"490G00011382","stopLetter":"BH","topMostParentId":"490G00011382"},{"icsId":"1000352","id":"490008547E","lat":51.480217,"lon":-0.198441,"name":"Fulham Broadway","parentId":"490G00000352","stationId":"490G00000352","stopLetter":"E","topMostParentId":"490G00000352"},{"icsId":"1007057","id":"490007057S","lat":51.479249,"lon":-0.194533,"name":"Fulham Town Hall","parentId":"490G000526","stationId":"490G000526","stopLetter":"S","topMostParentId":"490G000526"},{"icsId":"1013888","id":"490013888S","lat":51.477803,"lon":-0.192329,"name":"Tyrawley Road","parentId":"490G00013888","stationId":"490G00013888","stopLetter":"GE","topMostParentId":"490G00013888"},{"icsId":"1016612","id":"490016612S","lat":51.475665,"lon":-0.188396,"name":"Harwood Terrace","parentId":"490G00016612","stationId":"490G00016612","stopLetter":"P","topMostParentId":"490G00016612"},{"icsId":"1005071","id":"490016613S","lat":51.474482,"lon":-0.185203,"name":"Imperial Wharf Stn  / Chelsea Harbour","parentId":"490G00005071","stationId":"490G00005071","stopLetter":"R","topMostParentId":"490G00005071"},{"icsId":"1005070","id":"490005070W","lat":51.472658,"lon":-0.184094,"name":"Bagleys Lane","parentId":"490G000449","stationId":"490G000449","stopLetter":"B","topMostParentId":"490G000449"},{"icsId":"1007237","id":"490007237W","lat":51.471321,"lon":-0.184882,"name":"Glenrosa Street","parentId":"490G00007237","stationId":"490G00007237","stopLetter":"C","topMostParentId":"490G00007237"},{"icsId":"1011917","id":"490011917W","lat":51.468058,"lon":-0.18612,"name":"Sands End / Sainsbury's","parentId":"490G00011917","stationId":"490G00011917","stopLetter":"TS","topMostParentId":"490G00011917"}]}]}