{"direction":"outbound","lineId":"393","lineName":"393","mode":"bus","stopPointSequences":[{"stopPoint":[{"icsId":"1004451","id":"490004451O","lat":51.559775,"lon":-0.056585,"name":"Upper Clapton Road / Brooke Road","parentId":"490G00004451","stationId":"490G00004451","stopLetter":"O","topMostParentId":"490G00004451"},{"icsId":"1001070","id":"490001070E","lat":51.561978,"lon":-0.056549,"name":"Clapton Station","parentId":"490G01070N","stationId":"490G01070N","stopLetter":"C","topMostParentId":"910GCLAPTON"},{"icsId":"1019500","id":"490016287N","lat":51.562634,"lon":-0.052755,"name":"Jack Watts Estate","parentId":"490G00019500","stationId":"490G00019500","stopLetter":"->E","topMostParentId":"490G00019500"},{"icsId":"1016288","id":"490016288N","lat":51.564111,"lon":-0.052302,"name":"Mount Pleasant Hill","parentId":"490G00016288","stationId":"490G00016288","stopLetter":"->N","topMostParentId":"490G00016288"},{"icsId":"1016289","id":"490016289N","lat":51.566452,"lon":-0.050875,"name":"Leaside Road","parentId":"490G00016289","stationId":"490G00016289","stopLetter":"->N","topMostParentId":"490G00016289"},{"icsId":"1016290","id":"490016290W","lat":51.565988,"lon":-0.05492,"name":"Mount Pleasant Lane","parentId":"490G00016290","stationId":"490G00016290","stopLetter":"UV","topMostParentId":"490G00016290"},{"icsId":"1016292","id":"490016291W","lat":51.565849,"lon":-0.058966,"name":"Upper Clapton Road","parentId":"490G00016292","stationId":"490G00016292","stopLetter":"UW","topMostParentId":"490G00016292"},{"icsId":"1019501","id":"490016292W","lat":51.565921,"lon":-0.061734,"name":"Cazenove Road / Geldeston Road","parentId":"490G00019501","stationId":"490G00019501","stopLetter":"UY","topMostParentId":"490G00019501"},{"icsId":"1016293","id":"490016293W","lat":51.565795,"lon":-0.063903,"name":"Fountayne Road","parentId":"490G00016293","stationId":"490G00016293","stopLetter":"UZ","topMostParentId":"490G00016293"},{"icsId":"1001273","id":"490001273Z","lat":51.564341,"lon":-0.071684,"name":"Stoke Newington Station","parentId":"490G01273Y","stationId":"490G01273Y","stopLetter":"Z","topMostParentId":"910GSTKNWNG"},{"icsId":"1010427","id":"490010427D","lat":51.563022,"lon":-0.07187,"name":"Northwold Road / Stoke Newington Common","parentId":"490G00010427","stationId":"490G00010427","stopLetter":"D","topMostParentId":"490G00010427"},{"icsId":"1012837","id":"490012837J","lat":51.562059,"lon":-0.068549,"name":"Stoke Newington Common","parentId":"490G00012837","stationId":"490G00012837","stopLetter":"J","topMostParentId":"490G00012837"},{"icsId":"1004452","id":"490004452U","lat":51.560647,"lon":-0.073442,"name":"Stoke Newington High Street","parentId":"490G00004452","stationId":"490G00004452","stopLetter":"U","topMostParentId":"490G00004452"},{"icsId":"1014699","id":"490014699V","lat":51.562047,"lon":-0.075475,"name":"William Patten School","parentId":"490G00014699","stationId":"490G00014699","stopLetter":"V","topMostParentId":"490G00014699"},{"icsId":"1004202","id":"490004202W","lat":51.562178,"lon":-0.078008,"name":"Bouverie Road","parentId":"490G00004202","stationId":"490G00004202","stopLetter":"->W","topMostParentId":"490G00004202"},{"icsId":"1003003","id":"490012840W2","lat":51.56118,"lon":-0.082927,"name":"Stoke Newington Town Hall","parentId":"490G00003003","stationId":"490G00003003","stopLetter":"->W","topMostParentId":"490G00003003"},{"icsId":"1016295","id":"490016295W","lat":51.559907,"lon":-0.086472,"name":"Clissold Road","parentId":"490G00016295","stationId":"490G00016295","stopLetter":"->W","topMostParentId":"490G00016295"},{"icsId":"1016296","id":"490016296W","lat":51.558145,"lon":-0.08871,"name":"Clissold Crescent","parentId":"490G00016296","stationId":"490G00016296","stopLetter":"PM","topMostParentId":"490G00016296"},{"icsId":"1012836","id":"490012836N","lat":51.558232,"lon":-0.09074,"name":"Green Lanes / Stoke Newington Church St","parentId":"490G00012836","stationId":"490G00012836","stopLetter":"PP","topMostParentId":"490G00012836"},{"icsId":"1016700","id":"490016700N","lat":51.559447,"lon":-0.091396,"name":"Riversdale Road","parentId":"490G00016700","stationId":"490G00016700","stopLetter":"PR","topMostParentId":"490G00016700"},{"icsId":"1016297","id":"490016297S","lat":51.557974,"lon":-0.092049,"name":"Highbury Quadrant","parentId":"490G00016297","stationId":"490G00016297","stopLetter":"PQ","topMostParentId":"490G00016297"},{"icsId":"1016298","id":"490016298S","lat":51.555767,"lon":-0.092373,"name":"Balfour Road / Crowfield House","parentId":"490G00016298","stationId":"490G00016298","stopLetter":"PW","topMostParentId":"490G00016298"},{"icsId":"1016299","id":"490016299S","lat":51.553308,"lon":-0.092086,"name":"Balfour Road / Athenaeum Court","parentId":"490G00016299","stationId":"490G00016299","stopLetter":"->S","topMostParentId":"490G00016299"},{"icsId":"1016300","id":"490016300S","lat":51.550205,"lon":-0.093168,"name":"Beresford Terrace / Highbury Estate","parentId":"490G00016300","stationId":"490G00016300","stopLetter":"CM","topMostParentId":"490G00016300"},{"icsId":"1008145","id":"490008145W","lat":51.548059,"lon":-0.097786,"name":"Highbury New Pk / Highbury Grove School","parentId":"490G00008145","stationId":"490G00008145","stopLetter":"CR","topMostParentId":"490G00008145"},{"icsId":"1008146","id":"490008146W","lat":51.546518,"lon":-0.099293,"name":"St Paul's Road / Highbury Grove","parentId":"490G00008146","stationId":"490G00008146","stopLetter":"CT","topMostParentId":"490G00008146"},{"icsId":"1008143","id":"490008143D","lat":51.546114,"lon":-0.101531,"name":"Highbury Corner","parentId":"490G00008143","stationId":"490G00008143","stopLetter":"D","topMostParentId":"490G00008143"},{"icsId":"1000108","id":"490000108A","lat":51.546866,"lon":-0.104658,"name":"Highbury & Islington Station","parentId":"490G00108B","stationId":"490G00108B","stopLetter":"A","topMostParentId":"HUBHHY","zone":"2"},{"icsId":"1012451","id":"490012451N","lat":51.548708,"lon":-0.107365,"name":"St Mary Magdalene Church","parentId":"490G00012451","stationId":"490G00012451","stopLetter":"S","topMostParentId":"490G00012451"},{"icsId":"1009224","id":"490009224Y","lat":51.550728,"lon":-0.109921,"name":"Liverpool Road","parentId":"490G00009224","stationId":"490G00009224","stopLetter":"SV","topMostParentId":"490G00009224"},{"icsId":"1000114","id":"490000114U","lat":51.552888,"lon":-0.112817,"name":"Holloway Road Station","parentId":"490G00114U","stationId":"490G00114U","stopLetter":"SU","topMostParentId":"940GZZLUHWY","zone":"2"},{"icsId":"1004720","id":"490004720T","lat":51.555345,"lon":-0.116322,"name":"Camden Road","parentId":"490G00004720","stationId":"490G00004720","stopLetter":"T","topMostParentId":"490G00004720"},{"icsId":"1003991","id":"490003991V","lat":51.555307,"lon":-0.117853,"name":"Caledonian Road / Camden Road","parentId":"490G00003991","stationId":"490G00003991","stopLetter":"V","topMostParentId":"490G00003991"},{"icsId":"1007005","id":"490007005S","lat":51.552646,"lon":-0.117905,"name":"Freegrove Road","parentId":"490G00007005","stationId":"490G00007005","stopLetter":"C","topMostParentId":"490G00007005"},{"icsId":"1010399","id":"490008231S","lat":51.550578,"lon":-0.117918,"name":"Holloway Delivery Office","parentId":"490G00010399","stationId":"490G00010399","topMostParentId":"490G00010399"},{"icsId":"1018564","id":"490018538W","lat":51.548846,"lon":-0.122086,"name":"North Road / Pleasance Theatre","parentId":"490G00018564","stationId":"490G00018564","topMostParentId":"490G00018564"},{"icsId":"1018537","id":"490018537W","lat":51.547823,"lon":-0.125618,"name":"Goodinge Health Centre","parentId":"490G00018537","stationId":"490G00018537","stopLetter":"Y","topMostParentId":"490G00018537"},{"icsId":"1004715","id":"490012345W1","lat":51.546311,"lon":-0.126632,"name":"Camden Park Road","parentId":"490G00004715","stationId":"490G00004715","stopLetter":"M","topMostParentId":"490G00004715"},{"icsId":"1012345","id":"490012345W2","lat":51.546348,"lon":-0.127857,"name":"Camden Park Road / Cliff Villas","parentId":"490G00012345","stationId":"490G00012345","stopLetter":"S","topMostParentId":"490G00012345"},{"icsId":"1004718","id":"490004718W","lat":51.547359,"lon":-0.129777,"name":"Camden Road","parentId":"490G00004718","stationId":"490G00004718","stopLetter":"T","topMostParentId":"490G00004718"},{"icsId":"1013716","id":"490013716N2","lat":51.548943,"lon":-0.13212,"name":"Torriano Primary School","parentId":"490G00013716","stationId":"490G00013716","stopLetter":"U","topMostParentId":"490G00013716"},{"icsId":"1009086","id":"490000123W","lat":51.550759,"lon":-0.136041,"name":"Leighton Road / Bartholomew Road","parentId":"490G000633","stationId":"490G000633","topMostParentId":"490G000633"},{"icsId":"1000123","id":"490000123A","lat":51.550213,"lon":-0.140708,"name":"Kentish Town Station","parentId":"490G00123B","stationId":"490G00123B","stopLetter":"KB","topMostParentId":"HUBKTN","zone":"2"},{"icsId":"1004894","id":"490007082K","lat":51.548196,"lon":-0.141151,"name":"Kentish Town Post Office","parentId":"490G00004894","stationId":"490G00004894","stopLetter":"KC","topMostParentId":"490G00004894"},{"icsId":"1001165","id":"490001165W","lat":51.546487,"lon":-0.145648,"name":"Kentish Town West Station","parentId":"490G01165C","stationId":"490G01165C","stopLetter":"KN","topMostParentId":"910GKNTSHTW"},{"icsId":"1007824","id":"490007824W","lat":51.545941,"lon":-0.14867,"name":"Harmood Street","parentId":"490G00007824","stationId":"490G00007824","stopLetter":"KQ","topMostParentId":"490G00007824"},{"icsId":"1012765","id":"490012765W","lat":51.545838,"lon":-0.151819,"name":"Malden Road","parentId":"490G00012765","stationId":"490G00012765","stopLetter":"PQ","topMostParentId":"490G00012765"},{"icsId":"1018708","id":"490018689W","lat":51.545727,"lon":-0.155025,"name":"Haverstock Hill","parentId":"490G00018708","stationId":"490G00018708","stopLetter":"CT","topMostParentId":"490G00018708"},{"icsId":"1000043","id":"490000043CD","lat":51.544645,"lon":-0.153742,"name":"Chalk Farm Station","parentId":"490G00043CD","stationId":"490G00043CD","stopLetter":"CD","topMostParentId":"940GZZLUCFM","zone":"2"},{"icsId":"1004962","id":"490004962E","lat":51.541796,"lon":-0.15041,"name":"Chalk Farm / Morrisons","parentId":"490G00004962","stationId":"490G00004962","stopLetter":"CN","topMostParentId":"490G00004962"}]}]}