{"direction":"outbound","lineId":"398","lineName":"398","mode":"bus","stopPointSequences":[{"stopPoint":[{"icsId":"1000197","id":"490000197A","lat":51.572023,"lon":-0.421499,"name":"Ruislip Station","parentId":"490G00197Z2","stationId":"490G00197Z2","stopLetter":"A","topMostParentId":"940GZZLURSP","zone":"6"},{"icsId":"1000199","id":"490000199A","lat":51.572846,"lon":-0.412553,"name":"Ruislip Manor Station","parentId":"490G00199S","stationId":"490G00199S","stopLetter":"A","topMostParentId":"940GZZLURSM","zone":"6"},{"icsId":"1016302","id":"490016302E","lat":51.571442,"lon":-0.40846,"name":"Dulverton Road","parentId":"490G00016302","stationId":"490G00016302","stopLetter":"H","topMostParentId":"490G00016302"},{"icsId":"1009608","id":"490009608E","lat":51.572331,"lon":-0.405082,"name":"Mansfield Avenue","parentId":"490G00009608","stationId":"490G00009608","stopLetter":"->E","topMostParentId":"490G00009608"},{"icsId":"1019123","id":"490019123E","lat":51.572956,"lon":-0.402116,"name":"Oak Grove","parentId":"490G00019123","stationId":"490G00019123","stopLetter":"->E","topMostParentId":"490G00019123"},{"icsId":"1005568","id":"490005568E","lat":51.573906,"lon":-0.397898,"name":"Hoylake Gardens","parentId":"490G00005568","stationId":"490G00005568","stopLetter":"P","topMostParentId":"490G00005568"},{"icsId":"1000066","id":"490000066B","lat":51.576218,"lon":-0.397326,"name":"Eastcote Station","parentId":"490G00066A","stationId":"490G00066A","stopLetter":"Q","topMostParentId":"940GZZLUEAE","zone":"5"},{"icsId":"1015492","id":"490015492C","lat":51.577552,"lon":-0.396932,"name":"The Close","parentId":"490G000902","stationId":"490G000902","stopLetter":"H","topMostParentId":"490G000902"},{"icsId":"1004979","id":"490004979E","lat":51.577754,"lon":-0.391932,"name":"Chandos Road","parentId":"490G00004979","stationId":"490G00004979","stopLetter":"->E","topMostParentId":"490G00004979"},{"icsId":"1011399","id":"490011399E","lat":51.577839,"lon":-0.385709,"name":"Raleigh Close","parentId":"490G00011399","stationId":"490G00011399","stopLetter":"->E","topMostParentId":"490G00011399"},{"icsId":"1012256","id":"490012256E","lat":51.578094,"lon":-0.381384,"name":"Southbourne Close","parentId":"490G00012256","stationId":"490G00012256","stopLetter":"->E","topMostParentId":"490G00012256"},{"icsId":"1013373","id":"490013373E","lat":51.577253,"lon":-0.377763,"name":"The Glen","parentId":"490G00013373","stationId":"490G00013373","stopLetter":"->E","topMostParentId":"490G00013373"},{"icsId":"1014084","id":"490014084P","lat":51.577361,"lon":-0.370644,"name":"Village Way East","parentId":"490G000815","stationId":"490G000815","stopLetter":"P","topMostParentId":"490G000815"},{"icsId":"1000189","id":"490000189B","lat":51.576083,"lon":-0.369867,"name":"Rayners Lane","parentId":"490G00189S","stationId":"490G00189S","stopLetter":"B","topMostParentId":"940GZZLURYL","zone":"5"},{"icsId":"1000189","id":"490000189C","lat":51.574522,"lon":-0.370789,"name":"Rayners Lane Station","parentId":"490G00189S","stationId":"490G00189S","stopLetter":"C","topMostParentId":"940GZZLURYL","zone":"5"},{"icsId":"1010702","id":"490010702S","lat":51.571369,"lon":-0.371017,"name":"Oxleay Road","parentId":"490G00010702","stationId":"490G00010702","stopLetter":"U","topMostParentId":"490G00010702"},{"icsId":"1003220","id":"490003220S","lat":51.567864,"lon":-0.368574,"name":"Alexandra Avenue Health Centre","parentId":"490G00003220","stationId":"490G00003220","stopLetter":"V","topMostParentId":"490G00003220"},{"icsId":"1006330","id":"490006330S","lat":51.566173,"lon":-0.367249,"name":"Eastcote Lane","parentId":"490G00006330","stationId":"490G00006330","stopLetter":"W","topMostParentId":"490G00006330"},{"icsId":"1005604","id":"490005604E","lat":51.565095,"lon":-0.360853,"name":"Corbins Lane","parentId":"490G00005604","stationId":"490G00005604","stopLetter":"F","topMostParentId":"490G00005604"},{"icsId":"1000211","id":"490000211F","lat":51.564558,"lon":-0.353976,"name":"South Harrow Station","parentId":"490G00211G","stationId":"490G00211G","stopLetter":"F","topMostParentId":"940GZZLUSHH","zone":"5"},{"icsId":"1000211","id":"490000211G","lat":51.564284,"lon":-0.353726,"name":"South Harrow Station","parentId":"490G00211G","stationId":"490G00211G","stopLetter":"G","topMostParentId":"940GZZLUSHH","zone":"5"},{"icsId":"1015183","id":"490015183J","lat":51.561685,"lon":-0.356922,"name":"Corbins Lane","parentId":"490G00015183","stationId":"490G00015183","stopLetter":"J","topMostParentId":"490G00015183"},{"icsId":"1012689","id":"490012689S","lat":51.559852,"lon":-0.35895,"name":"St Gabriel's Church","parentId":"490G00012689","stationId":"490G00012689","stopLetter":"NH","topMostParentId":"490G00012689"},{"icsId":"1003203","id":"490003203B","lat":51.558093,"lon":-0.361062,"name":"Station Parade","parentId":"490G00003203","stationId":"490G00003203","stopLetter":"NJ","topMostParentId":"490G00003203"},{"icsId":"1005952","id":"490005952S","lat":51.556002,"lon":-0.361368,"name":"Danemead Grove","parentId":"490G000482","stationId":"490G000482","stopLetter":"NK","topMostParentId":"490G000482"},{"icsId":"1015483","id":"490015483E","lat":51.554182,"lon":-0.35725,"name":"Wood End Lane","parentId":"490G00015483","stationId":"490G00015483","stopLetter":"NP","topMostParentId":"490G00015483"},{"icsId":"1018841","id":"490018841N","lat":51.554275,"lon":-0.354318,"name":"Reading Road","parentId":"490G00018841","stationId":"490G00018841","stopLetter":"NE","topMostParentId":"490G00018841"},{"icsId":"1018842","id":"490018842E","lat":51.55572,"lon":-0.348943,"name":"Mary Peters Drive","parentId":"490G00018842","stationId":"490G00018842","topMostParentId":"490G00018842"},{"icsId":"1018843","id":"490018843E","lat":51.554693,"lon":-0.346283,"name":"Hemery Road","parentId":"490G00018843","stationId":"490G00018843","topMostParentId":"490G00018843"}]}]}