{"direction":"outbound","lineId":"399","lineName":"399","mode":"bus","stopPointSequences":[{"stopPoint":[{"icsId":"1013559","id":"490013559S","lat":51.656453,"lon":-0.203966,"name":"The Spires","parentId":"490G00013559","stationId":"490G00013559","stopLetter":"S","topMostParentId":"490G00013559"},{"icsId":"1011868","id":"490011868T","lat":51.654949,"lon":-0.204387,"name":"Salisbury Road","parentId":"490G00011868","stationId":"490G00011868","stopLetter":"T","topMostParentId":"490G00011868"},{"icsId":"1012515","id":"490012515A","lat":51.656727,"lon":-0.201873,"name":"St Albans Road","parentId":"490G00012515","stationId":"490G00012515","stopLetter":"A","topMostParentId":"490G00012515"},{"icsId":"1007631","id":"490007631N","lat":51.65886,"lon":-0.200864,"name":"Hadley Green","parentId":"490G00007631","stationId":"490G00007631","stopLetter":"->N","topMostParentId":"490G00007631"},{"icsId":"1006280","id":"490006280N","lat":51.662862,"lon":-0.199129,"name":"Dury Road","parentId":"490G00006280","stationId":"490G00006280","stopLetter":"->N","topMostParentId":"490G00006280"},{"icsId":"1020373","id":"490020373E","lat":51.662239,"lon":-0.197216,"name":"Convent Close","parentId":"490G00020373","stationId":"490G00020373","stopLetter":"->E","topMostParentId":"490G00020373"},{"icsId":"1009971","id":"490009971E","lat":51.66142,"lon":-0.194227,"name":"Monken Hadley Church","parentId":"490G00009971","stationId":"490G00009971","topMostParentId":"490G00009971"},{"icsId":"1020374","id":"490020374E","lat":51.662498,"lon":-0.190063,"name":"Monken Hadley C of E School","parentId":"490G00020374","stationId":"490G00020374","stopLetter":"->E","topMostParentId":"490G00020374"},{"icsId":"1019552","id":"490019552E","lat":51.6641,"lon":-0.183724,"name":"Pagitts Grove","parentId":"490G00019552","stationId":"490G00019552","stopLetter":"->E","topMostParentId":"490G00019552"},{"icsId":"1023075","id":"490023075E","lat":51.664996,"lon":-0.180637,"name":"Broadgates Avenue","parentId":"490G00023075","stationId":"490G00023075","stopLetter":"->E","topMostParentId":"490G00023075"},{"icsId":"1020381","id":"490005750E1","lat":51.666204,"lon":-0.174471,"name":"Parkgate Avenue","parentId":"490G00020381","stationId":"490G00020381","stopLetter":"->E","topMostParentId":"490G00020381"},{"icsId":"1018566","id":"490018566E","lat":51.666226,"lon":-0.174124,"name":"Camlet Way  Beech Hill Avenue","parentId":"490G00018566","stationId":"490G00018566","topMostParentId":"490G00018566"},{"icsId":"1019554","id":"490019554S","lat":51.663338,"lon":-0.174023,"name":"Newmans Way","parentId":"490G00019554","stationId":"490G00019554","topMostParentId":"490G00019554"},{"icsId":"1019555","id":"490019555E","lat":51.663486,"lon":-0.1714,"name":"Greenbrook Avenue","parentId":"490G00019555","stationId":"490G00019555","stopLetter":"->E","topMostParentId":"490G00019555"},{"icsId":"1019556","id":"490019556N","lat":51.6659,"lon":-0.170536,"name":"Wood Ride","parentId":"490G00019556","stationId":"490G00019556","topMostParentId":"490G00019556"},{"icsId":"1020376","id":"490020376E","lat":51.666868,"lon":-0.164568,"name":"Hadley Wood Golf Club","parentId":"490G00020376","stationId":"490G00020376","stopLetter":"->E","topMostParentId":"490G00020376"},{"icsId":"1019558","id":"490019558E","lat":51.667685,"lon":-0.158143,"name":"Beech Hill","parentId":"490G00019558","stationId":"490G00019558","topMostParentId":"490G00019558"},{"icsId":"1008929","id":"490008929W","lat":51.668503,"lon":-0.16213,"name":"Lancaster Avenue","parentId":"490G00008929","stationId":"490G00008929","topMostParentId":"490G00008929"},{"icsId":"1019560","id":"490019560W","lat":51.668484,"lon":-0.168393,"name":"Duchy Road","parentId":"490G00019560","stationId":"490G00019560","topMostParentId":"490G00019560"},{"icsId":"1001130","id":"490001130W","lat":51.668199,"lon":-0.176098,"name":"Hadley Wood Station","parentId":"490G01130W","stationId":"490G01130W","stopLetter":"A","topMostParentId":"910GHADLYWD"}]}]}