{"direction":"outbound","lineId":"399","lineName":"399","mode":"bus","stopPointSequences":[{"stopPoint":[{"icsId":"1013559","id":"490013559S","lat":51.656453,"lon":-0.203966,"name":"The Spires","parentId":"490G00013559","stationId":"490G00013559","stopLetter":"S","topMostParentId":"490G00013559"},{"icsId":"1011868","id":"490011868T","lat":51.654949,"lon":-0.204387,"name":"Salisbury Road","parentId":"490G00011868","stationId":"490G00011868","stopLetter":"T","topMostParentId":"490G00011868"},{"icsId":"1012515","id":"490012515A","lat":51.656727,"lon":-0.201873,"name":"St Albans Road","parentId":"490G00012515","stationId":"490G00012515","stopLetter":"A","topMostParentId":"490G00012515"},{"icsId":"1007631","id":"490007631N","lat":51.65886,"lon":-0.200864,"name":"Hadley Green","parentId":"490G00007631","stationId":"490G00007631","stopLetter":"->N","topMostParentId":"490G00007631"},{"icsId":"1006280","id":"490006280N","lat":51.662862,"lon":-0.199129,"name":"Dury Road","parentId":"490G00006280","stationId":"490G00006280","stopLetter":"->N","topMostParentId":"490G00006280"},{"icsId":"1007632","id":"490007632N","lat":51.666518,"lon":-0.198304,"name":"Hadley Highstone","parentId":"490G00007632","stationId":"490G00007632","stopLetter":"->N","topMostParentId":"490G00007632"},{"icsId":"1007431","id":"490007431N","lat":51.668115,"lon":-0.196838,"name":"Greenacre Close","parentId":"490G00007431","stationId":"490G00007431","stopLetter":"->N","topMostParentId":"490G00007431"},{"icsId":"1014115","id":"490014115S","lat":51.671047,"lon":-0.16035,"name":"Wagon Road","parentId":"490G00014115","stationId":"490G00014115","stopLetter":"->S","topMostParentId":"490G00014115"},{"icsId":"1008929","id":"490008929W","lat":51.668503,"lon":-0.16213,"name":"Lancaster Avenue","parentId":"490G00008929","stationId":"490G00008929","topMostParentId":"490G00008929"},{"icsId":"1019560","id":"490019560W","lat":51.668484,"lon":-0.168393,"name":"Duchy Road","parentId":"490G00019560","stationId":"490G00019560","topMostParentId":"490G00019560"},{"icsId":"1001130","id":"490001130W","lat":51.668199,"lon":-0.176098,"name":"Hadley Wood Station","parentId":"490G01130W","stationId":"490G01130W","stopLetter":"A","topMostParentId":"910GHADLYWD"}]}]}