{"direction":"outbound","lineId":"406","lineName":"406","mode":"bus","stopPointSequences":[{"stopPoint":[{"icsId":"1005800","id":"490005800A3","lat":51.412363,"lon":-0.298549,"name":"Cromwell Road Bus Station","parentId":"490G000476","stationId":"490G000476","stopLetter":"A3","topMostParentId":"490G000476"},{"icsId":"1006412","id":"490006412D2","lat":51.409926,"lon":-0.30232,"name":"Eden Street","parentId":"490G00006412","stationId":"490G00006412","stopLetter":"D2","topMostParentId":"490G00006412"},{"icsId":"1004478","id":"490004478F","lat":51.408379,"lon":-0.303485,"name":"Brook Street","parentId":"490G00004478","stationId":"490G00004478","stopLetter":"F","topMostParentId":"490G00004478"},{"icsId":"1008829","id":"490008829S","lat":51.40426,"lon":-0.30414,"name":"Kingston University / County Hall","parentId":"490G00008829","stationId":"490G00008829","stopLetter":"UA","topMostParentId":"490G00008829"},{"icsId":"1018502","id":"490018502E","lat":51.400234,"lon":-0.303081,"name":"Maplehurst Close","parentId":"490G00018502","stationId":"490G00018502","stopLetter":"E","topMostParentId":"490G00018502"},{"icsId":"1018503","id":"490018503S","lat":51.395809,"lon":-0.299278,"name":"Surbiton Hill Road / Hollyfield School","parentId":"490G00018503","stationId":"490G00018503","stopLetter":"->S","topMostParentId":"490G00018503"},{"icsId":"1013038","id":"490013038S","lat":51.393693,"lon":-0.298436,"name":"Surbiton Telephone Exchange","parentId":"490G00013038","stationId":"490G00013038","stopLetter":"SM","topMostParentId":"490G00013038"},{"icsId":"1013032","id":"490013032S","lat":51.390783,"lon":-0.29807,"name":"Surbiton Health Centre","parentId":"490G00013032","stationId":"490G00013032","stopLetter":"SN","topMostParentId":"490G00013032"},{"icsId":"1004517","id":"490004517S","lat":51.388615,"lon":-0.297417,"name":"Browns Road","parentId":"490G00004517","stationId":"490G00004517","stopLetter":"SP","topMostParentId":"490G00004517"},{"icsId":"1008305","id":"490008305S","lat":51.38595,"lon":-0.295993,"name":"Hollyfield Road","parentId":"490G00008305","stationId":"490G00008305","stopLetter":"SR","topMostParentId":"490G00008305"},{"icsId":"1013033","id":"490013033S","lat":51.384641,"lon":-0.29311,"name":"Broomfield Road","parentId":"490G00013033","stationId":"490G00013033","stopLetter":"LA","topMostParentId":"490G00013033"},{"icsId":"1008733","id":"490008733N","lat":51.383127,"lon":-0.287993,"name":"King Charles Road","parentId":"490G00008733","stationId":"490G00008733","stopLetter":"LC","topMostParentId":"490G00008733"},{"icsId":"1011205","id":"490011205E","lat":51.382408,"lon":-0.284973,"name":"Princes Avenue","parentId":"490G00011205","stationId":"490G00011205","stopLetter":"J","topMostParentId":"490G00011205"},{"icsId":"1013697","id":"490013697F","lat":51.37991,"lon":-0.281373,"name":"Tolworth Broadway","parentId":"490G00013697","stationId":"490G00013697","stopLetter":"F","topMostParentId":"490G00013697"},{"icsId":"1001295","id":"490001295B","lat":51.378155,"lon":-0.279485,"name":"Tolworth Station","parentId":"490G01295A","stationId":"490G01295A","stopLetter":"B","topMostParentId":"910GTOLWTH"},{"icsId":"1014938","id":"40004406092A","lat":51.371761,"lon":-0.270299,"name":"Worcester Park Road","parentId":"400G4406092A","stationId":"400G4406092A","topMostParentId":"400G4406092A"},{"icsId":"1011830","id":"40004406091B","lat":51.3681,"lon":-0.264145,"name":"Ruxley Lane","parentId":"400G4406091B","stationId":"400G4406091B","topMostParentId":"400G4406091B"},{"icsId":"1011303","id":"40004406065B","lat":51.363914,"lon":-0.257796,"name":"Ewell Court Avenue","parentId":"400G4406065A","stationId":"400G4406065A","topMostParentId":"400G4406065A"},{"icsId":"1004229","id":"40004406064B","lat":51.360417,"lon":-0.252427,"name":"Stoneleigh Park Road","parentId":"400G4406064A","stationId":"400G4406064A","topMostParentId":"910GSTLEIGH"},{"icsId":"1003834","id":"40004406063B","lat":51.358726,"lon":-0.249992,"name":"Beggars Hill","parentId":"400G4406063A","stationId":"400G4406063A","topMostParentId":"400G4406063A"},{"icsId":"1008577","id":"40004406062B","lat":51.35583,"lon":-0.25118,"name":"Shortcroft Road","parentId":"400G4406062A","stationId":"400G4406062A","topMostParentId":"400G4406062A"},{"icsId":"1007347","id":"40004406061B","lat":51.353531,"lon":-0.250765,"name":"Grange Mansions","parentId":"400G4406061A","stationId":"400G4406061A","topMostParentId":"400G4406061A"},{"icsId":"1006679","id":"40004406055B","lat":51.350579,"lon":-0.250001,"name":"The Spring","parentId":"400G4406055B","stationId":"400G4406055B","topMostParentId":"400G4406055B"},{"icsId":"1006676","id":"40004406045B","lat":51.346659,"lon":-0.250668,"name":"Reigate Road / Green Man","parentId":"400G4406045A","stationId":"400G4406045A","topMostParentId":"400G4406045A"},{"icsId":"1015599","id":"40004406044B","lat":51.345258,"lon":-0.251338,"name":"Mongers Lane","parentId":"400G4406044A","stationId":"400G4406044A","topMostParentId":"400G4406044A"},{"icsId":"1008111","id":"40004406043B","lat":51.342506,"lon":-0.252577,"name":"Hessle Grove","parentId":"400G4406043A","stationId":"400G4406043A","topMostParentId":"400G4406043A"},{"icsId":"1015600","id":"40004406041B","lat":51.34027,"lon":-0.254558,"name":"Windmill Lane","parentId":"400G4406041A","stationId":"400G4406041A","topMostParentId":"400G4406041A"},{"icsId":"1008717","id":"40004406117B","lat":51.33852,"lon":-0.257251,"name":"Kiln Lane","parentId":"400G4406117A","stationId":"400G4406117A","topMostParentId":"400G4406117A"},{"icsId":"1015601","id":"40004406040B","lat":51.335993,"lon":-0.261467,"name":"Rainbow Leisure Centre","parentId":"400G4406040A","stationId":"400G4406040A","topMostParentId":"400G4406040A"},{"icsId":"1006610","id":"40004406039D","lat":51.333535,"lon":-0.26614,"name":"Epsom High Street","parentId":"400G4406039A","stationId":"400G4406039A","stopLetter":"K","topMostParentId":"910GEPSM"},{"icsId":"1006597","id":"40004406119A","lat":51.332303,"lon":-0.266746,"name":"Ashley Road","stopLetter":"M","topMostParentId":"40004406119A"}]},{"stopPoint":[{"icsId":"1006597","id":"40004406119A","lat":51.332303,"lon":-0.266746,"name":"Ashley Road","stopLetter":"M","topMostParentId":"40004406119A"},{"icsId":"1014826","id":"40004406011A","lat":51.327649,"lon":-0.270022,"name":"Avenue Road","parentId":"400G4406011A","stationId":"400G4406011A","topMostParentId":"400G4406011A"},{"icsId":"1014830","id":"40004406010A","lat":51.324429,"lon":-0.271234,"name":"Woodcote Green Road","parentId":"400G4406010A","stationId":"400G4406010A","stopLetter":"T","topMostParentId":"400G4406010A"},{"icsId":"1014831","id":"40004406009A","lat":51.322805,"lon":-0.27451,"name":"Hylands Road","parentId":"400G4406009B","stationId":"400G4406009B","topMostParentId":"400G4406009B"},{"icsId":"1006605","id":"40004406036A","lat":51.325944,"lon":-0.276387,"name":"Epsom Hospital","parentId":"400G4406036A","stationId":"400G4406036A","stopLetter":"R","topMostParentId":"400G4406036A"}]},{"stopPoint":[{"icsId":"1006597","id":"40004406119A","lat":51.332303,"lon":-0.266746,"name":"Ashley Road","stopLetter":"M","topMostParentId":"40004406119A"},{"icsId":"1006600","id":"40004406038D","lat":51.333048,"lon":-0.26969,"name":"Clock Tower","parentId":"400G4406038A","stationId":"400G4406038A","topMostParentId":"910GEPSM"}]}]}