{"direction":"outbound","lineId":"41","lineName":"41","mode":"bus","stopPointSequences":[{"stopPoint":[{"icsId":"1000008","id":"490000008Z","lat":51.566392,"lon":-0.135142,"name":"Archway Station","parentId":"490G00008O","stationId":"490G00008O","stopLetter":"G","topMostParentId":"940GZZLUACY","zone":"2+3"},{"icsId":"1003363","id":"490003363M","lat":51.566762,"lon":-0.132992,"name":"Archway Road / St John's Way","parentId":"490G00003363","stationId":"490G00003363","stopLetter":"->E","topMostParentId":"490G00003363"},{"icsId":"1005752","id":"490005752N","lat":51.568533,"lon":-0.131231,"name":"Cressida Road","parentId":"490G00005752","stationId":"490G00005752","stopLetter":"Y","topMostParentId":"490G00005752"},{"icsId":"1013023","id":"490013023N","lat":51.57053,"lon":-0.127946,"name":"Sunnyside Road","parentId":"490G00013023","stationId":"490G00013023","stopLetter":"H","topMostParentId":"490G00013023"},{"icsId":"1007976","id":"490007971E","lat":51.569752,"lon":-0.124255,"name":"Hornsey Road","parentId":"490G00007976","stationId":"490G00007976","topMostParentId":"490G00007976"},{"icsId":"1008365","id":"490008365N","lat":51.571496,"lon":-0.12476,"name":"Hornsey Rise","parentId":"490G08365S","stationId":"490G08365S","stopLetter":"K","topMostParentId":"490G08365S"},{"icsId":"1008360","id":"490008360N","lat":51.57525,"lon":-0.126741,"name":"Hornsey Lane","parentId":"490G00008360","stationId":"490G00008360","stopLetter":"L","topMostParentId":"490G00008360"},{"icsId":"1006435","id":"490006435CE","lat":51.577259,"lon":-0.125244,"name":"Edison Road","parentId":"490G00006435","stationId":"490G00006435","stopLetter":"CE","topMostParentId":"490G00006435"},{"icsId":"1005826","id":"490005826CA","lat":51.580379,"lon":-0.123023,"name":"Crouch End Broadway","parentId":"490G00005826","stationId":"490G00005826","stopLetter":"CA","topMostParentId":"490G00005826"},{"icsId":"1006799","id":"490006799N","lat":51.58232,"lon":-0.119566,"name":"Tottenham Lane Y M C A","parentId":"490G00006799","stationId":"490G00006799","stopLetter":"S","topMostParentId":"490G00006799"},{"icsId":"1007880","id":"490007880N","lat":51.58396,"lon":-0.116409,"name":"Hornsey Police Station","parentId":"490G00007880","stationId":"490G00007880","stopLetter":"T","topMostParentId":"490G00007880"},{"icsId":"1005275","id":"490005275E1","lat":51.588048,"lon":-0.113916,"name":"Tottenham Lane","parentId":"490G00005275","stationId":"490G00005275","stopLetter":"D","topMostParentId":"490G00005275"},{"icsId":"1014665","id":"490014665E","lat":51.58886,"lon":-0.111269,"name":"Wightman Road","parentId":"490G00014665","stationId":"490G00014665","stopLetter":"E","topMostParentId":"490G00014665"},{"icsId":"1014668","id":"490000241N","lat":51.589871,"lon":-0.105395,"name":"Wood Green High Road","parentId":"490G000834","stationId":"490G000834","stopLetter":"N","topMostParentId":"490G000834"},{"icsId":"1000241","id":"490015475Y","lat":51.589626,"lon":-0.102475,"name":"Turnpike Lane Station","parentId":"490G00241M","stationId":"490G00241M","stopLetter":"Y","topMostParentId":"940GZZLUTPN","zone":"3"},{"icsId":"1014713","id":"490014713E","lat":51.588021,"lon":-0.099972,"name":"Willow Walk","parentId":"490G00014713","stationId":"490G00014713","stopLetter":"W","topMostParentId":"490G00014713"},{"icsId":"1012557","id":"490012557E","lat":51.587062,"lon":-0.097414,"name":"Stanley Road","parentId":"490G00012557","stationId":"490G00012557","stopLetter":"A","topMostParentId":"490G00012557"},{"icsId":"1014464","id":"490014464E","lat":51.586134,"lon":-0.092313,"name":"West Green Primary School","parentId":"490G00014464","stationId":"490G00014464","stopLetter":"B","topMostParentId":"490G00014464"},{"icsId":"1010982","id":"490010982E","lat":51.586358,"lon":-0.087266,"name":"Philip Lane","parentId":"490G00010982","stationId":"490G00010982","stopLetter":"D","topMostParentId":"490G00010982"},{"icsId":"1003502","id":"490003502E","lat":51.585461,"lon":-0.083045,"name":"West Green Baptist Church","parentId":"490G00003502","stationId":"490G00003502","stopLetter":"J","topMostParentId":"490G00003502"},{"icsId":"1009023","id":"490009023E","lat":51.585238,"lon":-0.079287,"name":"Bedford Road","parentId":"490G00009023","stationId":"490G00009023","stopLetter":"K","topMostParentId":"490G00009023"},{"icsId":"1000201","id":"490000201D","lat":51.583984,"lon":-0.073018,"name":"Seven Sisters Station","parentId":"490G00201I","stationId":"490G00201I","stopLetter":"F","topMostParentId":"HUBSVS","zone":"3"},{"icsId":"1012531","id":"490012525R","lat":51.584633,"lon":-0.067058,"name":"Antill Road","parentId":"490G00012531","stationId":"490G00012531","stopLetter":"R","topMostParentId":"490G00012531"},{"icsId":"1020141","id":"49000020141Q","lat":51.585707,"lon":-0.064039,"name":"Fountayne Business Centre","parentId":"490G00020141","stationId":"490G00020141","stopLetter":"Q","topMostParentId":"490G00020141"},{"icsId":"1013729","id":"490013729O","lat":51.587563,"lon":-0.063714,"name":"Tottenham Hale Retail Park","parentId":"490G000802","stationId":"490G000802","stopLetter":"O","topMostParentId":"490G000802"},{"icsId":"1009917","id":"490009917T","lat":51.588414,"lon":-0.06082,"name":"Tottenham Hale Bus Station","parentId":"490G000667","stationId":"490G000667","stopLetter":"E","topMostParentId":"HUBTOM"}]}]}