{"direction":"outbound","lineId":"414","lineName":"414","mode":"bus","stopPointSequences":[{"stopPoint":[{"icsId":"1000184","id":"490000184Y","lat":51.468167,"lon":-0.209022,"name":"Putney Bridge Station","parentId":"490G00184X","stationId":"490G00184X","stopLetter":"FB","topMostParentId":"940GZZLUPYB","zone":"2"},{"icsId":"1008436","id":"490007051N","lat":51.470672,"lon":-0.211127,"name":"Fulham High Street","parentId":"490G00008436","stationId":"490G00008436","stopLetter":"FJ","topMostParentId":"490G00008436"},{"icsId":"1007054","id":"490007054E","lat":51.47195,"lon":-0.210617,"name":"Fulham Palace Road","parentId":"490G00007054","stationId":"490G00007054","stopLetter":"FP","topMostParentId":"490G00007054"},{"icsId":"1010123","id":"490010123E2","lat":51.473917,"lon":-0.207487,"name":"Munster Road","parentId":"490G00010123","stationId":"490G00010123","stopLetter":"FR","topMostParentId":"490G00010123"},{"icsId":"1011385","id":"490011385E","lat":51.476372,"lon":-0.204568,"name":"Radipole Road","parentId":"490G00011385","stationId":"490G00011385","stopLetter":"S","topMostParentId":"490G00011385"},{"icsId":"1010861","id":"490010861T","lat":51.47773,"lon":-0.20162,"name":"Parsons Green Lane / Fulham Library","parentId":"490G000699","stationId":"490G000699","stopLetter":"T","topMostParentId":"490G000699"},{"icsId":"1000352","id":"490008547E","lat":51.480217,"lon":-0.198441,"name":"Fulham Broadway","parentId":"490G00000352","stationId":"490G00000352","stopLetter":"E","topMostParentId":"490G00000352"},{"icsId":"1000084","id":"490000084L","lat":51.480291,"lon":-0.194477,"name":"Fulham Broadway Station","parentId":"490G00084L","stationId":"490G00084L","stopLetter":"L","topMostParentId":"940GZZLUFBY","zone":"2"},{"icsId":"1005075","id":"490005075E","lat":51.480342,"lon":-0.192531,"name":"Chelsea Village","parentId":"490G00005075","stationId":"490G00005075","stopLetter":"U","topMostParentId":"490G00005075"},{"icsId":"1005069","id":"490005069E","lat":51.480186,"lon":-0.190017,"name":"Chelsea Football Club","parentId":"490G00005069","stationId":"490G00005069","stopLetter":"V","topMostParentId":"490G00005069"},{"icsId":"1008380","id":"490008380HD","lat":51.48227,"lon":-0.186939,"name":"Hortensia Road","parentId":"490G00008380","stationId":"490G00008380","stopLetter":"HD","topMostParentId":"490G00008380"},{"icsId":"1006437","id":"490006437HE","lat":51.483794,"lon":-0.184891,"name":"Edith Grove","parentId":"490G00006437","stationId":"490G00006437","stopLetter":"HE","topMostParentId":"490G00006437"},{"icsId":"1005062","id":"490005062HF","lat":51.48515,"lon":-0.182489,"name":"Chelsea and Westminster Hospital","parentId":"490G00005062","stationId":"490G00005062","stopLetter":"HF","topMostParentId":"490G00005062"},{"icsId":"1003726","id":"490003726E","lat":51.487562,"lon":-0.178547,"name":"Fulham Road / Beaufort Street","parentId":"490G00003726","stationId":"490G00003726","stopLetter":"HH","topMostParentId":"490G00003726"},{"icsId":"1006514","id":"490006514N","lat":51.489108,"lon":-0.176152,"name":"Old Church Street","parentId":"490G00006514","stationId":"490G00006514","stopLetter":"HJ","topMostParentId":"490G00006514"},{"icsId":"1015421","id":"490015421E","lat":51.490724,"lon":-0.173725,"name":"Royal Brompton Hosp / Royal Marsden Hosp","parentId":"490G00015421","stationId":"490G00015421","stopLetter":"HM","topMostParentId":"490G00015421"},{"icsId":"1010603","id":"490010603N","lat":51.492275,"lon":-0.172266,"name":"Onslow Square","parentId":"490G00010603","stationId":"490G00010603","stopLetter":"HT","topMostParentId":"490G00010603"},{"icsId":"1015173","id":"490015173D","lat":51.49345,"lon":-0.173746,"name":"Sth Kensington Stn  / Old Brompton Rd","parentId":"490G000866","stationId":"490G000866","stopLetter":"B","topMostParentId":"490G000866"},{"icsId":"1000212","id":"490000212E","lat":51.494464,"lon":-0.174815,"name":"South Kensington Station","parentId":"490G00212G","stationId":"490G00212G","stopLetter":"E","topMostParentId":"940GZZLUSKS","zone":"1"},{"icsId":"1004436","id":"490004436C","lat":51.496229,"lon":-0.170883,"name":"Victoria and Albert Museum","parentId":"490G00004436","stationId":"490G00004436","stopLetter":"M","topMostParentId":"490G00004436"},{"icsId":"1004437","id":"490004437E","lat":51.497773,"lon":-0.167306,"name":"Brompton Square","parentId":"490G00004437","stationId":"490G00004437","stopLetter":"KW","topMostParentId":"490G00004437"},{"icsId":"1007841","id":"490007841KB","lat":51.499408,"lon":-0.164273,"name":"Harrods","parentId":"490G00007841","stationId":"490G00007841","stopLetter":"KB","topMostParentId":"490G00007841"},{"icsId":"1000130","id":"490000130KD","lat":51.500735,"lon":-0.162332,"name":"Knightsbridge Station","parentId":"490G00130KD","stationId":"490G00130KD","stopLetter":"KD","topMostParentId":"940GZZLUKNB","zone":"1"},{"icsId":"1000119","id":"490000119W","lat":51.503046,"lon":-0.153161,"name":"Hyde Park Corner Station","parentId":"490G00119S","stationId":"490G00119S","stopLetter":"W","topMostParentId":"940GZZLUHPC","zone":"1"},{"icsId":"1009277","id":"490009277Y","lat":51.505089,"lon":-0.152113,"name":"London Hilton Hotel","parentId":"490G00009277","stationId":"490G00009277","stopLetter":"Y","topMostParentId":"490G00009277"},{"icsId":"1006111","id":"490006111N2","lat":51.508589,"lon":-0.155128,"name":"Dorchester Hotel","parentId":"490G00006111","stationId":"490G00006111","stopLetter":"T","topMostParentId":"490G00006111"},{"icsId":"1000144","id":"490000144W","lat":51.511607,"lon":-0.158349,"name":"Marble Arch","parentId":"490G00144R","stationId":"490G00144R","stopLetter":"W","topMostParentId":"940GZZLUMBA","zone":"1"},{"icsId":"1008450","id":"490000144E","lat":51.513875,"lon":-0.161299,"name":"Marble Arch / Edgware Road","parentId":"490G00008450","stationId":"490G00008450","stopLetter":"E","topMostParentId":"490G00008450"},{"icsId":"1007167","id":"490007167N3","lat":51.516444,"lon":-0.165144,"name":"George Street","parentId":"490G00007167","stationId":"490G00007167","stopLetter":"EJ","topMostParentId":"490G00007167"},{"icsId":"1015044","id":"490013046T","lat":51.518404,"lon":-0.167977,"name":"Sussex Gardens","parentId":"490G00015044","stationId":"490G00015044","stopLetter":"EL","topMostParentId":"490G00015044"},{"icsId":"1000071","id":"490006428B","lat":51.520576,"lon":-0.171191,"name":"Edgware Road Station","parentId":"490G00071E","stationId":"490G00071E","stopLetter":"EM","topMostParentId":"940GZZLUERB","zone":"1"},{"icsId":"1015285","id":"490015285N","lat":51.52235,"lon":-0.173657,"name":"Church Street Market","parentId":"490G00015285","stationId":"490G00015285","stopLetter":"EN","topMostParentId":"490G00015285"},{"icsId":"1010621","id":"490010621N","lat":51.523904,"lon":-0.175829,"name":"Orchardson Street","parentId":"490G00010621","stationId":"490G00010621","stopLetter":"EP","topMostParentId":"490G00010621"},{"icsId":"1012747","id":"490012747F","lat":51.525062,"lon":-0.177484,"name":"St John's Wood Road","parentId":"490G00012747","stationId":"490G00012747","stopLetter":"F","topMostParentId":"490G00012747"},{"icsId":"1005427","id":"490005427W2","lat":51.525471,"lon":-0.179471,"name":"Clifton Road / Maida Vale","parentId":"490G00005427","stationId":"490G00005427","stopLetter":"G","topMostParentId":"490G00005427"},{"icsId":"1000253","id":"490000253H","lat":51.523617,"lon":-0.183423,"name":"Warwick Avenue Station","parentId":"490G00253H","stationId":"490G00253H","stopLetter":"H","topMostParentId":"940GZZLUWKA","zone":"2"},{"icsId":"1019111","id":"490004990W","lat":51.524232,"lon":-0.188905,"name":"Sutherland Avenue","parentId":"490G00019111","stationId":"490G00019111","stopLetter":"MJ","topMostParentId":"490G00019111"},{"icsId":"1006471","id":"490006471W","lat":51.5261,"lon":-0.192839,"name":"Elgin Avenue","parentId":"490G00006471","stationId":"490G00006471","stopLetter":"MK","topMostParentId":"490G00006471"},{"icsId":"1005188","id":"490005188W","lat":51.527551,"lon":-0.19653,"name":"Chippenham Road","parentId":"490G00005188","stationId":"490G00005188","stopLetter":"ML","topMostParentId":"490G00005188"}]}]}