{"direction":"outbound","lineId":"425","lineName":"425","mode":"bus","stopPointSequences":[{"stopPoint":[{"icsId":"1007657","id":"490007657V","lat":51.55932,"lon":0.076008,"name":"Hainault Street","parentId":"490G00007657","stationId":"490G00007657","stopLetter":"V","topMostParentId":"490G00007657"},{"icsId":"1008466","id":"490008466Q1","lat":51.557867,"lon":0.074311,"name":"Redbridge Central Library","parentId":"490G00008466","stationId":"490G00008466","stopLetter":"Q","topMostParentId":"490G00008466"},{"icsId":"1008465","id":"490008465L","lat":51.558379,"lon":0.070757,"name":"Ilford Broadway","parentId":"490G000604","stationId":"490G000604","stopLetter":"L","topMostParentId":"490G000604"},{"icsId":"1004985","id":"490004985Y","lat":51.55736,"lon":0.067854,"name":"Chapel Road","parentId":"490G00004985","stationId":"490G00004985","stopLetter":"Y","topMostParentId":"490G00004985"},{"icsId":"1006059","id":"490006059W","lat":51.555277,"lon":0.062033,"name":"Dersingham Avenue","parentId":"490G00006059","stationId":"490G00006059","stopLetter":"A","topMostParentId":"490G00006059"},{"icsId":"1009219","id":"490009219W","lat":51.55447,"lon":0.059371,"name":"Little Ilford Lane","parentId":"490G00009219","stationId":"490G00009219","stopLetter":"B","topMostParentId":"490G00009219"},{"icsId":"1009570","id":"490009570W","lat":51.55302,"lon":0.054343,"name":"Rabbits Road","parentId":"490G00009570","stationId":"490G00009570","stopLetter":"C","topMostParentId":"490G00009570"},{"icsId":"1006856","id":"490006856W","lat":51.551966,"lon":0.051367,"name":"First Avenue","parentId":"490G00006856","stationId":"490G00006856","stopLetter":"D","topMostParentId":"490G00006856"},{"icsId":"1008189","id":"490008189W","lat":51.551123,"lon":0.048675,"name":"High Street North","parentId":"490G000596","stationId":"490G000596","stopLetter":"F","topMostParentId":"490G000596"},{"icsId":"1001341","id":"490001341G","lat":51.549178,"lon":0.043655,"name":"Woodgrange Park Station","parentId":"490G01341G","stationId":"490G01341G","stopLetter":"G","topMostParentId":"910GWDGRNPK"},{"icsId":"1012131","id":"490012131W","lat":51.548162,"lon":0.039513,"name":"Shrewsbury Road","parentId":"490G00012131","stationId":"490G00012131","stopLetter":"->W","topMostParentId":"490G00012131"},{"icsId":"1008603","id":"490008603W","lat":51.54741,"lon":0.035167,"name":"Katherine Road","parentId":"490G00008603","stationId":"490G00008603","stopLetter":"->W","topMostParentId":"490G00008603"},{"icsId":"1007497","id":"490007497W","lat":51.546811,"lon":0.030294,"name":"Green Street","parentId":"490G00007497","stationId":"490G00007497","stopLetter":"Q","topMostParentId":"490G00007497"},{"icsId":"1006919","id":"490006917E","lat":51.546529,"lon":0.026849,"name":"Woodgrange Road","parentId":"490G00006919","stationId":"490G00006919","stopLetter":"E","topMostParentId":"490G00006919"},{"icsId":"1012414","id":"490012414W","lat":51.546148,"lon":0.022895,"name":"Sprowston Road","parentId":"490G00012414","stationId":"490G00012414","stopLetter":"R","topMostParentId":"490G00012414"},{"icsId":"1006936","id":"490006936W","lat":51.545409,"lon":0.019328,"name":"Margery Park Road","parentId":"490G00006936","stationId":"490G00006936","stopLetter":"S","topMostParentId":"490G00006936"},{"icsId":"1003468","id":"490003468W","lat":51.543958,"lon":0.013769,"name":"Atherton Leisure Centre","parentId":"490G00003468","stationId":"490G00003468","stopLetter":"->W","topMostParentId":"490G00003468"},{"icsId":"1014269","id":"490014269W","lat":51.542873,"lon":0.0099,"name":"Water Lane / University Of East London","parentId":"490G00014269","stationId":"490G00014269","stopLetter":"MS","topMostParentId":"490G00014269"},{"icsId":"1012906","id":"490015114E","lat":51.541262,"lon":0.002618,"name":"Stratford Centre","parentId":"490G00012906","stationId":"490G00012906","stopLetter":"E","topMostParentId":"490G00012906"},{"icsId":"1012904","id":"490012904T","lat":51.541323,"lon":-0.002556,"name":"Stratford Bus Station","parentId":"490G000773","stationId":"490G000773","topMostParentId":"HUBSRA"},{"icsId":"1004815","id":"490004815S","lat":51.53734,"lon":-0.002615,"name":"Stratford High St / Carpenters Road","parentId":"490G00004815","stationId":"490G00004815","stopLetter":"J","topMostParentId":"490G00004815"},{"icsId":"1014249","id":"490014249S","lat":51.535856,"lon":-0.00467,"name":"Warton Road","parentId":"490G00014249","stationId":"490G00014249","stopLetter":"K","topMostParentId":"490G00014249"},{"icsId":"1003025","id":"490003025W","lat":51.533787,"lon":-0.00727,"name":"Abbey Lane","parentId":"490G00003025","stationId":"490G00003025","stopLetter":"L","topMostParentId":"490G00003025"},{"icsId":"1004215","id":"490004215P","lat":51.530316,"lon":-0.012078,"name":"Bow Flyover","parentId":"490G000422","stationId":"490G000422","stopLetter":"P","topMostParentId":"490G000422"},{"icsId":"1004206","id":"490004206J","lat":51.528416,"lon":-0.017221,"name":"Bow Church","parentId":"490G000421","stationId":"490G000421","stopLetter":"J","topMostParentId":"490G000421"},{"icsId":"1002019","id":"490002019B","lat":51.527949,"lon":-0.020471,"name":"Bow Church Station","parentId":"490G02019A","stationId":"490G02019A","stopLetter":"B","topMostParentId":"940GZZDLBOW","zone":"2"},{"icsId":"1000029","id":"490000029Z","lat":51.527353,"lon":-0.024029,"name":"Bow Road Station","parentId":"490G00029Q","stationId":"490G00029Q","stopLetter":"Z","topMostParentId":"940GZZLUBWR","zone":"2"},{"icsId":"1012648","id":"490012648K","lat":51.526061,"lon":-0.029563,"name":"Coborn Road","parentId":"490G00012648","stationId":"490G00012648","stopLetter":"K","topMostParentId":"490G00012648"},{"icsId":"1000146","id":"490000146W","lat":51.525533,"lon":-0.032426,"name":"Mile End Station","parentId":"490G00146C","stationId":"490G00146C","stopLetter":"M","topMostParentId":"940GZZLUMED","zone":"2"},{"icsId":"1018852","id":"490000146G","lat":51.525807,"lon":-0.035355,"name":"Mile End Station / Mile End Road","parentId":"490G000925","stationId":"490G000925","stopLetter":"G","topMostParentId":"490G000925"},{"icsId":"1013517","id":"490013517N","lat":51.527068,"lon":-0.03654,"name":"Lichfield Road","parentId":"490G00013517","stationId":"490G00013517","stopLetter":"->N","topMostParentId":"490G00013517"},{"icsId":"1003352","id":"490003352N","lat":51.528963,"lon":-0.038521,"name":"Arbery Road","parentId":"490G00003352","stationId":"490G00003352","stopLetter":"Q","topMostParentId":"490G00003352"},{"icsId":"1012633","id":"490012633N","lat":51.530425,"lon":-0.039928,"name":"St Barnabas Church","parentId":"490G00012633","stationId":"490G00012633","stopLetter":"R","topMostParentId":"490G00012633"},{"icsId":"1010554","id":"490010554S2","lat":51.532225,"lon":-0.041105,"name":"Old Ford Road","parentId":"490G00010554","stationId":"490G00010554","stopLetter":"S","topMostParentId":"490G00010554"},{"icsId":"1006025","id":"490006025N","lat":51.534304,"lon":-0.042242,"name":"Victoria Park","parentId":"490G00006025","stationId":"490G00006025","stopLetter":"T","topMostParentId":"490G00006025"},{"icsId":"1011823","id":"490011823N","lat":51.53762,"lon":-0.044854,"name":"Victoria Park Road","parentId":"490G00011823","stationId":"490G00011823","stopLetter":"U","topMostParentId":"490G00011823"},{"icsId":"1010068","id":"490010068N","lat":51.539832,"lon":-0.046432,"name":"Moulins Road","parentId":"490G00010068","stationId":"490G00010068","stopLetter":"Q","topMostParentId":"490G00010068"},{"icsId":"1018643","id":"490018643S","lat":51.543328,"lon":-0.047364,"name":"Well Street","parentId":"490G00018643","stationId":"490G00018643","stopLetter":"S","topMostParentId":"490G00018643"},{"icsId":"1011863","id":"490011863N","lat":51.546023,"lon":-0.046686,"name":"Morning Lane / Retreat Place","parentId":"490G00011863","stationId":"490G00011863","stopLetter":"Y","topMostParentId":"490G00011863"},{"icsId":"1003044","id":"490003044H","lat":51.548078,"lon":-0.046439,"name":"Homerton High Street","parentId":"490G00003044","stationId":"490G00003044","stopLetter":"H","topMostParentId":"490G00003044"},{"icsId":"1005405","id":"490016757N","lat":51.549581,"lon":-0.042711,"name":"Brooksby's Walk / Homerton Station","parentId":"490G00005405","stationId":"490G00005405","stopLetter":"HB","topMostParentId":"490G00005405"},{"icsId":"1008327","id":"490008327F","lat":51.549922,"lon":-0.043764,"name":"Homerton Hospital","parentId":"490G00008327","stationId":"490G00008327","stopLetter":"F","topMostParentId":"490G00008327"},{"icsId":"1006082","id":"490006082A","lat":51.547997,"lon":-0.045332,"name":"Banister House","parentId":"490G00006082","stationId":"490G00006082","stopLetter":"A","topMostParentId":"490G00006082"},{"icsId":"1008501","id":"490008501O","lat":51.548281,"lon":-0.04943,"name":"The City Academy","parentId":"490G00008501","stationId":"490G00008501","stopLetter":"O","topMostParentId":"490G00008501"},{"icsId":"1009418","id":"490009411W","lat":51.550208,"lon":-0.051209,"name":"Jack Dunning Estate","parentId":"490G00009418","stationId":"490G00009418","stopLetter":"W","topMostParentId":"490G00009418"},{"icsId":"1007220","id":"490007220Z","lat":51.551807,"lon":-0.052179,"name":"Glenarm Road","parentId":"490G00007220","stationId":"490G00007220","stopLetter":"Z","topMostParentId":"490G00007220"},{"icsId":"1009195","id":"490009195N","lat":51.553492,"lon":-0.053463,"name":"Clapton Girls' Academy","parentId":"490G00009195","stationId":"490G00009195","stopLetter":"L","topMostParentId":"490G00009195"},{"icsId":"1005340","id":"490005340H","lat":51.555559,"lon":-0.055048,"name":"Clapton Pond","parentId":"490G00005340","stationId":"490G00005340","stopLetter":"H","topMostParentId":"490G00005340"},{"icsId":"1009035","id":"490009035M","lat":51.557554,"lon":-0.05603,"name":"Lea Bridge Roundabout","parentId":"490G00009035","stationId":"490G00009035","stopLetter":"M","topMostParentId":"490G00009035"},{"icsId":"1018318","id":"490018318W","lat":51.558284,"lon":-0.059404,"name":"Kenninghall Road","parentId":"490G00018318","stationId":"490G00018318","stopLetter":"Y","topMostParentId":"490G00018318"}]}]}