{"direction":"outbound","lineId":"45","lineName":"45","mode":"bus","stopPointSequences":[{"stopPoint":[{"icsId":"1001276","id":"490001276S","lat":51.5316,"lon":-0.127265,"name":"St Pancras International Station","parentId":"490G01276S","stationId":"490G01276S","stopLetter":"S","topMostParentId":"HUBKGX"},{"icsId":"1000129","id":"490000129D","lat":51.5304,"lon":-0.123076,"name":"King's Cross Station","parentId":"490G00129R","stationId":"490G00129R","stopLetter":"D","topMostParentId":"HUBKGX","zone":"1"},{"icsId":"1010929","id":"490010929L","lat":51.530704,"lon":-0.118449,"name":"King's Cross Road / Pentonville Road","parentId":"490G000700","stationId":"490G000700","stopLetter":"L","topMostParentId":"HUBKGX"},{"icsId":"1003087","id":"490003087W1","lat":51.528351,"lon":-0.118085,"name":"Acton Street","parentId":"490G00003087","stationId":"490G00003087","stopLetter":"HA","topMostParentId":"490G00003087"},{"icsId":"1006368","id":"490006368S","lat":51.525939,"lon":-0.117435,"name":"Eastman Dental Hospital","parentId":"490G00006368","stationId":"490G00006368","stopLetter":"HB","topMostParentId":"490G00006368"},{"icsId":"1007598","id":"490007598S","lat":51.524678,"lon":-0.116161,"name":"Guilford Street","parentId":"490G00007598","stationId":"490G00007598","stopLetter":"HC","topMostParentId":"490G00007598"},{"icsId":"1019770","id":"490015447S","lat":51.522192,"lon":-0.113697,"name":"Clerkenwell Road / Rosebery Avenue","parentId":"490G00019770","stationId":"490G00019770","stopLetter":"CD","topMostParentId":"490G00019770"},{"icsId":"1007391","id":"490013476S2","lat":51.521028,"lon":-0.112881,"name":"Gray's Inn Road / Theobalds Road","parentId":"490G00007391","stationId":"490G00007391","stopLetter":"CT","topMostParentId":"490G00007391"},{"icsId":"1008165","id":"490008165C","lat":51.518858,"lon":-0.111572,"name":"High Holborn / Chancery Lane Station","parentId":"490G000594","stationId":"490G000594","stopLetter":"C","topMostParentId":"490G000594"},{"icsId":"1008275","id":"490008275J","lat":51.518,"lon":-0.109085,"name":"Holborn Circus / Fetter Lane","parentId":"490G00008275","stationId":"490G00008275","stopLetter":"J","topMostParentId":"490G00008275"},{"icsId":"1005027","id":"490005027E","lat":51.518289,"lon":-0.106392,"name":"Charterhouse Street","parentId":"490G000448","stationId":"490G000448","stopLetter":"M","topMostParentId":"490G000448"},{"icsId":"1012217","id":"490012217S","lat":51.518089,"lon":-0.105132,"name":"Snow Hill","parentId":"490G000747","stationId":"490G000747","stopLetter":"HT","topMostParentId":"490G000747"},{"icsId":"1012640","id":"490012640L","lat":51.514912,"lon":-0.104414,"name":"Fleet Street / City Thameslink","parentId":"490G00012640","stationId":"490G00012640","stopLetter":"L","topMostParentId":"490G00012640"},{"icsId":"1020083","id":"490000023K","lat":51.513288,"lon":-0.104092,"name":"Apothecary Street","parentId":"490G00020083","stationId":"490G00020083","stopLetter":"K","topMostParentId":"HUBBFR"},{"icsId":"1020084","id":"490000023T","lat":51.51035,"lon":-0.104243,"name":"Blackfriars Station  / North Entrance","parentId":"490G00020084","stationId":"490G00020084","stopLetter":"L","topMostParentId":"490G00020084"},{"icsId":"1013934","id":"490013934S","lat":51.50821,"lon":-0.104303,"name":"Blackfriars Station / South Entrance","parentId":"490G00013934","stationId":"490G00013934","stopLetter":"D","topMostParentId":"HUBBFR"},{"icsId":"1012526","id":"490012526SC","lat":51.505721,"lon":-0.104421,"name":"Stamford Street","parentId":"490G00012526","stationId":"490G00012526","stopLetter":"SC","topMostParentId":"490G00012526"},{"icsId":"1000215","id":"490013323SB","lat":51.503258,"lon":-0.104451,"name":"Southwark Station","parentId":"490G13323SA","stationId":"490G13323SA","stopLetter":"SB","topMostParentId":"940GZZLUSWK","zone":"1"},{"icsId":"1011082","id":"490011082S","lat":51.50235,"lon":-0.104474,"name":"Pocock Street","parentId":"490G00011082","stationId":"490G00011082","stopLetter":"W","topMostParentId":"490G00011082"},{"icsId":"1012693","id":"490015140S","lat":51.499413,"lon":-0.104682,"name":"St George's Circus","parentId":"490G00012693","stationId":"490G00012693","stopLetter":"Y","topMostParentId":"490G00012693"},{"icsId":"1009281","id":"490009281D","lat":51.496636,"lon":-0.102003,"name":"Elephant & Castle / London Road","parentId":"490G000642","stationId":"490G000642","stopLetter":"D","topMostParentId":"490G000642"},{"icsId":"1000073","id":"490000073R","lat":51.493256,"lon":-0.099305,"name":"Elephant & Castle Station","parentId":"490G00073G","stationId":"490G00073G","stopLetter":"R","topMostParentId":"HUBEPH","zone":"1+2"},{"icsId":"1008975","id":"490008975A","lat":51.490792,"lon":-0.097103,"name":"Larcom Street","parentId":"490G00008975","stationId":"490G00008975","stopLetter":"A","topMostParentId":"490G00008975"},{"icsId":"1006380","id":"490006380F","lat":51.487345,"lon":-0.095244,"name":"East Street","parentId":"490G00006380","stationId":"490G00006380","stopLetter":"F","topMostParentId":"490G00006380"},{"icsId":"1014501","id":"490014501J","lat":51.485606,"lon":-0.093934,"name":"Westmoreland Road","parentId":"490G00014501","stationId":"490G00014501","stopLetter":"J","topMostParentId":"490G00014501"},{"icsId":"1003138","id":"490003138N","lat":51.481422,"lon":-0.094353,"name":"Camberwell Road / Albany Road","parentId":"490G00003138","stationId":"490G00003138","stopLetter":"N","topMostParentId":"490G00003138"},{"icsId":"1004221","id":"490004221S","lat":51.479774,"lon":-0.094191,"name":"Bowyer Place","parentId":"490G00004221","stationId":"490G00004221","stopLetter":"N","topMostParentId":"490G00004221"},{"icsId":"1009784","id":"490009784A","lat":51.477134,"lon":-0.093884,"name":"Medlar Street","parentId":"490G00009784","stationId":"490G00009784","stopLetter":"A","topMostParentId":"490G00009784"},{"icsId":"1004687","id":"490004687Q","lat":51.473371,"lon":-0.093076,"name":"Denmark Hill / Camberwell Green","parentId":"490G00004687","stationId":"490G00004687","stopLetter":"Q","topMostParentId":"490G00004687"},{"icsId":"1014004","id":"490014004X","lat":51.471635,"lon":-0.093609,"name":"Valmar Road","parentId":"490G00014004","stationId":"490G00014004","stopLetter":"X","topMostParentId":"490G00014004"},{"icsId":"1004676","id":"490004676H6","lat":51.470011,"lon":-0.095462,"name":"Caldecot Road","parentId":"490G00004676","stationId":"490G00004676","stopLetter":"U","topMostParentId":"490G00004676"},{"icsId":"1009153","id":"490009153W","lat":51.468571,"lon":-0.098186,"name":"Lilford Road","parentId":"490G00009153","stationId":"490G00009153","stopLetter":"H","topMostParentId":"490G00009153"},{"icsId":"1001184","id":"490011090S","lat":51.46657,"lon":-0.100645,"name":"Loughborough Junction Station","parentId":"490G01184A","stationId":"490G01184A","stopLetter":"B","topMostParentId":"910GLBGHJN"},{"icsId":"1012036","id":"490012036W","lat":51.464298,"lon":-0.10418,"name":"Shakespeare Road","parentId":"490G00012036","stationId":"490G00012036","stopLetter":"K","topMostParentId":"490G00012036"},{"icsId":"1015389","id":"490015389W","lat":51.463322,"lon":-0.106696,"name":"Moorland Road","parentId":"490G00015389","stationId":"490G00015389","stopLetter":"N","topMostParentId":"490G00015389"},{"icsId":"1014794","id":"490014794W","lat":51.46421,"lon":-0.109884,"name":"Brixton Station Road","parentId":"490G00014794","stationId":"490G00014794","stopLetter":"R","topMostParentId":"490G00014794"},{"icsId":"1004361","id":"490004361K","lat":51.464881,"lon":-0.113557,"name":"Gresham Road / Brixton Police Station","parentId":"490G000426","stationId":"490G000426","stopLetter":"K","topMostParentId":"490G000426"},{"icsId":"1000031","id":"490000031P","lat":51.461796,"lon":-0.115253,"name":"Brixton Station","parentId":"490G00031N","stationId":"490G00031N","stopLetter":"P","topMostParentId":"HUBBRX","zone":"2"},{"icsId":"1011793","id":"490011793S","lat":51.458793,"lon":-0.116931,"name":"Rush Common","parentId":"490G00011793","stationId":"490G00011793","stopLetter":"BA","topMostParentId":"490G00011793"},{"icsId":"1004362","id":"490004362S1","lat":51.456342,"lon":-0.118328,"name":"Brixton Water Lane","parentId":"490G00004362","stationId":"490G00004362","stopLetter":"BB","topMostParentId":"490G00004362"},{"icsId":"1004101","id":"490004101S","lat":51.454058,"lon":-0.120005,"name":"Blenheim Gardens","parentId":"490G00004101","stationId":"490G00004101","stopLetter":"BC","topMostParentId":"490G00004101"},{"icsId":"1008544","id":"490008544S","lat":51.452216,"lon":-0.121203,"name":"Jebb Avenue / Brixton Prison","parentId":"490G00008544","stationId":"490G00008544","stopLetter":"BD","topMostParentId":"490G00008544"},{"icsId":"1015218","id":"490015218S","lat":51.44882,"lon":-0.12366,"name":"New Park Road","parentId":"490G00015218","stationId":"490G00015218","stopLetter":"BE","topMostParentId":"490G00015218"},{"icsId":"1008310","id":"490008310S","lat":51.447781,"lon":-0.123947,"name":"Holmewood Road","parentId":"490G00008310","stationId":"490G00008310","stopLetter":"BF","topMostParentId":"490G00008310"},{"icsId":"1012931","id":"490012931W","lat":51.445958,"lon":-0.126871,"name":"Streatham Place","parentId":"490G00012931","stationId":"490G00012931","stopLetter":"BP","topMostParentId":"490G00012931"},{"icsId":"1010243","id":"490010243W","lat":51.44716,"lon":-0.129542,"name":"Atkins Road / New Park Road","parentId":"490G00010243","stationId":"490G00010243","stopLetter":"H","topMostParentId":"490G00010243"}]}]}