{"direction":"outbound","lineId":"45","lineName":"45","mode":"bus","stopPointSequences":[{"stopPoint":[{"icsId":"1009297","id":"490000073H","lat":51.496275,"lon":-0.099727,"name":"Elephant & Castle / Newington Causeway","parentId":"490G000644","stationId":"490G000644","stopLetter":"H","topMostParentId":"490G000644"},{"icsId":"1000073","id":"490000073R","lat":51.493256,"lon":-0.099305,"name":"Elephant & Castle Station","parentId":"490G00073G","stationId":"490G00073G","stopLetter":"R","topMostParentId":"HUBEPH","zone":"1+2"},{"icsId":"1008975","id":"490008975A","lat":51.490792,"lon":-0.097103,"name":"Larcom Street","parentId":"490G00008975","stationId":"490G00008975","stopLetter":"A","topMostParentId":"490G00008975"},{"icsId":"1006380","id":"490006380F","lat":51.487345,"lon":-0.095244,"name":"East Street","parentId":"490G00006380","stationId":"490G00006380","stopLetter":"F","topMostParentId":"490G00006380"},{"icsId":"1014501","id":"490014501J","lat":51.485606,"lon":-0.093934,"name":"Westmoreland Road","parentId":"490G00014501","stationId":"490G00014501","stopLetter":"J","topMostParentId":"490G00014501"},{"icsId":"1003138","id":"490003138N","lat":51.481422,"lon":-0.094353,"name":"Camberwell Road / Albany Road","parentId":"490G00003138","stationId":"490G00003138","stopLetter":"N","topMostParentId":"490G00003138"},{"icsId":"1004221","id":"490004221S","lat":51.479774,"lon":-0.094191,"name":"Bowyer Place","parentId":"490G00004221","stationId":"490G00004221","stopLetter":"N","topMostParentId":"490G00004221"},{"icsId":"1009784","id":"490009784A","lat":51.477134,"lon":-0.093884,"name":"Medlar Street","parentId":"490G00009784","stationId":"490G00009784","stopLetter":"A","topMostParentId":"490G00009784"},{"icsId":"1004687","id":"490004687Q","lat":51.473371,"lon":-0.093076,"name":"Denmark Hill / Camberwell Green","parentId":"490G00004687","stationId":"490G00004687","stopLetter":"Q","topMostParentId":"490G00004687"},{"icsId":"1014004","id":"490014004X","lat":51.471635,"lon":-0.093609,"name":"Valmar Road","parentId":"490G00014004","stationId":"490G00014004","stopLetter":"X","topMostParentId":"490G00014004"},{"icsId":"1004676","id":"490004676H6","lat":51.470011,"lon":-0.095462,"name":"Caldecot Road","parentId":"490G00004676","stationId":"490G00004676","stopLetter":"U","topMostParentId":"490G00004676"},{"icsId":"1009153","id":"490009153W","lat":51.468571,"lon":-0.098186,"name":"Lilford Road","parentId":"490G00009153","stationId":"490G00009153","stopLetter":"H","topMostParentId":"490G00009153"},{"icsId":"1001184","id":"490011090S","lat":51.46657,"lon":-0.100645,"name":"Loughborough Junction Station","parentId":"490G01184A","stationId":"490G01184A","stopLetter":"B","topMostParentId":"910GLBGHJN"},{"icsId":"1012036","id":"490012036W","lat":51.464298,"lon":-0.10418,"name":"Shakespeare Road","parentId":"490G00012036","stationId":"490G00012036","stopLetter":"K","topMostParentId":"490G00012036"},{"icsId":"1015389","id":"490015389W","lat":51.463322,"lon":-0.106696,"name":"Moorland Road","parentId":"490G00015389","stationId":"490G00015389","stopLetter":"N","topMostParentId":"490G00015389"},{"icsId":"1014794","id":"490014794W","lat":51.46421,"lon":-0.109884,"name":"Brixton Station Road","parentId":"490G00014794","stationId":"490G00014794","stopLetter":"R","topMostParentId":"490G00014794"},{"icsId":"1004361","id":"490004361K","lat":51.464881,"lon":-0.113557,"name":"Gresham Road / Brixton Police Station","parentId":"490G000426","stationId":"490G000426","stopLetter":"K","topMostParentId":"490G000426"},{"icsId":"1000031","id":"490000031P","lat":51.461796,"lon":-0.115253,"name":"Brixton Station","parentId":"490G00031N","stationId":"490G00031N","stopLetter":"P","topMostParentId":"HUBBRX","zone":"2"},{"icsId":"1011793","id":"490011793S","lat":51.458793,"lon":-0.116931,"name":"Rush Common","parentId":"490G00011793","stationId":"490G00011793","stopLetter":"BA","topMostParentId":"490G00011793"},{"icsId":"1004362","id":"490004362S1","lat":51.456342,"lon":-0.118328,"name":"Brixton Water Lane","parentId":"490G00004362","stationId":"490G00004362","stopLetter":"BB","topMostParentId":"490G00004362"},{"icsId":"1004101","id":"490004101S","lat":51.454058,"lon":-0.120005,"name":"Blenheim Gardens","parentId":"490G00004101","stationId":"490G00004101","stopLetter":"BC","topMostParentId":"490G00004101"},{"icsId":"1008544","id":"490008544S","lat":51.452216,"lon":-0.121203,"name":"Jebb Avenue / Brixton Prison","parentId":"490G00008544","stationId":"490G00008544","stopLetter":"BD","topMostParentId":"490G00008544"},{"icsId":"1015218","id":"490015218S","lat":51.44882,"lon":-0.12366,"name":"New Park Road","parentId":"490G00015218","stationId":"490G00015218","stopLetter":"BE","topMostParentId":"490G00015218"},{"icsId":"1008310","id":"490008310S","lat":51.447781,"lon":-0.123947,"name":"Holmewood Road","parentId":"490G00008310","stationId":"490G00008310","stopLetter":"BF","topMostParentId":"490G00008310"},{"icsId":"1012931","id":"490012931W","lat":51.445958,"lon":-0.126871,"name":"Streatham Place","parentId":"490G00012931","stationId":"490G00012931","stopLetter":"BP","topMostParentId":"490G00012931"},{"icsId":"1010243","id":"490010243W","lat":51.44716,"lon":-0.129542,"name":"Atkins Road / New Park Road","parentId":"490G00010243","stationId":"490G00010243","stopLetter":"H","topMostParentId":"490G00010243"}]}]}