{"direction":"outbound","lineId":"450","lineName":"450","mode":"bus","stopPointSequences":[{"stopPoint":[{"icsId":"1014420","id":"490014420V","lat":51.379159,"lon":-0.101118,"name":"West Croydon Bus Station","parentId":"490G000824","stationId":"490G000824","stopLetter":"B1","topMostParentId":"HUBWCY"},{"icsId":"1003793","id":"490003793N","lat":51.381371,"lon":-0.099388,"name":"Bedford Hall","parentId":"490G00003793","stationId":"490G00003793","stopLetter":"K","topMostParentId":"490G00003793"},{"icsId":"1008271","id":"490008271E","lat":51.383676,"lon":-0.099609,"name":"Hogarth Crescent","parentId":"490G00008271","stationId":"490G00008271","stopLetter":"L","topMostParentId":"490G00008271"},{"icsId":"1013376","id":"490013376N","lat":51.386354,"lon":-0.097242,"name":"Devonshire Road","parentId":"490G00013376","stationId":"490G00013376","stopLetter":"J","topMostParentId":"490G00013376"},{"icsId":"1014771","id":"490014771W","lat":51.385963,"lon":-0.099213,"name":"Windmill Road","parentId":"490G00014771","stationId":"490G00014771","stopLetter":"->W","topMostParentId":"490G00014771"},{"icsId":"1014760","id":"490014760N","lat":51.386322,"lon":-0.101382,"name":"Windmill Grove","parentId":"490G00014760","stationId":"490G00014760","stopLetter":"->N","topMostParentId":"490G00014760"},{"icsId":"1003906","id":"490003906N","lat":51.389474,"lon":-0.105549,"name":"Kimberley Road","parentId":"490G00003906","stationId":"490G00003906","stopLetter":"W","topMostParentId":"490G00003906"},{"icsId":"1006712","id":"490006997N","lat":51.390474,"lon":-0.106198,"name":"Fairgreen Road","parentId":"490G00006712","stationId":"490G00006712","stopLetter":"X","topMostParentId":"490G00006712"},{"icsId":"1003938","id":"490003938N","lat":51.393821,"lon":-0.104119,"name":"Bert Road","parentId":"490G00003938","stationId":"490G00003938","topMostParentId":"490G00003938"},{"icsId":"1015148","id":"490015148N","lat":51.394892,"lon":-0.104707,"name":"Torridge Road","parentId":"490G00015148","stationId":"490G00015148","stopLetter":"W","topMostParentId":"490G00015148"},{"icsId":"1019036","id":"490003905E","lat":51.396903,"lon":-0.105056,"name":"Quadrant Road","parentId":"490G00019036","stationId":"490G00019036","stopLetter":"Z","topMostParentId":"490G00019036"},{"icsId":"1004471","id":"490004471B","lat":51.398059,"lon":-0.102018,"name":"Brook Road","parentId":"490G00004471","stationId":"490G00004471","stopLetter":"B","topMostParentId":"490G00004471"},{"icsId":"1001294","id":"490001294D","lat":51.398659,"lon":-0.099635,"name":"Thornton Heath Station","parentId":"490G01294C","stationId":"490G01294C","stopLetter":"D","topMostParentId":"910GTHTH"},{"icsId":"1020368","id":"490010744N","lat":51.401662,"lon":-0.100201,"name":"Parchmore Methodist Church","parentId":"490G00020368","stationId":"490G00020368","stopLetter":"->N","topMostParentId":"490G00020368"},{"icsId":"1003958","id":"490003958N","lat":51.403691,"lon":-0.100519,"name":"Beulah Road","parentId":"490G00003958","stationId":"490G00003958","topMostParentId":"490G00003958"},{"icsId":"1019051","id":"490003956N","lat":51.406336,"lon":-0.099504,"name":"Beulah Family Church","parentId":"490G00019051","stationId":"490G00019051","topMostParentId":"490G00019051"},{"icsId":"1010434","id":"490010434N","lat":51.407769,"lon":-0.100825,"name":"Osborne Road / Northwood Road","parentId":"490G00010434","stationId":"490G00010434","topMostParentId":"490G00010434"},{"icsId":"1012400","id":"490012400N","lat":51.408317,"lon":-0.09912,"name":"Springfield Road","parentId":"490G00012400","stationId":"490G00012400","topMostParentId":"490G00012400"},{"icsId":"1008408","id":"490008408N","lat":51.409637,"lon":-0.096203,"name":"Howberry Road","parentId":"490G00008408","stationId":"490G00008408","topMostParentId":"490G00008408"},{"icsId":"1005934","id":"490005934N2","lat":51.410765,"lon":-0.09423,"name":"Dale Park Road","parentId":"490G00005934","stationId":"490G00005934","stopLetter":"->N","topMostParentId":"490G00005934"},{"icsId":"1003957","id":"490003957S2","lat":51.413165,"lon":-0.092519,"name":"Beulah Hill","parentId":"490G00003957","stationId":"490G00003957","stopLetter":"EG","topMostParentId":"490G00003957"},{"icsId":"1006488","id":"490006488N","lat":51.414196,"lon":-0.091786,"name":"Ellery Road","parentId":"490G00006488","stationId":"490G00006488","stopLetter":"EH","topMostParentId":"490G00006488"},{"icsId":"1007829","id":"490007829N","lat":51.416301,"lon":-0.089023,"name":"Harold Road / Chevening Road","parentId":"490G00007829","stationId":"490G00007829","topMostParentId":"490G00007829"},{"icsId":"1011622","id":"490011622W","lat":51.417795,"lon":-0.090802,"name":"Rockmount Primary School","parentId":"490G00011622","stationId":"490G00011622","stopLetter":"->W","topMostParentId":"490G00011622"},{"icsId":"1008081","id":"490008081W","lat":51.41878,"lon":-0.094385,"name":"Chevening Road / Hermitage Road","parentId":"490G00008081","stationId":"490G00008081","stopLetter":"->W","topMostParentId":"490G00008081"},{"icsId":"1005876","id":"490005876N","lat":51.420636,"lon":-0.093517,"name":"Crystal Terrace","parentId":"490G00005876","stationId":"490G00005876","stopLetter":"F","topMostParentId":"490G00005876"},{"icsId":"1015338","id":"490015338S","lat":51.421631,"lon":-0.091088,"name":"Hermitage Road","parentId":"490G00015338","stationId":"490G00015338","stopLetter":"D","topMostParentId":"490G00015338"},{"icsId":"1015346","id":"490015346S","lat":51.419806,"lon":-0.087813,"name":"Rockmount Road","parentId":"490G00015346","stationId":"490G00015346","stopLetter":"->S","topMostParentId":"490G00015346"},{"icsId":"1014510","id":"490014510K","lat":51.419733,"lon":-0.080078,"name":"Westow Hill","parentId":"490G00014510","stationId":"490G00014510","stopLetter":"K","topMostParentId":"490G00014510"},{"icsId":"1005869","id":"490005869B","lat":51.421903,"lon":-0.07747,"name":"Crystal Palace Parade","parentId":"490G00005869","stationId":"490G00005869","stopLetter":"B","topMostParentId":"490G00005869"},{"icsId":"1005494","id":"490005494N","lat":51.423551,"lon":-0.076552,"name":"Crystal Palace Parade / College Road","parentId":"490G00005494","stationId":"490G00005494","stopLetter":"W","topMostParentId":"490G00005494"},{"icsId":"1015289","id":"490015289W","lat":51.426172,"lon":-0.078959,"name":"Dulwich Wood Park / College Road","parentId":"490G00015289","stationId":"490G00015289","stopLetter":"A","topMostParentId":"490G00015289"},{"icsId":"1008839","id":"490008839W","lat":51.427308,"lon":-0.082436,"name":"Dulwich Wood Park / Kingswood Drive","parentId":"490G00008839","stationId":"490G00008839","stopLetter":"B","topMostParentId":"490G00008839"},{"icsId":"1008840","id":"490008839E","lat":51.427876,"lon":-0.081995,"name":"Bowen Drive","parentId":"490G00008840","stationId":"490G00008840","stopLetter":"C","topMostParentId":"490G00008840"},{"icsId":"1008841","id":"490008841E","lat":51.429673,"lon":-0.079705,"name":"Kingswood Drive / College Road","parentId":"490G00008841","stationId":"490G00008841","stopLetter":"D","topMostParentId":"490G00008841"},{"icsId":"1006965","id":"490006963S2","lat":51.426433,"lon":-0.074604,"name":"Fountain Drive","parentId":"490G00006965","stationId":"490G00006965","stopLetter":"E","topMostParentId":"490G00006965"},{"icsId":"1005872","id":"490005872E","lat":51.426351,"lon":-0.072349,"name":"Crystal Palace Park Road","parentId":"490G00005872","stationId":"490G00005872","stopLetter":"U","topMostParentId":"490G00005872"},{"icsId":"1004998","id":"490004999E","lat":51.426613,"lon":-0.066958,"name":"Charleville Circus","parentId":"490G00004998","stationId":"490G00004998","stopLetter":"V","topMostParentId":"490G00004998"},{"icsId":"1013128","id":"490013128E","lat":51.428106,"lon":-0.061544,"name":"Sydenham High School","parentId":"490G00013128","stationId":"490G00013128","stopLetter":"W","topMostParentId":"490G00013128"},{"icsId":"1009026","id":"490009026C","lat":51.427579,"lon":-0.057395,"name":"Sydenham Station / Westwood Hill","parentId":"490G000629","stationId":"490G000629","stopLetter":"D","topMostParentId":"490G000629"},{"icsId":"1010226","id":"490010226G","lat":51.426228,"lon":-0.051842,"name":"Newlands Park","parentId":"490G000676","stationId":"490G000676","stopLetter":"G","topMostParentId":"490G000676"},{"icsId":"1009750","id":"490009750N","lat":51.425751,"lon":-0.047518,"name":"Sydenham Road / Mayow Road","parentId":"490G00009750","stationId":"490G00009750","stopLetter":"N","topMostParentId":"490G00009750"},{"icsId":"1008147","id":"490008147E","lat":51.426628,"lon":-0.04187,"name":"Highclere Street","parentId":"490G00008147","stationId":"490G00008147","stopLetter":"LU","topMostParentId":"490G00008147"},{"icsId":"1004974","id":"490004974E","lat":51.428428,"lon":-0.038197,"name":"Kirtley Road","parentId":"490G00004974","stationId":"490G00004974","stopLetter":"LV","topMostParentId":"490G00004974"},{"icsId":"1003848","id":"490003848N1","lat":51.429496,"lon":-0.037504,"name":"Bell Green / Southend Lane","parentId":"490G00003848","stationId":"490G00003848","stopLetter":"LZ","topMostParentId":"490G00003848"},{"icsId":"1003849","id":"490003849E1","lat":51.430746,"lon":-0.034847,"name":"Bell Green / Sainsbury's","parentId":"490G00003849","stationId":"490G00003849","stopLetter":"AP","topMostParentId":"490G00003849"}]}]}