{"direction":"outbound","lineId":"455","lineName":"455","mode":"bus","stopPointSequences":[{"stopPoint":[{"icsId":"1004761","id":"490004761N","lat":51.315527,"lon":-0.115098,"name":"Canons Hill","parentId":"490G00004761","stationId":"490G00004761","stopLetter":"->N","topMostParentId":"490G00004761"},{"icsId":"1014580","id":"490014580N","lat":51.318781,"lon":-0.116112,"name":"Whitefield Avenue","parentId":"490G00014580","stationId":"490G00014580","stopLetter":"->N","topMostParentId":"490G00014580"},{"icsId":"1009250","id":"490009250N","lat":51.322796,"lon":-0.118589,"name":"Lodge Hill","parentId":"490G00009250","stationId":"490G00009250","stopLetter":"->N","topMostParentId":"490G00009250"},{"icsId":"1004582","id":"490004582N","lat":51.325518,"lon":-0.120673,"name":"Burcott Road","parentId":"490G00004582","stationId":"490G00004582","stopLetter":"->N","topMostParentId":"490G00004582"},{"icsId":"1016448","id":"490016448S","lat":51.328866,"lon":-0.122517,"name":"Reedham Drive","parentId":"490G00016448","stationId":"490G00016448","stopLetter":"RT","topMostParentId":"490G00016448"},{"icsId":"1001239","id":"490001239A","lat":51.330821,"lon":-0.124447,"name":"Reedham Station","parentId":"490G01239A","stationId":"490G01239A","stopLetter":"RV","topMostParentId":"910GREEDHMS"},{"icsId":"1007560","id":"490007560N","lat":51.333156,"lon":-0.123103,"name":"Grovelands Road","parentId":"490G00007560","stationId":"490G00007560","stopLetter":"RD","topMostParentId":"490G00007560"},{"icsId":"1011274","id":"490011274W","lat":51.337089,"lon":-0.118822,"name":"Purley Tesco","parentId":"490G000716","stationId":"490G000716","stopLetter":"W","topMostParentId":"490G000716"},{"icsId":"1011277","id":"490011270M","lat":51.337837,"lon":-0.116107,"name":"Purley Station  / Purley High Street","parentId":"490G00011277","stationId":"490G00011277","stopLetter":"M","topMostParentId":"490G00011277"},{"icsId":"1011270","id":"490011274P","lat":51.337357,"lon":-0.116485,"name":"Purley High Street / Purley Station","parentId":"490G000715","stationId":"490G000715","stopLetter":"P","topMostParentId":"490G000715"},{"icsId":"1011272","id":"490011272Y","lat":51.338682,"lon":-0.118355,"name":"Purley Library","parentId":"490G00011272","stationId":"490G00011272","stopLetter":"Y","topMostParentId":"490G00011272"},{"icsId":"1011271","id":"490011271E","lat":51.340535,"lon":-0.116139,"name":"Purley Hospital","parentId":"490G00011271","stationId":"490G00011271","stopLetter":"PA","topMostParentId":"490G00011271"},{"icsId":"1014983","id":"490014983N","lat":51.343885,"lon":-0.111967,"name":"Wyvern Road","parentId":"490G00014983","stationId":"490G00014983","stopLetter":"PB","topMostParentId":"490G00014983"},{"icsId":"1009479","id":"490009479N","lat":51.347466,"lon":-0.110398,"name":"Lynscott Way","parentId":"490G00009479","stationId":"490G00009479","topMostParentId":"490G00009479"},{"icsId":"1004062","id":"490004062N","lat":51.350188,"lon":-0.107443,"name":"Blackford Close","parentId":"490G00004062","stationId":"490G00004062","topMostParentId":"490G00004062"},{"icsId":"1011517","id":"490011517N","lat":51.353459,"lon":-0.106202,"name":"Regina Coeli School","parentId":"490G00011517","stationId":"490G00011517","stopLetter":"->N","topMostParentId":"490G00011517"},{"icsId":"1012576","id":"490012625N","lat":51.355681,"lon":-0.105651,"name":"St Giles School","parentId":"490G00012576","stationId":"490G00012576","stopLetter":"GV","topMostParentId":"490G00012576"},{"icsId":"1007669","id":"490007669N","lat":51.358203,"lon":-0.106495,"name":"Haling Park Gardens","parentId":"490G00007669","stationId":"490G00007669","stopLetter":"GW","topMostParentId":"490G00007669"},{"icsId":"1019114","id":"490004239N","lat":51.361608,"lon":-0.106297,"name":"Whitgift Avenue","parentId":"490G00019114","stationId":"490G00019114","topMostParentId":"490G00019114"},{"icsId":"1005853","id":"490005853E","lat":51.363,"lon":-0.103381,"name":"Croydon Bowling Club","parentId":"490G00005853","stationId":"490G00005853","stopLetter":"->E","topMostParentId":"490G00005853"},{"icsId":"1013101","id":"490013100K","lat":51.363518,"lon":-0.09984,"name":"Warham Road / Brighton Road","parentId":"490G00013101","stationId":"490G00013101","stopLetter":"K","topMostParentId":"490G00013101"},{"icsId":"1018698","id":"490001258F","lat":51.363109,"lon":-0.097329,"name":"Ruskin Parade / South Croydon Station","parentId":"490G00018698","stationId":"490G00018698","stopLetter":"F","topMostParentId":"490G00018698"},{"icsId":"1001258","id":"490001258N","lat":51.364117,"lon":-0.095721,"name":"South Croydon Station","parentId":"490G01258N","stationId":"490G01258N","stopLetter":"C","topMostParentId":"910GSCROYDN"},{"icsId":"1015290","id":"490015290N","lat":51.367825,"lon":-0.096444,"name":"Coombe Road","parentId":"490G00015290","stationId":"490G00015290","stopLetter":"N","topMostParentId":"490G00015290"},{"icsId":"1005855","id":"490005855C17","lat":51.371243,"lon":-0.100397,"name":"Croydon Flyover","parentId":"490G00005855","stationId":"490G00005855","stopLetter":"KU","topMostParentId":"490G00005855"},{"icsId":"1005858","id":"490005858C5","lat":51.372467,"lon":-0.099887,"name":"Croydon Library","parentId":"490G00005858","stationId":"490G00005858","stopLetter":"KK","topMostParentId":"490G00005858"},{"icsId":"1010839","id":"490010839C1","lat":51.373557,"lon":-0.097772,"name":"Park Street","parentId":"490G00010839","stationId":"490G00010839","stopLetter":"KE","topMostParentId":"490G00010839"},{"icsId":"1014614","id":"490014614E14","lat":51.376465,"lon":-0.098528,"name":"Whitgift Centre","parentId":"490G00014614","stationId":"490G00014614","stopLetter":"WM","topMostParentId":"490G00014614"},{"icsId":"1014420","id":"490014420X","lat":51.378915,"lon":-0.101559,"name":"West Croydon Bus Station","parentId":"490G000824","stationId":"490G000824","stopLetter":"B3","topMostParentId":"HUBWCY"},{"icsId":"1011806","id":"490011806W11","lat":51.376852,"lon":-0.103039,"name":"Ruskin Road","parentId":"490G00011806","stationId":"490G00011806","stopLetter":"CJ","topMostParentId":"490G00011806"},{"icsId":"1002023","id":"490002023W13","lat":51.374271,"lon":-0.104654,"name":"Church Street Tram Stop","parentId":"490G02023W13","stationId":"490G02023W13","stopLetter":"CL","topMostParentId":"940GZZCRCHR"},{"icsId":"1009410","id":"490009410W","lat":51.374548,"lon":-0.107875,"name":"Rectory Grove","parentId":"490G00009410","stationId":"490G00009410","topMostParentId":"490G00009410"},{"icsId":"1014111","id":"490014111S","lat":51.372253,"lon":-0.110025,"name":"Waddon New Road / Waddon Road","parentId":"490G00014111","stationId":"490G00014111","stopLetter":"D","topMostParentId":"490G00014111"},{"icsId":"1014043","id":"490014043A","lat":51.371608,"lon":-0.113543,"name":"Vicarage Rd / Wandle Park Tram Stop","parentId":"490G000811","stationId":"490G000811","stopLetter":"A","topMostParentId":"490G000811"},{"icsId":"1014110","id":"490014110N","lat":51.372279,"lon":-0.117782,"name":"Purley Way / Waddon Road","parentId":"490G00014110","stationId":"490G00014110","stopLetter":"NZ","topMostParentId":"490G00014110"},{"icsId":"1005522","id":"490005522N","lat":51.375202,"lon":-0.119487,"name":"Commerce Way","parentId":"490G00005522","stationId":"490G00005522","stopLetter":"H","topMostParentId":"490G00005522"},{"icsId":"1003773","id":"490003773N","lat":51.377068,"lon":-0.120302,"name":"Purley Way / Beddington Farm Road","parentId":"490G000406","stationId":"490G000406","stopLetter":"J","topMostParentId":"490G000406"},{"icsId":"1008112","id":"490008112W","lat":51.382213,"lon":-0.125422,"name":"Franklin Way / Valley Park","parentId":"490G000593","stationId":"490G000593","stopLetter":"M","topMostParentId":"490G000593"},{"icsId":"1018961","id":"490013518N","lat":51.385137,"lon":-0.128364,"name":"Beddington Farm Road","parentId":"490G000928","stationId":"490G000928","stopLetter":"B","topMostParentId":"490G000928"},{"icsId":"1002075","id":"490013518W1","lat":51.386102,"lon":-0.131328,"name":"Therapia Lane Tram Stop","parentId":"490G02075S","stationId":"490G02075S","stopLetter":"C","topMostParentId":"940GZZCRTPA"},{"icsId":"1018886","id":"490018886W","lat":51.387028,"lon":-0.134726,"name":"Therapia Lane Tram Depot","parentId":"490G00018886","stationId":"490G00018886","topMostParentId":"490G00018886"},{"icsId":"1018885","id":"490018885W","lat":51.386327,"lon":-0.139253,"name":"Coomber Way / Beddington Lane","parentId":"490G00018885","stationId":"490G00018885","stopLetter":"J","topMostParentId":"490G00018885"},{"icsId":"1005577","id":"490005577S","lat":51.38458,"lon":-0.138519,"name":"Therapia Lane","parentId":"490G00005577","stationId":"490G00005577","stopLetter":"K","topMostParentId":"490G00005577"},{"icsId":"1003770","id":"490003770S","lat":51.38128,"lon":-0.134629,"name":"Beddington Cross","parentId":"490G00003770","stationId":"490G00003770","stopLetter":"->S","topMostParentId":"490G00003770"},{"icsId":"1003767","id":"490003767N","lat":51.380283,"lon":-0.132959,"name":"Beddington Lane / Sewage Treatment Works","parentId":"490G00003767","stationId":"490G00003767","stopLetter":"->S","topMostParentId":"490G00003767"},{"icsId":"1003768","id":"490003768W","lat":51.375943,"lon":-0.130937,"name":"Beddington / Asda","parentId":"490G00003768","stationId":"490G00003768","stopLetter":"->W","topMostParentId":"490G00003768"},{"icsId":"1003777","id":"490003777M","lat":51.373995,"lon":-0.131692,"name":"Beddington Village","parentId":"490G00003777","stationId":"490G00003777","stopLetter":"M","topMostParentId":"490G00003777"},{"icsId":"1019018","id":"490003777S","lat":51.372111,"lon":-0.131453,"name":"Richmond Road","parentId":"490G00019018","stationId":"490G00019018","stopLetter":"G","topMostParentId":"490G00019018"},{"icsId":"1005861","id":"490005861S2","lat":51.369739,"lon":-0.133245,"name":"Hilliers Lane","parentId":"490G00005861","stationId":"490G00005861","stopLetter":"H","topMostParentId":"490G00005861"},{"icsId":"1003576","id":"490003769S","lat":51.367208,"lon":-0.131911,"name":"Bandon Hill Cemetery","parentId":"490G00003576","stationId":"490G00003576","stopLetter":"J","topMostParentId":"490G00003576"},{"icsId":"1007112","id":"490007112S","lat":51.361867,"lon":-0.131338,"name":"Garden Close","parentId":"490G00007112","stationId":"490G00007112","stopLetter":"M","topMostParentId":"490G00007112"},{"icsId":"1009186","id":"490009186S","lat":51.359134,"lon":-0.12918,"name":"Wilson's School","parentId":"490G00009186","stationId":"490G00009186","stopLetter":"N","topMostParentId":"490G00009186"},{"icsId":"1012665","id":"490012665S","lat":51.357108,"lon":-0.128444,"name":"St Elphege's School","parentId":"490G00012665","stationId":"490G00012665","stopLetter":"P","topMostParentId":"490G00012665"},{"icsId":"1008775","id":"490008775S","lat":51.35401,"lon":-0.129245,"name":"Spitfire Road","parentId":"490G00008775","stationId":"490G00008775","stopLetter":"Q","topMostParentId":"490G00008775"},{"icsId":"1011729","id":"490011729W","lat":51.352736,"lon":-0.132284,"name":"Roundshaw / Phoenix Centre","parentId":"490G00011729","stationId":"490G00011729","stopLetter":"R","topMostParentId":"490G00011729"},{"icsId":"1013472","id":"490013472W","lat":51.352725,"lon":-0.137225,"name":"The Newlands","parentId":"490G00013472","stationId":"490G00013472","stopLetter":"S","topMostParentId":"490G00013472"},{"icsId":"1011928","id":"490011923N","lat":51.357233,"lon":-0.138536,"name":"Sandy Lane South","parentId":"490G00011928","stationId":"490G00011928","stopLetter":"T","topMostParentId":"490G00011928"},{"icsId":"1011925","id":"490011925W","lat":51.359456,"lon":-0.138633,"name":"Stafford Road / Sandy Lane South","parentId":"490G00011925","stationId":"490G00011925","stopLetter":"U","topMostParentId":"490G00011925"},{"icsId":"1009932","id":"490009932W","lat":51.358798,"lon":-0.142523,"name":"Milton Road","parentId":"490G00009932","stationId":"490G00009932","stopLetter":"->W","topMostParentId":"490G00009932"},{"icsId":"1006478","id":"490006478W","lat":51.358262,"lon":-0.145604,"name":"Elgin Road","parentId":"490G00006478","stationId":"490G00006478","stopLetter":"->W","topMostParentId":"490G00006478"},{"icsId":"1014834","id":"490014834N","lat":51.357565,"lon":-0.148103,"name":"Stafford Road / Woodcote Road","parentId":"490G00014834","stationId":"490G00014834","stopLetter":"N","topMostParentId":"490G00014834"},{"icsId":"1003775","id":"490003775K","lat":51.358958,"lon":-0.149799,"name":"Wallington Town Centre","parentId":"490G000407","stationId":"490G000407","stopLetter":"K","topMostParentId":"490G000407"},{"icsId":"1001306","id":"490001306C","lat":51.360655,"lon":-0.150736,"name":"Wallington Station","parentId":"490G01306B","stationId":"490G01306B","stopLetter":"C","topMostParentId":"910GWALNGTN"}]}]}