{"direction":"outbound","lineId":"462","lineName":"462","mode":"bus","stopPointSequences":[{"stopPoint":[{"icsId":"1019654","id":"1500TFL021","lat":51.605552,"lon":0.089684,"name":"Limes Farm / Copperfield","topMostParentId":"1500TFL021"},{"icsId":"1012973","id":"1500IM382","lat":51.610973,"lon":0.082697,"name":"St Winifred's Church","parentId":"150G00000025","stationId":"150G00000025","topMostParentId":"150G00000025"},{"icsId":"1009925","id":"150042025003","lat":51.612122,"lon":0.087343,"name":"Millwell Crescent","parentId":"150G00000949","stationId":"150G00000949","topMostParentId":"150G00000949"},{"icsId":"1000320","id":"1500420250Y6","lat":51.613421,"lon":0.091678,"name":"Grange Hill Station","parentId":"150G00003280","stationId":"150G00003280","stopLetter":"A","topMostParentId":"940GZZLUGGH"},{"icsId":"1009578","id":"490009578C","lat":51.613912,"lon":0.094387,"name":"Manor Road","parentId":"490G00009578","stationId":"490G00009578","stopLetter":"C","topMostParentId":"490G00009578"},{"icsId":"1004385","id":"490004385E","lat":51.612419,"lon":0.095445,"name":"Brocket Way","parentId":"490G00004385","stationId":"490G00004385","stopLetter":"A","topMostParentId":"490G00004385"},{"icsId":"1013253","id":"490013253E","lat":51.610878,"lon":0.096601,"name":"Tine Road","parentId":"490G00013253","stationId":"490G00013253","stopLetter":"B","topMostParentId":"490G00013253"},{"icsId":"1009542","id":"490009542E","lat":51.608828,"lon":0.101129,"name":"Manford Primary School","parentId":"490G00009542","stationId":"490G00009542","stopLetter":"C","topMostParentId":"490G00009542"},{"icsId":"1006730","id":"490006730E","lat":51.608289,"lon":0.104122,"name":"Hainault Health Centre","parentId":"490G00006730","stationId":"490G00006730","stopLetter":"D","topMostParentId":"490G00006730"},{"icsId":"1019878","id":"490006809E1","lat":51.608401,"lon":0.108894,"name":"The Lowe","parentId":"490G00019878","stationId":"490G00019878","stopLetter":"Z","topMostParentId":"490G00019878"},{"icsId":"1000383","id":"490000383Z","lat":51.605191,"lon":0.113828,"name":"Elmbridge Road","parentId":"490G000034","stationId":"490G000034","stopLetter":"->S","topMostParentId":"490G000034"},{"icsId":"1000382","id":"490000382Z","lat":51.598711,"lon":0.103116,"name":"Fairlop Outdoor Activity Centre","parentId":"490G000033","stationId":"490G000033","stopLetter":"->W","topMostParentId":"490G000033"},{"icsId":"1000381","id":"490000381Y","lat":51.596591,"lon":0.095467,"name":"Fairlop Waters","parentId":"490G000032","stationId":"490G000032","stopLetter":"->W","topMostParentId":"490G000032"},{"icsId":"1000079","id":"490000079W","lat":51.595306,"lon":0.090874,"name":"Fairlop","parentId":"490G00079E","stationId":"490G00079E","stopLetter":"S","topMostParentId":"940GZZLUFLP","zone":"4"},{"icsId":"1000380","id":"490000380Z","lat":51.594335,"lon":0.08735,"name":"Kantor Campus","parentId":"490G000031","stationId":"490G000031","stopLetter":"T","topMostParentId":"490G000031"},{"icsId":"1007059","id":"490007059D","lat":51.592565,"lon":0.084179,"name":"Fullwell Cross","parentId":"490G00007059","stationId":"490G00007059","stopLetter":"D","topMostParentId":"490G00007059"},{"icsId":"1014316","id":"490014316G","lat":51.590941,"lon":0.082964,"name":"Waverley Gardens","parentId":"490G00014316","stationId":"490G00014316","stopLetter":"G","topMostParentId":"490G00014316"},{"icsId":"1003612","id":"490003612H","lat":51.590253,"lon":0.081229,"name":"Barkingside High Street","parentId":"490G00003612","stationId":"490G00003612","stopLetter":"H","topMostParentId":"490G00003612"},{"icsId":"1009341","id":"490009341W","lat":51.587141,"lon":0.069553,"name":"Longwood Gardens","parentId":"490G00009341","stationId":"490G00009341","topMostParentId":"490G00009341"},{"icsId":"1008200","id":"490008200S","lat":51.580807,"lon":0.060013,"name":"Highwood Gardens","parentId":"490G00008200","stationId":"490G00008200","stopLetter":"WH","topMostParentId":"490G00008200"},{"icsId":"1007240","id":"490007240S","lat":51.57929,"lon":0.062917,"name":"Glenwood Gardens","parentId":"490G00007240","stationId":"490G00007240","stopLetter":"WP","topMostParentId":"490G00007240"},{"icsId":"1015199","id":"490000085A","lat":51.577515,"lon":0.065695,"name":"Gants Hill Station / Woodford Avenue","parentId":"490G000876","stationId":"490G000876","stopLetter":"WQ","topMostParentId":"490G000876"},{"icsId":"1015203","id":"490000085H","lat":51.576424,"lon":0.064837,"name":"Clarence Avenue","parentId":"490G000879","stationId":"490G000879","stopLetter":"EV","topMostParentId":"490G000879"},{"icsId":"1003828","id":"490003830S","lat":51.573073,"lon":0.064137,"name":"Beehive Lane","parentId":"490G00003828","stationId":"490G00003828","stopLetter":"->S","topMostParentId":"490G00003828"},{"icsId":"1003828","id":"490003828S1","lat":51.571889,"lon":0.064444,"name":"Mornington Avenue","parentId":"490G00003828","stationId":"490G00003828","stopLetter":"CJ","topMostParentId":"490G00003828"},{"icsId":"1003947","id":"490003947S","lat":51.569243,"lon":0.064613,"name":"Bethell Avenue","parentId":"490G00003947","stationId":"490G00003947","stopLetter":"VA","topMostParentId":"490G00003947"},{"icsId":"1013988","id":"490013988S","lat":51.567045,"lon":0.065841,"name":"Valentines Park","parentId":"490G00013988","stationId":"490G00013988","stopLetter":"VB","topMostParentId":"490G00013988"},{"icsId":"1013331","id":"490013331Z","lat":51.564306,"lon":0.066625,"name":"Northbrook Road","parentId":"490G00013331","stationId":"490G00013331","stopLetter":"VC","topMostParentId":"490G00013331"},{"icsId":"1013311","id":"490013311OB","lat":51.562919,"lon":0.06776,"name":"Coventry Road","parentId":"490G00013311","stationId":"490G00013311","stopLetter":"VJ","topMostParentId":"490G00013311"},{"icsId":"1001157","id":"490005699D","lat":51.560454,"lon":0.069884,"name":"Ilford Station","parentId":"490G01157G","stationId":"490G01157G","stopLetter":"D","topMostParentId":"910GILFORD"},{"icsId":"1004985","id":"490004986P","lat":51.557696,"lon":0.070235,"name":"Chapel Road","parentId":"490G00004985","stationId":"490G00004985","stopLetter":"P","topMostParentId":"490G00004985"},{"icsId":"1008466","id":"490008466R","lat":51.558154,"lon":0.074353,"name":"Redbridge Central Library","parentId":"490G00008466","stationId":"490G00008466","stopLetter":"R","topMostParentId":"490G00008466"},{"icsId":"1007657","id":"490007657S","lat":51.559592,"lon":0.07589,"name":"Hainault Street","parentId":"490G00007657","stationId":"490G00007657","stopLetter":"S","topMostParentId":"490G00007657"}]}]}