{"direction":"outbound","lineId":"463","lineName":"463","mode":"bus","stopPointSequences":[{"stopPoint":[{"icsId":"1001072","id":"490001072N","lat":51.315616,"lon":-0.138599,"name":"Coulsdon South Station","parentId":"490G01072M","stationId":"490G01072M","stopLetter":"T","topMostParentId":"910GCOLSDNS"},{"icsId":"1005640","id":"490005640G","lat":51.319663,"lon":-0.139182,"name":"Coulsdon Library","parentId":"490G00005640","stationId":"490G00005640","stopLetter":"G","topMostParentId":"490G00005640"},{"icsId":"1001253","id":"490005637N1","lat":51.321454,"lon":-0.137574,"name":"Coulsdon Town Station","parentId":"490G01253A","stationId":"490G01253A","stopLetter":"J","topMostParentId":"910GCOLSTWN"},{"icsId":"1005657","id":"490016156W","lat":51.322713,"lon":-0.137035,"name":"The Avenue","parentId":"490G00005657","stationId":"490G00005657","stopLetter":"R","topMostParentId":"490G00005657"},{"icsId":"1000915","id":"490000915Z","lat":51.321165,"lon":-0.143211,"name":"Woodmansterne Road","parentId":"490G000232","stationId":"490G000232","topMostParentId":"490G000232"},{"icsId":"1000917","id":"490000917Z","lat":51.320775,"lon":-0.148638,"name":"St Andrew's Road East","parentId":"490G000234","stationId":"490G000234","stopLetter":"->W","topMostParentId":"490G000234"},{"icsId":"1000918","id":"490000918Z","lat":51.320196,"lon":-0.151876,"name":"Richmond Road  Coulsdon","parentId":"490G000235","stationId":"490G000235","stopLetter":"->W","topMostParentId":"490G000235"},{"icsId":"1001342","id":"490001342Z","lat":51.319349,"lon":-0.154565,"name":"Woodmansterne Station","parentId":"490G01342W2","stationId":"490G01342W2","topMostParentId":"910GWDMNSTR"},{"icsId":"1000919","id":"490000919Z","lat":51.318553,"lon":-0.160007,"name":"Sandown Road","parentId":"490G000236","stationId":"490G000236","stopLetter":"->W","topMostParentId":"490G000236"},{"icsId":"1009472","id":"490009472N","lat":51.319101,"lon":-0.161147,"name":"Lyndhurst Road  Nutfield Road","parentId":"490G00009472","stationId":"490G00009472","stopLetter":"->N","topMostParentId":"490G00009472"},{"icsId":"1000920","id":"490000920Z","lat":51.320563,"lon":-0.157989,"name":"Winifred Road  Coulsdon","parentId":"490G000237","stationId":"490G000237","stopLetter":"->E","topMostParentId":"490G000237"},{"icsId":"1000921","id":"490000921Z","lat":51.321211,"lon":-0.155738,"name":"Alexander Road  Coulsdon","parentId":"490G000238","stationId":"490G000238","stopLetter":"->E","topMostParentId":"490G000238"},{"icsId":"1000922","id":"490000922Z","lat":51.322475,"lon":-0.156635,"name":"Beechwood Avenue","parentId":"490G000239","stationId":"490G000239","stopLetter":"->N","topMostParentId":"490G000239"},{"icsId":"1000916","id":"490000916Y","lat":51.324132,"lon":-0.157932,"name":"Whitethorn Avenue  Coulsdon","parentId":"490G000233","stationId":"490G000233","stopLetter":"->N","topMostParentId":"490G000233"},{"icsId":"1000923","id":"490000923Z","lat":51.325171,"lon":-0.156556,"name":"Lloyd Avenue","parentId":"490G000240","stationId":"490G000240","stopLetter":"->E","topMostParentId":"490G000240"},{"icsId":"1013460","id":"490013460W1","lat":51.326028,"lon":-0.15444,"name":"The Mount","parentId":"490G00013460","stationId":"490G00013460","stopLetter":"->N","topMostParentId":"490G00013460"},{"icsId":"1000924","id":"490000924Z","lat":51.323899,"lon":-0.151124,"name":"Grove Lane","parentId":"490G000241","stationId":"490G000241","stopLetter":"->S","topMostParentId":"490G000241"},{"icsId":"1000925","id":"490000925Z","lat":51.323036,"lon":-0.149494,"name":"Lynwood Avenue","parentId":"490G000242","stationId":"490G000242","stopLetter":"->S","topMostParentId":"490G000242"},{"icsId":"1000926","id":"490000926Z","lat":51.321731,"lon":-0.146575,"name":"Clifton Road  Coulsdon","parentId":"490G000243","stationId":"490G000243","stopLetter":"->S","topMostParentId":"490G000243"},{"icsId":"1000915","id":"490018755E","lat":51.321717,"lon":-0.142285,"name":"Woodmansterne Road","topMostParentId":"490018755E"},{"icsId":"1004238","id":"490004238N","lat":51.322976,"lon":-0.140583,"name":"Bramley Avenue","parentId":"490G00004238","stationId":"490G00004238","stopLetter":"L","topMostParentId":"490G00004238"},{"icsId":"1016153","id":"490016153N","lat":51.325772,"lon":-0.138231,"name":"Warwick Road","parentId":"490G00016153","stationId":"490G00016153","stopLetter":"->N","topMostParentId":"490G00016153"},{"icsId":"1001972","id":"490001972Z","lat":51.330256,"lon":-0.138035,"name":"Smitham Downs Road","parentId":"490G000296","stationId":"490G000296","stopLetter":"->N","topMostParentId":"490G000296"},{"icsId":"1013952","id":"490013952N","lat":51.333517,"lon":-0.139497,"name":"Upper Woodcote Village","parentId":"490G00013952","stationId":"490G00013952","stopLetter":"->N","topMostParentId":"490G00013952"},{"icsId":"1014832","id":"490014832N","lat":51.338658,"lon":-0.143897,"name":"Woodcote Park","parentId":"490G00014832","stationId":"490G00014832","stopLetter":"F","topMostParentId":"490G00014832"},{"icsId":"1006747","id":"490006747N","lat":51.342539,"lon":-0.145908,"name":"Farm Lane","parentId":"490G00006747","stationId":"490G00006747","stopLetter":"V","topMostParentId":"490G00006747"},{"icsId":"1009358","id":"490009358N","lat":51.346181,"lon":-0.147054,"name":"Lordsbury Field","parentId":"490G00009358","stationId":"490G00009358","stopLetter":"W","topMostParentId":"490G00009358"},{"icsId":"1014138","id":"490014138N","lat":51.348467,"lon":-0.148297,"name":"Woodcote Green","parentId":"490G00014138","stationId":"490G00014138","stopLetter":"X","topMostParentId":"490G00014138"},{"icsId":"1007680","id":"490007680N","lat":51.351033,"lon":-0.14795,"name":"Hall Road","parentId":"490G00007680","stationId":"490G00007680","stopLetter":"Y","topMostParentId":"490G00007680"},{"icsId":"1004100","id":"490004100N","lat":51.353522,"lon":-0.148366,"name":"Blenheim Gardens","parentId":"490G00004100","stationId":"490G00004100","stopLetter":"Z","topMostParentId":"490G00004100"},{"icsId":"1012466","id":"490012466G","lat":51.356512,"lon":-0.149194,"name":"Woodcote Road / Stafford Road","parentId":"490G00012466","stationId":"490G00012466","stopLetter":"G","topMostParentId":"490G00012466"},{"icsId":"1003775","id":"490003775K","lat":51.358958,"lon":-0.149799,"name":"Wallington Town Centre","parentId":"490G000407","stationId":"490G000407","stopLetter":"K","topMostParentId":"490G000407"},{"icsId":"1001306","id":"490001306D","lat":51.360502,"lon":-0.150756,"name":"Wallington Station","parentId":"490G01306B","stationId":"490G01306B","stopLetter":"D","topMostParentId":"910GWALNGTN"},{"icsId":"1011352","id":"490011352N","lat":51.364186,"lon":-0.151671,"name":"Queens Road","parentId":"490G00011352","stationId":"490G00011352","stopLetter":"GK","topMostParentId":"490G00011352"},{"icsId":"1014137","id":"490014137E","lat":51.367549,"lon":-0.152829,"name":"Croydon Road / Wallington Green","parentId":"490G00014137","stationId":"490G00014137","stopLetter":"GP","topMostParentId":"490G00014137"},{"icsId":"1013422","id":"490013422E","lat":51.369287,"lon":-0.146164,"name":"The Holt","parentId":"490G00013422","stationId":"490G00013422","stopLetter":"GR","topMostParentId":"490G00013422"},{"icsId":"1005289","id":"490005289E","lat":51.369873,"lon":-0.139977,"name":"Church Road","parentId":"490G00005289","stationId":"490G00005289","stopLetter":"GS","topMostParentId":"490G00005289"},{"icsId":"1019874","id":"490008217E","lat":51.369113,"lon":-0.134606,"name":"Guy Road","parentId":"490G00019874","stationId":"490G00019874","stopLetter":"D","topMostParentId":"490G00019874"},{"icsId":"1005861","id":"490005861N2","lat":51.370665,"lon":-0.132661,"name":"Hilliers Lane","parentId":"490G00005861","stationId":"490G00005861","stopLetter":"B","topMostParentId":"490G00005861"},{"icsId":"1003777","id":"490003777N","lat":51.373126,"lon":-0.1319,"name":"Beddington Village","parentId":"490G00003777","stationId":"490G00003777","stopLetter":"C","topMostParentId":"490G00003777"},{"icsId":"1003768","id":"490003768W","lat":51.375943,"lon":-0.130937,"name":"Beddington / Asda","parentId":"490G00003768","stationId":"490G00003768","stopLetter":"->W","topMostParentId":"490G00003768"},{"icsId":"1009680","id":"490009680N","lat":51.377944,"lon":-0.127321,"name":"Marlowe Way","parentId":"490G00009680","stationId":"490G00009680","stopLetter":"->N","topMostParentId":"490G00009680"},{"icsId":"1020346","id":"490020346N","lat":51.379735,"lon":-0.127923,"name":"Valley Park Retail Park","parentId":"490G00020346","stationId":"490G00020346","stopLetter":"->N","topMostParentId":"490G00020346"},{"icsId":"1003703","id":"490003703N","lat":51.382093,"lon":-0.130299,"name":"Beddington Farm Road Sorting Office","parentId":"490G00003703","stationId":"490G00003703","stopLetter":"->N","topMostParentId":"490G00003703"},{"icsId":"1002075","id":"490013518W1","lat":51.386102,"lon":-0.131328,"name":"Therapia Lane Tram Stop","parentId":"490G02075S","stationId":"490G02075S","stopLetter":"C","topMostParentId":"940GZZCRTPA"},{"icsId":"1018886","id":"490018886W","lat":51.387028,"lon":-0.134726,"name":"Therapia Lane Tram Depot","parentId":"490G00018886","stationId":"490G00018886","topMostParentId":"490G00018886"},{"icsId":"1018885","id":"490018885W","lat":51.386327,"lon":-0.139253,"name":"Coomber Way / Beddington Lane","parentId":"490G00018885","stationId":"490G00018885","stopLetter":"J","topMostParentId":"490G00018885"},{"icsId":"1002013","id":"490002013N","lat":51.38801,"lon":-0.141067,"name":"Beddington Lane Tram Stop","parentId":"490G02013S","stationId":"490G02013S","stopLetter":"B","topMostParentId":"940GZZCRBED"},{"icsId":"1013425","id":"490018879N","lat":51.400746,"lon":-0.145755,"name":"Sherwood Park Road","parentId":"490G00013425","stationId":"490G00013425","topMostParentId":"490G00013425"},{"icsId":"1018878","id":"490018878N","lat":51.402564,"lon":-0.148686,"name":"Tamworth Park","parentId":"490G00018878","stationId":"490G00018878","stopLetter":"->N","topMostParentId":"490G00018878"},{"icsId":"1012475","id":"490012475N","lat":51.404376,"lon":-0.151259,"name":"Cedars Avenue","parentId":"490G00012475","stationId":"490G00012475","topMostParentId":"490G00012475"},{"icsId":"1018877","id":"490018877N","lat":51.406791,"lon":-0.15385,"name":"Acacia Road","parentId":"490G00018877","stationId":"490G00018877","stopLetter":"X","topMostParentId":"490G00018877"},{"icsId":"1001555","id":"490006350N","lat":51.408422,"lon":-0.154015,"name":"Mitcham Eastfields Station","parentId":"490G06350N1","stationId":"490G06350N1","stopLetter":"S","topMostParentId":"910GESTFLDS"},{"icsId":"1016162","id":"490016162N","lat":51.409486,"lon":-0.151973,"name":"St Mark's C Of E Academy Playing Fields","parentId":"490G00016162","stationId":"490G00016162","topMostParentId":"490G00016162"},{"icsId":"1016230","id":"490016230N","lat":51.410566,"lon":-0.147472,"name":"Warminster Way","parentId":"490G00016230","stationId":"490G00016230","stopLetter":"->N","topMostParentId":"490G00016230"},{"icsId":"1016149","id":"490016149E","lat":51.410737,"lon":-0.145207,"name":"Ebenezer Walk","parentId":"490G00016149","stationId":"490G00016149","topMostParentId":"490G00016149"},{"icsId":"1016816","id":"490016816E","lat":51.410011,"lon":-0.143612,"name":"Meopham Road / Woodstock Way","parentId":"490G00016816","stationId":"490G00016816","stopLetter":"VC","topMostParentId":"490G00016816"},{"icsId":"1012930","id":"490012930S","lat":51.408478,"lon":-0.142207,"name":"Streatham Park Cemetery","parentId":"490G00012930","stationId":"490G00012930","stopLetter":"VP","topMostParentId":"490G00012930"},{"icsId":"1011758","id":"490011739S","lat":51.405873,"lon":-0.139034,"name":"Rosemead Avenue","parentId":"490G000049","stationId":"490G000049","stopLetter":"VQ","topMostParentId":"490G000049"},{"icsId":"1010321","id":"490010321L","lat":51.403582,"lon":-0.136324,"name":"Northborough Road","parentId":"490G00010321","stationId":"490G00010321","stopLetter":"L","topMostParentId":"490G00010321"},{"icsId":"1008527","id":"490008527J","lat":51.401948,"lon":-0.134809,"name":"Ivy Gardens","parentId":"490G00008527","stationId":"490G00008527","stopLetter":"J","topMostParentId":"490G00008527"},{"icsId":"1005148","id":"490005148H","lat":51.399891,"lon":-0.132089,"name":"Pollards Hill Library","parentId":"490G00005148","stationId":"490G00005148","stopLetter":"H","topMostParentId":"490G00005148"},{"icsId":"1015021","id":"490015020E","lat":51.398984,"lon":-0.128244,"name":"Pollards Hill","parentId":"490G00015021","stationId":"490G00015021","topMostParentId":"490G00015021"}]}]}