{"direction":"outbound","lineId":"465","lineName":"465","mode":"bus","stopPointSequences":[{"stopPoint":[{"icsId":"1005800","id":"490005800A16","lat":51.412389,"lon":-0.298533,"name":"Cromwell Road Bus Station","parentId":"490G000476","stationId":"490G000476","stopLetter":"A16","topMostParentId":"490G000476"},{"icsId":"1006412","id":"490006412D1","lat":51.410255,"lon":-0.302006,"name":"Eden Street","parentId":"490G00006412","stationId":"490G00006412","stopLetter":"D1","topMostParentId":"490G00006412"},{"icsId":"1006416","id":"490006412H","lat":51.408883,"lon":-0.304789,"name":"St James's Road","parentId":"490G00006416","stationId":"490G00006416","stopLetter":"H","topMostParentId":"490G00006416"},{"icsId":"1007595","id":"490007595J","lat":51.408842,"lon":-0.306329,"name":"Guildhall / Rose Theatre","parentId":"490G00007595","stationId":"490G00007595","stopLetter":"J","topMostParentId":"490G00007595"},{"icsId":"1006364","id":"490006364S","lat":51.406561,"lon":-0.307736,"name":"East Lane","parentId":"490G00006364","stationId":"490G00006364","stopLetter":"UM","topMostParentId":"490G00006364"},{"icsId":"1014817","id":"490014817S","lat":51.404264,"lon":-0.307476,"name":"Woodbines Avenue","parentId":"490G00014817","stationId":"490G00014817","stopLetter":"UN","topMostParentId":"490G00014817"},{"icsId":"1013037","id":"490013037E","lat":51.402874,"lon":-0.306506,"name":"Surbiton Road / Milestone House","parentId":"490G00013037","stationId":"490G00013037","stopLetter":"UW","topMostParentId":"490G00013037"},{"icsId":"1013034","id":"490013034S","lat":51.400598,"lon":-0.303974,"name":"Surbiton Crescent","parentId":"490G00013034","stationId":"490G00013034","stopLetter":"B","topMostParentId":"490G00013034"},{"icsId":"1009627","id":"490009627S","lat":51.398908,"lon":-0.304597,"name":"Maple Road","parentId":"490G00009627","stationId":"490G00009627","stopLetter":"C","topMostParentId":"490G00009627"},{"icsId":"1013315","id":"490013315S","lat":51.395671,"lon":-0.304041,"name":"The Crescent","parentId":"490G00013315","stationId":"490G00013315","stopLetter":"NH","topMostParentId":"490G00013315"},{"icsId":"1015165","id":"490015165B","lat":51.393739,"lon":-0.304112,"name":"Surbiton Station","parentId":"490G000865","stationId":"490G000865","stopLetter":"NK","topMostParentId":"490G000865"},{"icsId":"1000446","id":"490001285D","lat":51.392547,"lon":-0.305651,"name":"Victoria Road / Surbiton Station","parentId":"490G000095","stationId":"490G000095","stopLetter":"NP","topMostParentId":"490G000095"},{"icsId":"1013036","id":"490013036G","lat":51.391606,"lon":-0.307727,"name":"Surbiton Sainsbury's","parentId":"490G00013036","stationId":"490G00013036","stopLetter":"NR","topMostParentId":"490G00013036"},{"icsId":"1009395","id":"490009395S","lat":51.390257,"lon":-0.307101,"name":"Lovelace Gardens","parentId":"490G00009395","stationId":"490G00009395","stopLetter":"SD","topMostParentId":"490G00009395"},{"icsId":"1010075","id":"490010075S","lat":51.388816,"lon":-0.303849,"name":"Mountcombe Close","parentId":"490G00010075","stationId":"490G00010075","stopLetter":"SE","topMostParentId":"490G00010075"},{"icsId":"1018574","id":"490018574S","lat":51.387356,"lon":-0.301733,"name":"Langley Road","parentId":"490G00018574","stationId":"490G00018574","stopLetter":"SF","topMostParentId":"490G00018574"},{"icsId":"1008949","id":"490008949S","lat":51.385738,"lon":-0.300528,"name":"Langley Avenue","parentId":"490G00008949","stationId":"490G00008949","stopLetter":"SG","topMostParentId":"490G00008949"},{"icsId":"1006089","id":"490006089S","lat":51.383747,"lon":-0.300329,"name":"Ditton Road","parentId":"490G00006089","stationId":"490G00006089","stopLetter":"HA","topMostParentId":"490G00006089"},{"icsId":"1013457","id":"490013457HU","lat":51.380939,"lon":-0.301381,"name":"Ash Tree Close","parentId":"490G00013457","stationId":"490G00013457","stopLetter":"HU","topMostParentId":"490G00013457"},{"icsId":"1013628","id":"490013628S","lat":51.378919,"lon":-0.302203,"name":"Thornhill Road","parentId":"490G00013628","stationId":"490G00013628","stopLetter":"HB","topMostParentId":"490G00013628"},{"icsId":"1007205","id":"490007205S","lat":51.375825,"lon":-0.303409,"name":"Southborough High School","parentId":"490G00007205","stationId":"490G00007205","stopLetter":"HC","topMostParentId":"490G00007205"},{"icsId":"1006501","id":"490006501S","lat":51.373225,"lon":-0.304626,"name":"Elmcroft Drive","parentId":"490G00006501","stationId":"490G00006501","stopLetter":"HD","topMostParentId":"490G00006501"},{"icsId":"1013474","id":"490013474S","lat":51.370498,"lon":-0.305718,"name":"The North Star","parentId":"490G00013474","stationId":"490G00013474","stopLetter":"HE","topMostParentId":"490G00013474"},{"icsId":"1008338","id":"490008338S1","lat":51.368088,"lon":-0.306296,"name":"Hook Parade","parentId":"490G00008338","stationId":"490G00008338","stopLetter":"HH","topMostParentId":"490G00008338"},{"icsId":"1013597","id":"490013597Q","lat":51.36545,"lon":-0.307327,"name":"Holmwood Road","parentId":"490G00013597","stationId":"490G00013597","stopLetter":"Q","topMostParentId":"490G00013597"},{"icsId":"1004328","id":"490004328N","lat":51.362138,"lon":-0.307765,"name":"Bridge Road","parentId":"490G00004328","stationId":"490G00004328","stopLetter":"N","topMostParentId":"490G00004328"},{"icsId":"1006490","id":"490006490M","lat":51.360367,"lon":-0.309697,"name":"Ellingham Road","parentId":"490G00006490","stationId":"490G00006490","stopLetter":"M","topMostParentId":"490G00006490"},{"icsId":"1009048","id":"490009048D","lat":51.356859,"lon":-0.311478,"name":"Garrison Lane","parentId":"490G00009048","stationId":"490G00009048","stopLetter":"D","topMostParentId":"490G00009048"},{"icsId":"1003663","id":"490003663W","lat":51.353273,"lon":-0.312256,"name":"Barwell Business Park","parentId":"490G00003663","stationId":"490G00003663","stopLetter":"W","topMostParentId":"490G00003663"},{"icsId":"1005121","id":"490005121Y","lat":51.350122,"lon":-0.313219,"name":"Chessington World Of Adventures","parentId":"490G00005121","stationId":"490G00005121","stopLetter":"Y","topMostParentId":"490G00005121"},{"icsId":"1020192","id":"490020192S","lat":51.342618,"lon":-0.317314,"name":"Chessington Garden Centre","parentId":"490G00020192","stationId":"490G00020192","stopLetter":"->S","topMostParentId":"490G00020192"},{"icsId":"1011796","id":"490011796S","lat":51.340067,"lon":-0.318786,"name":"Rushett Lane","parentId":"490G00011796","stationId":"490G00011796","stopLetter":"->S","topMostParentId":"490G00011796"},{"icsId":"1013552","id":"490013552S","lat":51.337184,"lon":-0.320284,"name":"Malden Rushett / Shy Horse","parentId":"490G00013552","stationId":"490G00013552","stopLetter":"->S","topMostParentId":"490G00013552"},{"icsId":"1009525","id":"40004408959B","lat":51.325734,"lon":-0.327678,"name":"Malden Rushett / The Star","parentId":"400G4408959A","stationId":"400G4408959A","topMostParentId":"400G4408959A"},{"icsId":"1009045","id":"40004408192B","lat":51.320826,"lon":-0.329679,"name":"Leatherhead Golf Club","parentId":"400G4408192B","stationId":"400G4408192B","topMostParentId":"400G4408192B"},{"icsId":"1010706","id":"40004408226B","lat":51.314592,"lon":-0.335186,"name":"Oxshott Road","parentId":"400G4408226B","stationId":"400G4408226B","topMostParentId":"400G4408226B"},{"icsId":"1011507","id":"40004408191B","lat":51.310659,"lon":-0.333104,"name":"Regent Park","parentId":"400G4408191A","stationId":"400G4408191A","topMostParentId":"400G4408191A"},{"icsId":"1003253","id":"40004408189B","lat":51.307185,"lon":-0.331595,"name":"All Saints School","parentId":"400G4408189A","stationId":"400G4408189A","topMostParentId":"400G4408189A"},{"icsId":"1003244","id":"40004408188B","lat":51.302408,"lon":-0.329587,"name":"All Saints Church","parentId":"400G4408188A","stationId":"400G4408188A","topMostParentId":"400G4408188A"},{"icsId":"1010795","id":"40004408187B","lat":51.298813,"lon":-0.330349,"name":"Park Rise","parentId":"400G4408187A","stationId":"400G4408187A","stopLetter":"M","topMostParentId":"910GLETHRHD"},{"icsId":"1009044","id":"40004408176B","lat":51.295697,"lon":-0.330046,"name":"North Street","parentId":"400G4408176A","stationId":"400G4408176A","stopLetter":"S","topMostParentId":"910GLETHRHD"},{"icsId":"1009043","id":"40004408175B","lat":51.294398,"lon":-0.331685,"name":"Bridge Street","parentId":"400G4408175A","stationId":"400G4408175A","stopLetter":"P","topMostParentId":"400G4408175A"},{"icsId":"1007594","id":"40004408174B","lat":51.292157,"lon":-0.336614,"name":"Leatherhead Leisure Centre","parentId":"400G4408174B","stationId":"400G4408174B","topMostParentId":"400G4408174B"},{"icsId":"1013461","id":"40004408173B","lat":51.284651,"lon":-0.345045,"name":"The Mount","parentId":"400G4408173B","stationId":"400G4408173B","topMostParentId":"400G4408173B"},{"icsId":"1013528","id":"40004408172B","lat":51.28274,"lon":-0.349817,"name":"The Ridgeway","parentId":"400G4408172A","stationId":"400G4408172A","topMostParentId":"400G4408172A"},{"icsId":"1007197","id":"40004408134B","lat":51.28184,"lon":-0.326949,"name":"Givons Roundabout","parentId":"400G4408134A","stationId":"400G4408134A","topMostParentId":"400G4408134A"},{"icsId":"1004670","id":"40004408133B","lat":51.271659,"lon":-0.319965,"name":"Byttom Hill","parentId":"400G4408133A","stationId":"400G4408133A","topMostParentId":"400G4408133A"},{"icsId":"1013546","id":"40004408132B","lat":51.267785,"lon":-0.323819,"name":"Mickleham Church","parentId":"400G4408132B","stationId":"400G4408132B","topMostParentId":"400G4408132B"},{"icsId":"1008594","id":"40004408131B","lat":51.261272,"lon":-0.321762,"name":"Juniper Hall","parentId":"400G4408131A","stationId":"400G4408131A","topMostParentId":"400G4408131A"},{"icsId":"1013609","id":"40004408016A","lat":51.258173,"lon":-0.322678,"name":"Zig Zag Road","parentId":"400G4408016A","stationId":"400G4408016A","topMostParentId":"400G4408016A"},{"icsId":"1004590","id":"40004408130A","lat":51.254996,"lon":-0.321862,"name":"Burford Bridge","parentId":"400G4408130B","stationId":"400G4408130B","stopLetter":"Y","topMostParentId":"400G4408130B"},{"icsId":"1014481","id":"40004408129B","lat":51.252389,"lon":-0.323161,"name":"Westhumble Street","parentId":"400G4408129A","stationId":"400G4408129A","topMostParentId":"910GBOXHAWH"},{"icsId":"1009284","id":"40004408238A","lat":51.249451,"lon":-0.323998,"name":"North Downs Way","parentId":"400G4408238A","stationId":"400G4408238A","topMostParentId":"400G4408238A"},{"icsId":"1007025","id":"40004408128B","lat":51.243704,"lon":-0.32458,"name":"Pixham Lane","parentId":"400G4408128A","stationId":"400G4408128A","topMostParentId":"400G4408128A"},{"icsId":"1000387","id":"40004408240A","lat":51.240235,"lon":-0.325322,"name":"Dorking Station / London Road","parentId":"400G4408240B","stationId":"400G4408240B","stopLetter":"B","topMostParentId":"910GDORKING"},{"icsId":"1000387","id":"40004408115A","lat":51.240788,"lon":-0.324399,"name":"Dorking Station","parentId":"400G4408240B","stationId":"400G4408240B","stopLetter":"3","topMostParentId":"910GDORKING"},{"icsId":"1006119","id":"40004408114A","lat":51.237641,"lon":-0.323783,"name":"Deepdene Avenue Road","parentId":"400G4408114A","stationId":"400G4408114A","stopLetter":"E","topMostParentId":"910GDORKING"},{"icsId":"1006125","id":"40004408113A","lat":51.235331,"lon":-0.323895,"name":"Dorking Sports Centre","parentId":"400G4408113A","stationId":"400G4408113A","stopLetter":"F","topMostParentId":"400G4408113A"},{"icsId":"1006120","id":"40004408112A","lat":51.234385,"lon":-0.326881,"name":"Moores Road","parentId":"400G4408112A","stationId":"400G4408112A","stopLetter":"H","topMostParentId":"400G4408112A"},{"icsId":"1006129","id":"40004408111B","lat":51.232598,"lon":-0.330211,"name":"The White Horse","parentId":"400G4408111A","stationId":"400G4408111A","stopLetter":"K","topMostParentId":"400G4408111A"},{"icsId":"1006123","id":"40004408086A","lat":51.230896,"lon":-0.333811,"name":"South Street","stopLetter":"P","topMostParentId":"40004408086A"},{"icsId":"1019023","id":"40004408086B","lat":51.227637,"lon":-0.334845,"name":"South Street / Rose Hill","topMostParentId":"40004408086B"}]}]}