{"direction":"outbound","lineId":"470","lineName":"470","mode":"bus","stopPointSequences":[{"stopPoint":[{"icsId":"1000055","id":"490005223C","lat":51.41772,"lon":-0.178132,"name":"Colliers Wood Station","parentId":"490G00055A","stationId":"490G00055A","stopLetter":"C","topMostParentId":"940GZZLUCSD","zone":"3"},{"icsId":"1005223","id":"490005223K","lat":51.415983,"lon":-0.178072,"name":"Christ Church","parentId":"490G00005223","stationId":"490G00005223","stopLetter":"K","topMostParentId":"490G00005223"},{"icsId":"1016304","id":"490016304W","lat":51.41416,"lon":-0.181136,"name":"Merton Abbey","parentId":"490G00016304","stationId":"490G00016304","stopLetter":"P","topMostParentId":"490G00016304"},{"icsId":"1002060","id":"490008586C","lat":51.410809,"lon":-0.19237,"name":"Morden Road Tram Stop","parentId":"490G02060A","stationId":"490G02060A","stopLetter":"SK","topMostParentId":"940GZZCRMDN"},{"icsId":"1006133","id":"490006133B","lat":51.406747,"lon":-0.191984,"name":"Dorset Road","parentId":"490G000486","stationId":"490G000486","stopLetter":"B","topMostParentId":"490G000486"},{"icsId":"1010020","id":"490010020D","lat":51.403808,"lon":-0.191481,"name":"Kenley Road","parentId":"490G00010020","stationId":"490G00010020","stopLetter":"D","topMostParentId":"490G00010020"},{"icsId":"1015390","id":"490000151H","lat":51.402414,"lon":-0.193808,"name":"London Road / Morden Station","parentId":"490G000892","stationId":"490G000892","stopLetter":"H","topMostParentId":"490G000892"},{"icsId":"1000151","id":"490000151C","lat":51.402458,"lon":-0.194324,"name":"Morden Station","parentId":"490G00151H","stationId":"490G00151H","stopLetter":"C","topMostParentId":"940GZZLUMDN","zone":"4"},{"icsId":"1010021","id":"490010021E","lat":51.402812,"lon":-0.191032,"name":"Morden Hall","parentId":"490G00010021","stationId":"490G00010021","stopLetter":"E","topMostParentId":"490G00010021"},{"icsId":"1004931","id":"490004931S","lat":51.399703,"lon":-0.187733,"name":"Morden Hall Road / Central Road","parentId":"490G00004931","stationId":"490G00004931","stopLetter":"P","topMostParentId":"490G00004931"},{"icsId":"1009839","id":"490009839S1","lat":51.396415,"lon":-0.190853,"name":"The Willows","parentId":"490G00009839","stationId":"490G00009839","stopLetter":"C","topMostParentId":"490G00009839"},{"icsId":"1010026","id":"490010026S2","lat":51.395133,"lon":-0.192815,"name":"Abbotsbury Road","parentId":"490G00010026","stationId":"490G00010026","stopLetter":"D","topMostParentId":"490G00010026"},{"icsId":"1012440","id":"490012440W","lat":51.386539,"lon":-0.196546,"name":"Love Lane St Helier","parentId":"490G00012440","stationId":"490G00012440","topMostParentId":"490G00012440"},{"icsId":"1006935","id":"490006935E","lat":51.38396,"lon":-0.201907,"name":"Forest Road  Sutton","parentId":"490G00006935","stationId":"490G00006935","stopLetter":"->E","topMostParentId":"490G00006935"},{"icsId":"1013065","id":"490013065S","lat":51.379326,"lon":-0.20114,"name":"Glenthorne High School","parentId":"490G00013065","stationId":"490G00013065","stopLetter":"SB","topMostParentId":"490G00013065"},{"icsId":"1013069","id":"490013069S","lat":51.376809,"lon":-0.198868,"name":"Broomloan Lane","parentId":"490G00013069","stationId":"490G00013069","stopLetter":"->S","topMostParentId":"490G00013069"},{"icsId":"1019461","id":"490019464S","lat":51.374565,"lon":-0.196197,"name":"Sutton Common Station","parentId":"490G19461B","stationId":"490G19461B","stopLetter":"M","topMostParentId":"490G19461B"},{"icsId":"1003325","id":"490020131E","lat":51.373764,"lon":-0.19439,"name":"Sutton Common Road","parentId":"490G00003325","stationId":"490G00003325","stopLetter":"->E","topMostParentId":"490G00003325"},{"icsId":"1013072","id":"490013072B","lat":51.369797,"lon":-0.194934,"name":"Sutton Green","parentId":"490G00013072","stationId":"490G00013072","stopLetter":"B","topMostParentId":"490G00013072"},{"icsId":"1013062","id":"490013062C","lat":51.367873,"lon":-0.194966,"name":"High Street / Marshalls Road","parentId":"490G00013062","stationId":"490G00013062","stopLetter":"C","topMostParentId":"490G00013062"},{"icsId":"1003892","id":"490003892E","lat":51.367067,"lon":-0.193403,"name":"Benhill Avenue","parentId":"490G00003892","stationId":"490G00003892","stopLetter":"E","topMostParentId":"490G00003892"},{"icsId":"1009575","id":"490009575I","lat":51.365482,"lon":-0.192675,"name":"Manor Place","parentId":"490G00009575","stationId":"490G00009575","stopLetter":"I","topMostParentId":"490G00009575"},{"icsId":"1013679","id":"490013679J","lat":51.363743,"lon":-0.191896,"name":"Times Square","parentId":"490G00013679","stationId":"490G00013679","stopLetter":"J","topMostParentId":"490G00013679"},{"icsId":"1013081","id":"490013081K","lat":51.361853,"lon":-0.191195,"name":"Sutton Police Station","parentId":"490G00013081","stationId":"490G00013081","stopLetter":"K","topMostParentId":"490G00013081"},{"icsId":"1001286","id":"490001286Y","lat":51.359108,"lon":-0.191619,"name":"Sutton Station","parentId":"490G01286N","stationId":"490G01286N","stopLetter":"AB","topMostParentId":"910GSUTTON"},{"icsId":"1019541","id":"490019541W","lat":51.356219,"lon":-0.197923,"name":"Worcester Road","parentId":"490G00019541","stationId":"490G00019541","stopLetter":"->W","topMostParentId":"490G00019541"},{"icsId":"1019544","id":"490019544S","lat":51.352996,"lon":-0.20411,"name":"York Road (SM2)","parentId":"490G00019544","stationId":"490G00019544","topMostParentId":"490G00019544"},{"icsId":"1019546","id":"490019546HR","lat":51.346965,"lon":-0.210191,"name":"Northey Avenue","parentId":"490G00019546","stationId":"490G00019546","stopLetter":"->W","topMostParentId":"490G00019546"},{"icsId":"1012275","id":"490012275N","lat":51.347499,"lon":-0.214506,"name":"South Drive","parentId":"490G00012275","stationId":"490G00012275","stopLetter":"->N","topMostParentId":"490G00012275"},{"icsId":"1006066","id":"490006066N","lat":51.350513,"lon":-0.214648,"name":"Sandy Lane Cheam","parentId":"490G00006066","stationId":"490G00006066","topMostParentId":"490G00006066"},{"icsId":"1007218","id":"490007218N","lat":51.353387,"lon":-0.215584,"name":"Cheam Station","parentId":"490G00007218","stationId":"490G00007218","topMostParentId":"490G00007218"},{"icsId":"1005056","id":"490005056B","lat":51.357554,"lon":-0.216988,"name":"Cheam Broadway","parentId":"490G00005056","stationId":"490G00005056","stopLetter":"B","topMostParentId":"490G00005056"},{"icsId":"1010294","id":"490010294K","lat":51.357296,"lon":-0.221293,"name":"Nonsuch Park","parentId":"490G00010294","stationId":"490G00010294","stopLetter":"K","topMostParentId":"490G00010294"},{"icsId":"1016166","id":"40004406102A","lat":51.349733,"lon":-0.223093,"name":"West Drive","parentId":"400G4406102A","stationId":"400G4406102A","topMostParentId":"400G4406102A"},{"icsId":"1016167","id":"40004406048B","lat":51.348125,"lon":-0.224362,"name":"Bramley Road","parentId":"400G4406048A","stationId":"400G4406048A","topMostParentId":"400G4406048A"},{"icsId":"1010361","id":"40004406047B","lat":51.345674,"lon":-0.227587,"name":"Albury Avenue","parentId":"400G4406047A","stationId":"400G4406047A","topMostParentId":"400G4406047A"},{"icsId":"1015597","id":"40004406103A","lat":51.345016,"lon":-0.234045,"name":"Springfield Road","parentId":"400G4406103A","stationId":"400G4406103A","topMostParentId":"400G4406103A"},{"icsId":"1001534","id":"40004406046A","lat":51.346081,"lon":-0.240293,"name":"Ewell East Station","parentId":"400G4406046A","stationId":"400G4406046A","topMostParentId":"910GEWELLE"},{"icsId":"1006677","id":"40004406167A","lat":51.345908,"lon":-0.24916,"name":"Hazel Mead","parentId":"400G4406167A","stationId":"400G4406167A","topMostParentId":"400G4406167A"},{"icsId":"1006676","id":"40004406045B","lat":51.346659,"lon":-0.250668,"name":"Reigate Road / Green Man","parentId":"400G4406045A","stationId":"400G4406045A","topMostParentId":"400G4406045A"},{"icsId":"1015599","id":"40004406044B","lat":51.345258,"lon":-0.251338,"name":"Mongers Lane","parentId":"400G4406044A","stationId":"400G4406044A","topMostParentId":"400G4406044A"},{"icsId":"1008111","id":"40004406043B","lat":51.342506,"lon":-0.252577,"name":"Hessle Grove","parentId":"400G4406043A","stationId":"400G4406043A","topMostParentId":"400G4406043A"},{"icsId":"1015600","id":"40004406041B","lat":51.34027,"lon":-0.254558,"name":"Windmill Lane","parentId":"400G4406041A","stationId":"400G4406041A","topMostParentId":"400G4406041A"},{"icsId":"1008717","id":"40004406117B","lat":51.33852,"lon":-0.257251,"name":"Kiln Lane","parentId":"400G4406117A","stationId":"400G4406117A","topMostParentId":"400G4406117A"},{"icsId":"1015601","id":"40004406040B","lat":51.335993,"lon":-0.261467,"name":"Rainbow Leisure Centre","parentId":"400G4406040A","stationId":"400G4406040A","topMostParentId":"400G4406040A"},{"icsId":"1006610","id":"40004406039D","lat":51.333535,"lon":-0.26614,"name":"Epsom High Street","parentId":"400G4406039A","stationId":"400G4406039A","stopLetter":"K","topMostParentId":"910GEPSM"},{"icsId":"1006597","id":"40004406119A","lat":51.332303,"lon":-0.266746,"name":"Ashley Road","stopLetter":"M","topMostParentId":"40004406119A"},{"icsId":"1006600","id":"40004406038D","lat":51.333048,"lon":-0.26969,"name":"Clock Tower","parentId":"400G4406038A","stationId":"400G4406038A","topMostParentId":"910GEPSM"}]}]}