{"direction":"outbound","lineId":"486","lineName":"486","mode":"bus","stopPointSequences":[{"stopPoint":[{"icsId":"1010374","id":"490010374B","lat":51.499677,"lon":0.004368,"name":"North Greenwich Station","parentId":"490G000682","stationId":"490G000682","stopLetter":"B","topMostParentId":"HUBNGW"},{"icsId":"1009887","id":"490009887X","lat":51.494031,"lon":0.013715,"name":"Millennium Village / Oval Square","parentId":"490G00009887","stationId":"490G00009887","stopLetter":"MC","topMostParentId":"490G00009887"},{"icsId":"1009889","id":"490009889Z","lat":51.491803,"lon":0.013631,"name":"Millennium Village South","parentId":"490G00009889","stationId":"490G00009889","stopLetter":"MD","topMostParentId":"490G00009889"},{"icsId":"1013356","id":"490013356E","lat":51.490077,"lon":0.013051,"name":"Millennium Leisure Park West","parentId":"490G00013356","stationId":"490G00013356","stopLetter":"ME","topMostParentId":"490G00013356"},{"icsId":"1011853","id":"490011853E","lat":51.489245,"lon":0.015909,"name":"Millennium Leisure Park East","parentId":"490G00011853","stationId":"490G00011853","stopLetter":"MF","topMostParentId":"490G00011853"},{"icsId":"1010912","id":"490010912E","lat":51.490065,"lon":0.022082,"name":"Peninsular Park Road","parentId":"490G00010912","stationId":"490G00010912","topMostParentId":"490G00010912"},{"icsId":"1003310","id":"490015312E","lat":51.490213,"lon":0.028629,"name":"Anchor and Hope Lane","parentId":"490G00003310","stationId":"490G00003310","topMostParentId":"490G00003310"},{"icsId":"1019755","id":"490001058J","lat":51.487336,"lon":0.031684,"name":"Charlton Stn  / Charlton Church Lane","parentId":"490G000947","stationId":"490G000947","stopLetter":"J","topMostParentId":"490G000947"},{"icsId":"1010146","id":"490010146S","lat":51.484499,"lon":0.033488,"name":"Nadine Street","parentId":"490G00010146","stationId":"490G00010146","stopLetter":"L","topMostParentId":"490G00010146"},{"icsId":"1014245","id":"490014245S","lat":51.481886,"lon":0.035374,"name":"Warren Walk","parentId":"490G00014245","stationId":"490G00014245","stopLetter":"S","topMostParentId":"490G00014245"},{"icsId":"1005015","id":"490005015R","lat":51.482136,"lon":0.038078,"name":"Charlton Village","parentId":"490G00005015","stationId":"490G00005015","stopLetter":"R","topMostParentId":"490G00005015"},{"icsId":"1005013","id":"490005013E","lat":51.482045,"lon":0.041228,"name":"Charlton Park Road","parentId":"490G00005013","stationId":"490G00005013","stopLetter":"C","topMostParentId":"490G00005013"},{"icsId":"1004916","id":"490004916E","lat":51.48251,"lon":0.046031,"name":"Cemetery Lane","parentId":"490G00004916","stationId":"490G00004916","stopLetter":"D","topMostParentId":"490G00004916"},{"icsId":"1006632","id":"490006632N","lat":51.485307,"lon":0.049584,"name":"Erwood Road","parentId":"490G00006632","stationId":"490G00006632","stopLetter":"E","topMostParentId":"490G00006632"},{"icsId":"1006991","id":"490006981S","lat":51.486479,"lon":0.057155,"name":"Repository Road / Artillery Place","parentId":"490G00006991","stationId":"490G00006991","stopLetter":"->S","topMostParentId":"490G00006991"},{"icsId":"1011309","id":"490011309H2","lat":51.478634,"lon":0.052208,"name":"Queen Elizabeth Hospital / Main Entrance","parentId":"490G00011309","stationId":"490G00011309","stopLetter":"H2","topMostParentId":"490G00011309"},{"icsId":"1011307","id":"490011309Z","lat":51.47626,"lon":0.050114,"name":"Queen Elizabeth Hospital / West Entrance","parentId":"490G00011307","stationId":"490G00011307","stopLetter":"H4","topMostParentId":"490G00011307"},{"icsId":"1007509","id":"490007509S","lat":51.474599,"lon":0.047938,"name":"Greenwich Heights","parentId":"490G00007509","stationId":"490G00007509","stopLetter":"H6","topMostParentId":"490G00007509"},{"icsId":"1004460","id":"490004460E","lat":51.472313,"lon":0.049059,"name":"Shooters Hill Road / Baker Road","parentId":"490G00004460","stationId":"490G00004460","stopLetter":"SB","topMostParentId":"490G00004460"},{"icsId":"1012108","id":"490012108E","lat":51.471706,"lon":0.052401,"name":"Shooters Hill Road / Academy Road","parentId":"490G00012108","stationId":"490G00012108","stopLetter":"SC","topMostParentId":"490G00012108"},{"icsId":"1011486","id":"490011486E","lat":51.470703,"lon":0.057814,"name":"Red Lion Lane","parentId":"490G00011486","stationId":"490G00011486","stopLetter":"SD","topMostParentId":"490G00011486"},{"icsId":"1009805","id":"490009803E","lat":51.469396,"lon":0.065631,"name":"Memorial Hospital","parentId":"490G00009805","stationId":"490G00009805","stopLetter":"SE","topMostParentId":"490G00009805"},{"icsId":"1006288","id":"490006288E","lat":51.468661,"lon":0.070075,"name":"Eaglesfield Road","parentId":"490G00006288","stationId":"490G00006288","stopLetter":"SF","topMostParentId":"490G00006288"},{"icsId":"1010701","id":"490010701E","lat":51.467278,"lon":0.078637,"name":"Oxleas Wood / Woodlands Farm","parentId":"490G00010701","stationId":"490G00010701","stopLetter":"SG","topMostParentId":"490G00010701"},{"icsId":"1014349","id":"490014349E","lat":51.466421,"lon":0.083839,"name":"Eastcote Road","parentId":"490G00014349","stationId":"490G00014349","stopLetter":"SH","topMostParentId":"490G00014349"},{"icsId":"1012086","id":"490012086E","lat":51.465457,"lon":0.089525,"name":"Bellegrove Road / Sherwood Road","parentId":"490G00012086","stationId":"490G00012086","stopLetter":"W","topMostParentId":"490G00012086"},{"icsId":"1014364","id":"490014364E","lat":51.46481,"lon":0.093513,"name":"Bellegrove Road / Welling Way","parentId":"490G00014364","stationId":"490G00014364","stopLetter":"E","topMostParentId":"490G00014364"},{"icsId":"1004922","id":"490004922C","lat":51.463891,"lon":0.099114,"name":"Central Avenue / Welling Station","parentId":"490G000446","stationId":"490G000446","stopLetter":"C","topMostParentId":"490G000446"},{"icsId":"1006018","id":"490006018H","lat":51.463016,"lon":0.104789,"name":"Deepdene Road","parentId":"490G00006018","stationId":"490G00006018","stopLetter":"H","topMostParentId":"490G00006018"},{"icsId":"1014353","id":"490014353S","lat":51.462426,"lon":0.108592,"name":"Welling High Street","parentId":"490G00014353","stationId":"490G00014353","stopLetter":"S","topMostParentId":"490G00014353"},{"icsId":"1007611","id":"490007611E","lat":51.461368,"lon":0.115396,"name":"Guy, Earl Of Warwick","parentId":"490G00007611","stationId":"490G00007611","stopLetter":"BA","topMostParentId":"490G00007611"},{"icsId":"1003948","id":"490003948E","lat":51.460291,"lon":0.121248,"name":"Bethel Road","parentId":"490G00003948","stationId":"490G00003948","stopLetter":"BB","topMostParentId":"490G00003948"},{"icsId":"1019788","id":"490016645E","lat":51.459596,"lon":0.124901,"name":"Crook Log Leisure Centre","parentId":"490G00019788","stationId":"490G00019788","stopLetter":"BC","topMostParentId":"490G00019788"},{"icsId":"1005805","id":"490005805E","lat":51.458902,"lon":0.129461,"name":"Crook Log / Dallin Road","parentId":"490G00005805","stationId":"490G00005805","stopLetter":"BD","topMostParentId":"490G00005805"},{"icsId":"1013960","id":"490013960E","lat":51.458386,"lon":0.13259,"name":"Upton Road","parentId":"490G00013960","stationId":"490G00013960","stopLetter":"BK","topMostParentId":"490G00013960"},{"icsId":"1009203","id":"490009203E","lat":51.457724,"lon":0.137352,"name":"Lion Road","parentId":"490G00009203","stationId":"490G00009203","stopLetter":"BL","topMostParentId":"490G00009203"},{"icsId":"1003973","id":"490003973B","lat":51.457114,"lon":0.1417,"name":"Trinity Place","parentId":"490G00003973","stationId":"490G00003973","stopLetter":"B","topMostParentId":"490G00003973"},{"icsId":"1019055","id":"490003975E","lat":51.457397,"lon":0.145369,"name":"Friswell Place","parentId":"490G00019055","stationId":"490G00019055","topMostParentId":"490G00019055"}]}]}