{"direction":"outbound","lineId":"49","lineName":"49","mode":"bus","stopPointSequences":[{"stopPoint":[{"icsId":"1005334","id":"490005333X","lat":51.460805,"lon":-0.167866,"name":"Northcote Road","parentId":"490G00005334","stationId":"490G00005334","stopLetter":"X","topMostParentId":"490G00005334"},{"icsId":"1005333","id":"490005333V","lat":51.461764,"lon":-0.167641,"name":"Clapham Junction / The Northcote","parentId":"490G00005333","stationId":"490G00005333","stopLetter":"V","topMostParentId":"HUBCLJ"},{"icsId":"1005331","id":"490005331E","lat":51.464316,"lon":-0.168129,"name":"Clapham Junction Station  / Falcon Road","parentId":"490G000461","stationId":"490G000461","stopLetter":"E","topMostParentId":"HUBCLJ"},{"icsId":"1009849","id":"490009843F","lat":51.466325,"lon":-0.169531,"name":"Clapham Junction Station  / Falcon Road","parentId":"490G00009849","stationId":"490G00009849","stopLetter":"F","topMostParentId":"490G00009849"},{"icsId":"1008486","id":"490008486N","lat":51.467259,"lon":-0.170602,"name":"Ingrave Street","parentId":"490G00008486","stationId":"490G00008486","stopLetter":"N","topMostParentId":"490G00008486"},{"icsId":"1003687","id":"490003687N1","lat":51.469549,"lon":-0.171547,"name":"Battersea High Street","parentId":"490G00003687","stationId":"490G00003687","stopLetter":"LK","topMostParentId":"490G00003687"},{"icsId":"1004568","id":"490004568E","lat":51.471134,"lon":-0.169353,"name":"Bullen Street","parentId":"490G00004568","stationId":"490G00004568","stopLetter":"LQ","topMostParentId":"490G00004568"},{"icsId":"1013443","id":"490013443N","lat":51.472769,"lon":-0.165817,"name":"The Latchmere","parentId":"490G00013443","stationId":"490G00013443","stopLetter":"LU","topMostParentId":"490G00013443"},{"icsId":"1011197","id":"490011197N","lat":51.474378,"lon":-0.166372,"name":"Prince Of Wales Drive","parentId":"490G00011197","stationId":"490G00011197","stopLetter":"LV","topMostParentId":"490G00011197"},{"icsId":"1003691","id":"490003691N","lat":51.47675,"lon":-0.168523,"name":"Ethelburga Street","parentId":"490G00003691","stationId":"490G00003691","stopLetter":"BH","topMostParentId":"490G00003691"},{"icsId":"1010771","id":"490010771N","lat":51.477781,"lon":-0.16949,"name":"Parkgate Road","parentId":"490G00010771","stationId":"490G00010771","stopLetter":"BJ","topMostParentId":"490G00010771"},{"icsId":"1000441","id":"490003683N","lat":51.479772,"lon":-0.17147,"name":"Battersea Bridge","parentId":"490G000090","stationId":"490G000090","stopLetter":"BL","topMostParentId":"490G000090"},{"icsId":"1005152","id":"490005152N","lat":51.482572,"lon":-0.173979,"name":"Cheyne Walk","parentId":"490G00005152","stationId":"490G00005152","stopLetter":"BM","topMostParentId":"490G00005152"},{"icsId":"1019014","id":"490015145N","lat":51.484071,"lon":-0.175489,"name":"Beaufort Street / King's Road","parentId":"490G00019014","stationId":"490G00019014","stopLetter":"QU","topMostParentId":"490G00019014"},{"icsId":"1010534","id":"490010534E","lat":51.485537,"lon":-0.173832,"name":"Old Church Street","parentId":"490G00010534","stationId":"490G00010534","stopLetter":"KE","topMostParentId":"490G00010534"},{"icsId":"1004809","id":"490008763KF","lat":51.486629,"lon":-0.171138,"name":"Carlyle Square","parentId":"490G00004809","stationId":"490G00004809","stopLetter":"KF","topMostParentId":"490G00004809"},{"icsId":"1005077","id":"490005073KH","lat":51.487847,"lon":-0.169116,"name":"Sydney Street / Chelsea Old Town Hall","parentId":"490G00005077","stationId":"490G00005077","stopLetter":"KH","topMostParentId":"490G00005077"},{"icsId":"1011754","id":"490011754N","lat":51.489638,"lon":-0.170355,"name":"Cale Street / Royal Brompton Hospital","parentId":"490G00011754","stationId":"490G00011754","stopLetter":"HS","topMostParentId":"490G00011754"},{"icsId":"1010603","id":"490010603N","lat":51.492275,"lon":-0.172266,"name":"Onslow Square","parentId":"490G00010603","stationId":"490G00010603","stopLetter":"HT","topMostParentId":"490G00010603"},{"icsId":"1015173","id":"490015173D","lat":51.49345,"lon":-0.173746,"name":"Sth Kensington Stn  / Old Brompton Rd","parentId":"490G000866","stationId":"490G000866","stopLetter":"B","topMostParentId":"490G000866"},{"icsId":"1011324","id":"490011324W","lat":51.493908,"lon":-0.177228,"name":"Queensberry Place","parentId":"490G00011324","stationId":"490G00011324","stopLetter":"V","topMostParentId":"490G00011324"},{"icsId":"1012545","id":"490012545W","lat":51.493714,"lon":-0.179181,"name":"Stanhope Gardens","parentId":"490G00012545","stationId":"490G00012545","stopLetter":"GP","topMostParentId":"490G00012545"},{"icsId":"1000086","id":"490000086A","lat":51.494261,"lon":-0.182573,"name":"Gloucester Road Station","parentId":"490G00086A","stationId":"490G00086A","stopLetter":"GR","topMostParentId":"940GZZLUGTR","zone":"1"},{"icsId":"1005615","id":"490005615N","lat":51.496325,"lon":-0.183471,"name":"Cornwall Gardens","parentId":"490G00005615","stationId":"490G00005615","stopLetter":"GW","topMostParentId":"490G00005615"},{"icsId":"1011335","id":"490011335N","lat":51.498155,"lon":-0.183758,"name":"Queen's Gate Terrace","parentId":"490G00011335","stationId":"490G00011335","stopLetter":"RN","topMostParentId":"490G00011335"},{"icsId":"1010728","id":"490010728N","lat":51.501462,"lon":-0.184174,"name":"Palace Gate","parentId":"490G00010728","stationId":"490G00010728","stopLetter":"RQ","topMostParentId":"490G00010728"},{"icsId":"1011761","id":"490011761N","lat":51.502246,"lon":-0.18776,"name":"Kensington Palace","parentId":"490G00011761","stationId":"490G00011761","stopLetter":"N","topMostParentId":"490G00011761"},{"icsId":"1000110","id":"490000110E","lat":51.501326,"lon":-0.192234,"name":"High Street Kensington Station","parentId":"490G00110R","stationId":"490G00110R","stopLetter":"E","topMostParentId":"940GZZLUHSK","zone":"1"},{"icsId":"1010984","id":"490010984T","lat":51.499808,"lon":-0.196487,"name":"Phillimore Gardens","parentId":"490G00010984","stationId":"490G00010984","stopLetter":"T","topMostParentId":"490G00010984"},{"icsId":"1005528","id":"490005528X","lat":51.498772,"lon":-0.199279,"name":"The Design Museum","parentId":"490G00005528","stationId":"490G00005528","stopLetter":"X","topMostParentId":"490G00005528"},{"icsId":"1003106","id":"490003106W","lat":51.497528,"lon":-0.203175,"name":"Warwick Gardens","parentId":"490G00003106","stationId":"490G00003106","stopLetter":"Z","topMostParentId":"490G00003106"},{"icsId":"1010149","id":"490010149J","lat":51.497087,"lon":-0.206664,"name":"Holland Rd / Kensington Olympia Stn","parentId":"490G00010149","stationId":"490G00010149","stopLetter":"M","topMostParentId":"490G00010149"},{"icsId":"1008286","id":"490008286N","lat":51.498822,"lon":-0.209002,"name":"Holland Gardens","parentId":"490G000597","stationId":"490G000597","stopLetter":"N","topMostParentId":"490G000597"},{"icsId":"1011812","id":"490011812N","lat":51.500659,"lon":-0.211495,"name":"Russell Gardens","parentId":"490G00011812","stationId":"490G00011812","stopLetter":"Q","topMostParentId":"490G00011812"},{"icsId":"1009406","id":"490009406N","lat":51.502109,"lon":-0.213441,"name":"Lower Addison Gardens","parentId":"490G00009406","stationId":"490G00009406","stopLetter":"->N","topMostParentId":"490G00009406"},{"icsId":"1019901","id":"490013928N","lat":51.50344,"lon":-0.215233,"name":"Holland Road / Upper Addison Gardens","parentId":"490G00019901","stationId":"490G00019901","stopLetter":"->N","topMostParentId":"490G00019901"},{"icsId":"1000203","id":"490000203B","lat":51.505409,"lon":-0.218154,"name":"Shepherd's Bush Station","parentId":"490G00203A","stationId":"490G00203A","stopLetter":"B","topMostParentId":"HUBSPB","zone":"2"},{"icsId":"1003375","id":"490003375AP","lat":51.508808,"lon":-0.224059,"name":"White City Bus Station","parentId":"490G00003375","stationId":"490G00003375","stopLetter":"WG","topMostParentId":"490G00003375"}]}]}