{"direction":"outbound","lineId":"490","lineName":"490","mode":"bus","stopPointSequences":[{"stopPoint":[{"icsId":"1018677","id":"490018677N","lat":51.465331,"lon":-0.305577,"name":"Pools on The Park","parentId":"490G00018677","stationId":"490G00018677","topMostParentId":"490G00018677"},{"icsId":"1000192","id":"490000192S","lat":51.46324,"lon":-0.302171,"name":"Richmond Station","parentId":"490G00192M","stationId":"490G00192M","stopLetter":"E","topMostParentId":"HUBRMD","zone":"4"},{"icsId":"1013511","id":"490013511F","lat":51.461938,"lon":-0.302924,"name":"The Quadrant","parentId":"490G00013511","stationId":"490G00013511","stopLetter":"F","topMostParentId":"490G00013511"},{"icsId":"1011556","id":"490011556J","lat":51.459103,"lon":-0.304584,"name":"Richmond Bus Station","parentId":"490G00011556","stationId":"490G00011556","stopLetter":"J","topMostParentId":"490G00011556"},{"icsId":"1005755","id":"490005755W","lat":51.456112,"lon":-0.309186,"name":"Cresswell Road","parentId":"490G00005755","stationId":"490G00005755","stopLetter":"X","topMostParentId":"490G00005755"},{"icsId":"1004705","id":"490004705W","lat":51.454804,"lon":-0.311436,"name":"Cambridge Park","parentId":"490G00004705","stationId":"490G00004705","stopLetter":"B","topMostParentId":"490G00004705"},{"icsId":"1012460","id":"490012460S","lat":51.453023,"lon":-0.313215,"name":"St Stephen's Church","parentId":"490G00012460","stationId":"490G00012460","stopLetter":"C","topMostParentId":"490G00012460"},{"icsId":"1005841","id":"490005841T","lat":51.451689,"lon":-0.316804,"name":"Marble Hill Park / Crown Road","parentId":"490G00005841","stationId":"490G00005841","stopLetter":"D","topMostParentId":"490G00005841"},{"icsId":"1018556","id":"490018556E","lat":51.450707,"lon":-0.320439,"name":"Orleans Park School","parentId":"490G00018556","stationId":"490G00018556","stopLetter":"E","topMostParentId":"490G00018556"},{"icsId":"1009053","id":"490009053W","lat":51.448851,"lon":-0.323932,"name":"Lebanon Court","parentId":"490G00009053","stationId":"490G00009053","stopLetter":"F","topMostParentId":"490G00009053"},{"icsId":"1015022","id":"490015022W","lat":51.44707,"lon":-0.32771,"name":"York Street / Twickenham","parentId":"490G00015022","stationId":"490G00015022","stopLetter":"G","topMostParentId":"490G00015022"},{"icsId":"1020202","id":"490020202SW","lat":51.445402,"lon":-0.330505,"name":"Heath Road / Twickenham","parentId":"490G00020202","stationId":"490G00020202","stopLetter":"L","topMostParentId":"490G00020202"},{"icsId":"1008009","id":"490008009W","lat":51.445269,"lon":-0.336324,"name":"Heath Road / Grove Avenue","parentId":"490G00008009","stationId":"490G00008009","stopLetter":"GS","topMostParentId":"490G00008009"},{"icsId":"1013869","id":"490013869W","lat":51.444386,"lon":-0.341968,"name":"Twickenham Green","parentId":"490G00013869","stationId":"490G00013869","stopLetter":"GC","topMostParentId":"490G00013869"},{"icsId":"1013506","id":"490013564W","lat":51.444154,"lon":-0.345919,"name":"First Cross Road","parentId":"490G00013506","stationId":"490G00013506","stopLetter":"GD","topMostParentId":"490G00013506"},{"icsId":"1009771","id":"490009771E","lat":51.443284,"lon":-0.349274,"name":"Meadway","parentId":"490G00009771","stationId":"490G00009771","stopLetter":"GE","topMostParentId":"490G00009771"},{"icsId":"1009919","id":"490009919W","lat":51.441371,"lon":-0.35389,"name":"Mill Road","parentId":"490G00009919","stationId":"490G00009919","stopLetter":"GF","topMostParentId":"490G00009919"},{"icsId":"1012184","id":"490012184W","lat":51.439487,"lon":-0.359958,"name":"Sixth Cross Road","parentId":"490G00012184","stationId":"490G00012184","stopLetter":"T","topMostParentId":"490G00012184"},{"icsId":"1014251","id":"490014251W","lat":51.438771,"lon":-0.364113,"name":"Warwick Lodge / Staines Road","parentId":"490G00014251","stationId":"490G00014251","stopLetter":"U","topMostParentId":"490G00014251"},{"icsId":"1005651","id":"490005651W","lat":51.438043,"lon":-0.367995,"name":"Court Close Avenue","parentId":"490G00005651","stationId":"490G00005651","stopLetter":"V","topMostParentId":"490G00005651"},{"icsId":"1013868","id":"490013868W","lat":51.437306,"lon":-0.371892,"name":"Twickenham Golf Centre","parentId":"490G00013868","stationId":"490G00013868","stopLetter":"K","topMostParentId":"490G00013868"},{"icsId":"1007764","id":"490007764W2","lat":51.436599,"lon":-0.376665,"name":"Twickenham Road","parentId":"490G00007764","stationId":"490G00007764","stopLetter":"L","topMostParentId":"490G00007764"},{"icsId":"1015342","id":"490015342W1","lat":51.437255,"lon":-0.38054,"name":"Apex Corner / Hampton Road West","parentId":"490G00015342","stationId":"490G00015342","stopLetter":"U","topMostParentId":"490G00015342"},{"icsId":"1007730","id":"490007730N","lat":51.438261,"lon":-0.383037,"name":"Popham Close","parentId":"490G00007730","stationId":"490G00007730","stopLetter":"V","topMostParentId":"490G00007730"},{"icsId":"1008402","id":"490008402W","lat":51.439808,"lon":-0.387026,"name":"Hounslow Road / Hanworth","parentId":"490G00008402","stationId":"490G00008402","stopLetter":"AH","topMostParentId":"490G00008402"},{"icsId":"1006780","id":"490006780N","lat":51.442403,"lon":-0.392589,"name":"Hanworth Air Park Leisure Ctr & Library","parentId":"490G00006780","stationId":"490G00006780","stopLetter":"AJ","topMostParentId":"490G00006780"},{"icsId":"1014673","id":"490014673S2","lat":51.443464,"lon":-0.3952,"name":"Wigley Road","parentId":"490G00014673","stationId":"490G00014673","stopLetter":"AK","topMostParentId":"490G00014673"},{"icsId":"1004504","id":"490004504N","lat":51.44482,"lon":-0.398376,"name":"Browells Lane","parentId":"490G00004504","stationId":"490G00004504","stopLetter":"AL","topMostParentId":"490G00004504"},{"icsId":"1008412","id":"490008400W","lat":51.452707,"lon":-0.40639,"name":"Harlington Road East","parentId":"490G00008412","stationId":"490G00008412","stopLetter":"E","topMostParentId":"490G00008412"},{"icsId":"1007813","id":"490007813N","lat":51.456401,"lon":-0.409543,"name":"Lansbury Avenue","parentId":"490G00007813","stationId":"490G00007813","stopLetter":"F","topMostParentId":"490G00007813"},{"icsId":"1004940","id":"490004940N","lat":51.459963,"lon":-0.41296,"name":"Central Way","parentId":"490G00004940","stationId":"490G00004940","stopLetter":"G","topMostParentId":"490G00004940"},{"icsId":"1007902","id":"490007902N","lat":51.463756,"lon":-0.416125,"name":"Hatton Green","parentId":"490G00007902","stationId":"490G00007902","stopLetter":"->N","topMostParentId":"490G00007902"},{"icsId":"1007904","id":"490007904J","lat":51.466015,"lon":-0.421618,"name":"Great South West Road","parentId":"490G00007904","stationId":"490G00007904","stopLetter":"J","topMostParentId":"490G00007904"},{"icsId":"1000103","id":"490000103E","lat":51.466745,"lon":-0.423738,"name":"Hatton Cross Station","parentId":"490G00103G","stationId":"490G00103G","stopLetter":"A","topMostParentId":"940GZZLUHNX","zone":"5+6"},{"icsId":"1012056","id":"490012056W","lat":51.460097,"lon":-0.438981,"name":"Sheffield Way","parentId":"490G00012056","stationId":"490G00012056","stopLetter":"->W","topMostParentId":"490G00012056"},{"icsId":"1000104","id":"490000104N","lat":51.459585,"lon":-0.445822,"name":"Heathrow Terminal 4","parentId":"490G00104A","stationId":"490G00104A","stopLetter":"7","topMostParentId":"HUBHX4","zone":"6"},{"icsId":"1011963","id":"490011963W","lat":51.456578,"lon":-0.44755,"name":"Scylla Road","parentId":"490G00011963","stationId":"490G00011963","stopLetter":"->W","topMostParentId":"490G00011963"},{"icsId":"1004355","id":"490004355N","lat":51.45872,"lon":-0.460663,"name":"Cargo Centre","parentId":"490G00004355","stationId":"490G00004355","stopLetter":"->N","topMostParentId":"490G00004355"},{"icsId":"1011966","id":"490011966W","lat":51.457544,"lon":-0.461537,"name":"Sealand Road","parentId":"490G00011966","stationId":"490G00011966","stopLetter":"->W","topMostParentId":"490G00011966"},{"icsId":"1015440","id":"490015440S","lat":51.458772,"lon":-0.468074,"name":"Stirling Road","parentId":"490G00015440","stationId":"490G00015440","topMostParentId":"490G00015440"},{"icsId":"1016430","id":"4900164301","lat":51.473143,"lon":-0.489666,"name":"Heathrow Terminal 5","parentId":"HUBHX5","stationId":"910GHTRBUS5","stopLetter":"1","topMostParentId":"HUBHX5","zone":"6"}]}]}