{"direction":"outbound","lineId":"491","lineName":"491","mode":"bus","stopPointSequences":[{"stopPoint":[{"icsId":"1014156","id":"210021703425","lat":51.685627,"lon":-0.031351,"name":"Waltham Cross Bus Station","parentId":"210G432","stationId":"210G432","stopLetter":"B","topMostParentId":"210G432"},{"icsId":"1003378","id":"490003378G","lat":51.682164,"lon":-0.03344,"name":"Arlington Crescent","parentId":"490G00003378","stationId":"490G00003378","stopLetter":"H","topMostParentId":"490G00003378"},{"icsId":"1020071","id":"490020071S","lat":51.676737,"lon":-0.02086,"name":"Innova Park","parentId":"490G00020071","stationId":"490G00020071","stopLetter":"->S","topMostParentId":"490G00020071"},{"icsId":"1020082","id":"490020082E","lat":51.675015,"lon":-0.022193,"name":"Solar Way","parentId":"490G00020082","stationId":"490G00020082","stopLetter":"->E","topMostParentId":"490G00020082"},{"icsId":"1004882","id":"490004882E","lat":51.670932,"lon":-0.017931,"name":"Causeway Bridge / River Lee","parentId":"490G00004882","stationId":"490G00004882","stopLetter":"->E","topMostParentId":"490G00004882"},{"icsId":"1007600","id":"490007600E","lat":51.670316,"lon":-0.014979,"name":"Gunner Drive","parentId":"490G00007600","stationId":"490G00007600","stopLetter":"->E","topMostParentId":"490G00007600"},{"icsId":"1004735","id":"490004735S","lat":51.668013,"lon":-0.015455,"name":"Canal Side Walk","parentId":"490G00004735","stationId":"490G00004735","stopLetter":"->S","topMostParentId":"490G00004735"},{"icsId":"1006582","id":"490006582N","lat":51.666124,"lon":-0.015408,"name":"Enfield Island Village","parentId":"490G00006582","stationId":"490G00006582","topMostParentId":"490G00006582"},{"icsId":"1004735","id":"490004735N","lat":51.668596,"lon":-0.015387,"name":"Canal Side Walk","parentId":"490G00004735","stationId":"490G00004735","stopLetter":"->N","topMostParentId":"490G00004735"},{"icsId":"1007600","id":"490007600W","lat":51.670307,"lon":-0.0155,"name":"Gunner Drive","parentId":"490G00007600","stationId":"490G00007600","stopLetter":"->W","topMostParentId":"490G00007600"},{"icsId":"1004882","id":"490004882W","lat":51.670753,"lon":-0.017982,"name":"Causeway Bridge / River Lee","parentId":"490G00004882","stationId":"490G00004882","stopLetter":"->W","topMostParentId":"490G00004882"},{"icsId":"1009965","id":"490009964W","lat":51.670683,"lon":-0.020198,"name":"Ordnance Road / Mollison Avenue","parentId":"490G00009965","stationId":"490G00009965","topMostParentId":"490G00009965"},{"icsId":"1011175","id":"490011175S","lat":51.668944,"lon":-0.026912,"name":"Preston Gardens","parentId":"490G000711","stationId":"490G000711","stopLetter":"->S","topMostParentId":"490G000711"},{"icsId":"1013230","id":"490013230S","lat":51.66351,"lon":-0.027871,"name":"Bilton Way / Mollison Avenue","parentId":"490G00013230","stationId":"490G00013230","stopLetter":"->S","topMostParentId":"490G00013230"},{"icsId":"1009238","id":"490009238S","lat":51.658851,"lon":-0.029432,"name":"Millmarsh Lane","parentId":"490G00009238","stationId":"490G00009238","stopLetter":"P","topMostParentId":"490G00009238"},{"icsId":"1004348","id":"490004348D","lat":51.655445,"lon":-0.029002,"name":"Green Street / Brimsdown Station","parentId":"490G000425","stationId":"490G000425","stopLetter":"Q","topMostParentId":"490G000425"},{"icsId":"1004235","id":"490004235S","lat":51.652339,"lon":-0.02879,"name":"Jeffreys Road","parentId":"490G00004235","stationId":"490G00004235","stopLetter":"R","topMostParentId":"490G00004235"},{"icsId":"1006212","id":"490013768S","lat":51.648117,"lon":-0.030129,"name":"Duck Lees Lane","parentId":"490G00006212","stationId":"490G00006212","stopLetter":"PE","topMostParentId":"490G00006212"},{"icsId":"1015698","id":"490015698S","lat":51.645543,"lon":-0.031614,"name":"Lea Valley Road","parentId":"490G00015698","stationId":"490G00015698","stopLetter":"PF","topMostParentId":"490G00015698"},{"icsId":"1001228","id":"490009813C","lat":51.644906,"lon":-0.033289,"name":"Ponders End Station","parentId":"490G01228S","stationId":"490G01228S","stopLetter":"PK","topMostParentId":"910GPNDRSEN"},{"icsId":"1003219","id":"490003219W","lat":51.647092,"lon":-0.038702,"name":"Scotland Green Road","parentId":"490G00003219","stationId":"490G00003219","stopLetter":"PL","topMostParentId":"490G00003219"},{"icsId":"1008101","id":"490008101E","lat":51.648162,"lon":-0.045218,"name":"Ponders End High Street","parentId":"490G000592","stationId":"490G000592","stopLetter":"E","topMostParentId":"490G000592"},{"icsId":"1015442","id":"490015441J","lat":51.64751,"lon":-0.046562,"name":"Southbury Road","parentId":"490G00015442","stationId":"490G00015442","stopLetter":"J","topMostParentId":"490G00015442"},{"icsId":"1011367","id":"490012335L","lat":51.644763,"lon":-0.046275,"name":"Ponders End Park","parentId":"490G00011367","stationId":"490G00011367","stopLetter":"L","topMostParentId":"490G00011367"},{"icsId":"1010364","id":"490010364S","lat":51.641665,"lon":-0.047102,"name":"Orchard Road","parentId":"490G00010364","stationId":"490G00010364","stopLetter":"LZ","topMostParentId":"490G00010364"},{"icsId":"1004180","id":"490004180S","lat":51.629424,"lon":-0.056153,"name":"Bounces Road","parentId":"490G00004180","stationId":"490G00004180","stopLetter":"LF","topMostParentId":"490G00004180"},{"icsId":"1004181","id":"490004181W","lat":51.627494,"lon":-0.056336,"name":"Monmouth Road","parentId":"490G00004181","stationId":"490G00004181","stopLetter":"LH","topMostParentId":"490G00004181"},{"icsId":"1009983","id":"490009983G","lat":51.625477,"lon":-0.058893,"name":"Edmonton Green Bus Station","parentId":"490G00009983","stationId":"490G00009983","stopLetter":"G","topMostParentId":"490G00009983"},{"icsId":"1006445","id":"490006445A","lat":51.622675,"lon":-0.061324,"name":"Edmonton Police Station","parentId":"490G00006445","stationId":"490G00006445","stopLetter":"J","topMostParentId":"490G00006445"},{"icsId":"1011968","id":"490011968S","lat":51.621136,"lon":-0.061794,"name":"Shrubbery Road","parentId":"490G00011968","stationId":"490G00011968","stopLetter":"K","topMostParentId":"490G00011968"},{"icsId":"1010801","id":"490010801G","lat":51.617877,"lon":-0.063161,"name":"Brettenham Road","parentId":"490G00010801","stationId":"490G00010801","stopLetter":"G","topMostParentId":"490G00010801"},{"icsId":"1003322","id":"490015189D","lat":51.616688,"lon":-0.063602,"name":"Angel Corner","parentId":"490G00003322","stationId":"490G00003322","stopLetter":"D","topMostParentId":"490G00003322"},{"icsId":"1003324","id":"490003324A","lat":51.61458,"lon":-0.065555,"name":"Angel Corner / Silver Street Station","parentId":"490G000389","stationId":"490G000389","stopLetter":"A","topMostParentId":"490G000389"},{"icsId":"1019845","id":"490019845W","lat":51.614422,"lon":-0.069649,"name":"Gloucester Road","parentId":"490G00019845","stationId":"490G00019845","stopLetter":"V","topMostParentId":"490G00019845"},{"icsId":"1015155","id":"490015155E1","lat":51.612895,"lon":-0.07578,"name":"North Middlesex Hospital","parentId":"490G00015155","stationId":"490G00015155","stopLetter":"S","topMostParentId":"490G00015155"}]}]}