{"direction":"outbound","lineId":"499","lineName":"499","mode":"bus","stopPointSequences":[{"stopPoint":[{"icsId":"1007096","id":"490007096N","lat":51.592632,"lon":0.21981,"name":"Gallows Corner / Tesco","parentId":"490G00007096","stationId":"490G00007096","stopLetter":"GA","topMostParentId":"490G00007096"},{"icsId":"1007097","id":"490007095S2","lat":51.593237,"lon":0.215379,"name":"Gallows Corner Retail Park","parentId":"490G00007097","stationId":"490G00007097","stopLetter":"GD","topMostParentId":"490G00007097"},{"icsId":"1007095","id":"490007095N1","lat":51.594137,"lon":0.212982,"name":"Gallows Corner","parentId":"490G00007095","stationId":"490G00007095","stopLetter":"GL","topMostParentId":"490G00007095"},{"icsId":"1006738","id":"490006738N","lat":51.596852,"lon":0.212089,"name":"Faringdon Avenue","parentId":"490G00006738","stationId":"490G00006738","stopLetter":"GK","topMostParentId":"490G00006738"},{"icsId":"1015788","id":"490015788N","lat":51.598708,"lon":0.209522,"name":"Heaton Avenue  Keats Avenue","parentId":"490G00015788","stationId":"490G00015788","stopLetter":"->W","topMostParentId":"490G00015788"},{"icsId":"1019757","id":"490015788N1","lat":51.60097,"lon":0.203971,"name":"Keats Avenue","parentId":"490G00019757","stationId":"490G00019757","topMostParentId":"490G00019757"},{"icsId":"1020316","id":"490020316S","lat":51.602659,"lon":0.204559,"name":"Grange Road  Archway","parentId":"490G00020316","stationId":"490G00020316","stopLetter":"->S","topMostParentId":"490G00020316"},{"icsId":"1020317","id":"490020317E","lat":51.603614,"lon":0.208778,"name":"Hilldene Primary School","parentId":"490G00020317","stationId":"490G00020317","topMostParentId":"490G00020317"},{"icsId":"1007354","id":"490007354N","lat":51.604086,"lon":0.209466,"name":"Grange Road","parentId":"490G00007354","stationId":"490G00007354","stopLetter":"->N","topMostParentId":"490G00007354"},{"icsId":"1012895","id":"490012895E","lat":51.605334,"lon":0.211014,"name":"Charlbury Crescent","parentId":"490G00012895","stationId":"490G00012895","stopLetter":"->E","topMostParentId":"490G00012895"},{"icsId":"1004992","id":"490004992E","lat":51.606104,"lon":0.213579,"name":"Chatteris Avenue","parentId":"490G00004992","stationId":"490G00004992","stopLetter":"->E","topMostParentId":"490G00004992"},{"icsId":"1006762","id":"490006762E","lat":51.607701,"lon":0.219029,"name":"Hilldene Avenue Shopping Centre","parentId":"490G00006762","stationId":"490G00006762","stopLetter":"->E","topMostParentId":"490G00006762"},{"icsId":"1005187","id":"490005187E","lat":51.608384,"lon":0.221908,"name":"Chippenham Road","parentId":"490G00005187","stationId":"490G00005187","stopLetter":"HJ","topMostParentId":"490G00005187"},{"icsId":"1006122","id":"490006122N","lat":51.609245,"lon":0.221545,"name":"Dorking Road","parentId":"490G00006122","stationId":"490G00006122","stopLetter":"NK","topMostParentId":"490G00006122"},{"icsId":"1006127","id":"490006127N","lat":51.610582,"lon":0.21839,"name":"Dorking Walk","parentId":"490G00006127","stationId":"490G00006127","stopLetter":"->N","topMostParentId":"490G00006127"},{"icsId":"1014747","id":"490014747N","lat":51.615073,"lon":0.217727,"name":"Wincanton Road","parentId":"490G00014747","stationId":"490G00014747","topMostParentId":"490G00014747"},{"icsId":"1008889","id":"490008889W","lat":51.614302,"lon":0.214714,"name":"Kynance Close","parentId":"490G00008889","stationId":"490G00008889","stopLetter":"->W","topMostParentId":"490G00008889"},{"icsId":"1013169","id":"490013169W","lat":51.612967,"lon":0.212064,"name":"Taunton Road","parentId":"490G00013169","stationId":"490G00013169","stopLetter":"->W","topMostParentId":"490G00013169"},{"icsId":"1007656","id":"490007644W","lat":51.609123,"lon":0.206085,"name":"Straight Road","parentId":"490G00007656","stationId":"490G00007656","topMostParentId":"490G00007656"},{"icsId":"1016685","id":"490016685E","lat":51.60322,"lon":0.183689,"name":"Helmsdale Road","parentId":"490G00016685","stationId":"490G00016685","stopLetter":"CK","topMostParentId":"490G00016685"},{"icsId":"1004726","id":"490004726S","lat":51.602438,"lon":0.180273,"name":"Campbell Close","parentId":"490G00004726","stationId":"490G00004726","stopLetter":"CP","topMostParentId":"490G00004726"},{"icsId":"1007128","id":"490007128S","lat":51.601045,"lon":0.179282,"name":"Garry Way","parentId":"490G00007128","stationId":"490G00007128","stopLetter":"CQ","topMostParentId":"490G00007128"},{"icsId":"1010016","id":"490010016S","lat":51.598907,"lon":0.176696,"name":"Moray Way","parentId":"490G00010016","stationId":"490G00010016","stopLetter":"CR","topMostParentId":"490G00010016"},{"icsId":"1009715","id":"490009715S","lat":51.596261,"lon":0.175356,"name":"Mashiters Hill","parentId":"490G00009715","stationId":"490G00009715","stopLetter":"CS","topMostParentId":"490G00009715"},{"icsId":"1007988","id":"490007988E","lat":51.595261,"lon":0.178398,"name":"Heather Close","parentId":"490G00007988","stationId":"490G00007988","stopLetter":"CT","topMostParentId":"490G00007988"},{"icsId":"1007989","id":"490007989S","lat":51.59325,"lon":0.181132,"name":"Heather Gardens","parentId":"490G00007989","stationId":"490G00007989","stopLetter":"->S","topMostParentId":"490G00007989"},{"icsId":"1015787","id":"490015787S","lat":51.59061,"lon":0.18281,"name":"Marshalls Park Academy","parentId":"490G00015787","stationId":"490G00015787","stopLetter":"->S","topMostParentId":"490G00015787"},{"icsId":"1020318","id":"490020318S","lat":51.587996,"lon":0.185067,"name":"Parkland Avenue","parentId":"490G00020318","stationId":"490G00020318","stopLetter":"->S","topMostParentId":"490G00020318"},{"icsId":"1020319","id":"490020319S","lat":51.585823,"lon":0.186392,"name":"Havering Drive","parentId":"490G00020319","stationId":"490G00020319","stopLetter":"->S","topMostParentId":"490G00020319"},{"icsId":"1018247","id":"490018247S","lat":51.583114,"lon":0.188413,"name":"Pettits Lane Romford","parentId":"490G00018247","stationId":"490G00018247","stopLetter":"->S","topMostParentId":"490G00018247"},{"icsId":"1010974","id":"490010974MA","lat":51.582249,"lon":0.187996,"name":"Pettits Lane","parentId":"490G00010974","stationId":"490G00010974","topMostParentId":"490G00010974"},{"icsId":"1009810","id":"490009810K","lat":51.57911,"lon":0.185131,"name":"Mercury Gardens","parentId":"490G00009810","stationId":"490G00009810","stopLetter":"K","topMostParentId":"490G00009810"},{"icsId":"1014452","id":"490014452Q","lat":51.577133,"lon":0.184084,"name":"Western Road","parentId":"490G00014452","stationId":"490G00014452","stopLetter":"Q","topMostParentId":"490G00014452"},{"icsId":"1001243","id":"490001243T","lat":51.574405,"lon":0.183794,"name":"Romford Station","parentId":"490G01243W","stationId":"490G01243W","stopLetter":"T","topMostParentId":"910GROMFORD"},{"icsId":"1011667","id":"490011667HD","lat":51.571378,"lon":0.182163,"name":"Rom Valley Way","parentId":"490G00011667","stationId":"490G00011667","stopLetter":"HD","topMostParentId":"490G00011667"},{"icsId":"1016444","id":"490016444HL","lat":51.568498,"lon":0.181809,"name":"Queen's Hospital","parentId":"490G00016444","stationId":"490G00016444","stopLetter":"HL","topMostParentId":"490G00016444"},{"icsId":"1015408","id":"490015408E1","lat":51.570358,"lon":0.177511,"name":"Oldchurch Rise","parentId":"490G00015408","stationId":"490G00015408","stopLetter":"HC","topMostParentId":"490G00015408"},{"icsId":"1000780","id":"490000780Z","lat":51.569139,"lon":0.172459,"name":"Romford Cemetery","parentId":"490G000135","stationId":"490G000135","topMostParentId":"490G000135"},{"icsId":"1000779","id":"490020320W","lat":51.568744,"lon":0.166091,"name":"Bernard Road","parentId":"490G000134","stationId":"490G000134","topMostParentId":"490G000134"},{"icsId":"1008600","id":"490008600X","lat":51.5684,"lon":0.161328,"name":"Jutsums Lane  Crow Lane","parentId":"490G00008600","stationId":"490G00008600","topMostParentId":"490G00008600"},{"icsId":"1011964","id":"490011964X","lat":51.568543,"lon":0.153542,"name":"Seabrook Gardens","parentId":"490G00011964","stationId":"490G00011964","stopLetter":"->W","topMostParentId":"490G00011964"},{"icsId":"1020321","id":"490020321W","lat":51.569026,"lon":0.146812,"name":"Warley Avenue","parentId":"490G00020321","stationId":"490G00020321","stopLetter":"->W","topMostParentId":"490G00020321"},{"icsId":"1012547","id":"490012547S","lat":51.566716,"lon":0.145317,"name":"Stanley Avenue","parentId":"490G00012547","stationId":"490G00012547","stopLetter":"S","topMostParentId":"490G00012547"},{"icsId":"1008536","id":"490008536T","lat":51.563269,"lon":0.146901,"name":"James Avenue","parentId":"490G00008536","stationId":"490G00008536","stopLetter":"T","topMostParentId":"490G00008536"},{"icsId":"1003762","id":"490003762E","lat":51.559214,"lon":0.14785,"name":"Morris Road","parentId":"490G00003762","stationId":"490G00003762","stopLetter":"E","topMostParentId":"490G00003762"},{"icsId":"1009207","id":"490009207E","lat":51.55731,"lon":0.151655,"name":"Stansgate Road Shops","parentId":"490G00009207","stationId":"490G00009207","topMostParentId":"490G00009207"}]}]}