{"direction":"outbound","lineId":"50","lineName":"50","mode":"bus","stopPointSequences":[{"stopPoint":[{"icsId":"1010839","id":"490010839C1","lat":51.373557,"lon":-0.097772,"name":"Park Street","parentId":"490G00010839","stationId":"490G00010839","stopLetter":"KE","topMostParentId":"490G00010839"},{"icsId":"1014614","id":"490014614E15","lat":51.376103,"lon":-0.0984,"name":"Whitgift Centre","parentId":"490G00014614","stationId":"490G00014614","stopLetter":"WL","topMostParentId":"490G00014614"},{"icsId":"1006027","id":"490006027W9","lat":51.378695,"lon":-0.100232,"name":"Delta Point","parentId":"490G00006027","stationId":"490G00006027","stopLetter":"WP","topMostParentId":"490G00006027"},{"icsId":"1003793","id":"490003793N","lat":51.381371,"lon":-0.099388,"name":"Bedford Hall","parentId":"490G00003793","stationId":"490G00003793","stopLetter":"K","topMostParentId":"490G00003793"},{"icsId":"1008271","id":"490008271E","lat":51.383676,"lon":-0.099609,"name":"Hogarth Crescent","parentId":"490G00008271","stationId":"490G00008271","stopLetter":"L","topMostParentId":"490G00008271"},{"icsId":"1013376","id":"490013376N","lat":51.386354,"lon":-0.097242,"name":"Devonshire Road","parentId":"490G00013376","stationId":"490G00013376","stopLetter":"J","topMostParentId":"490G00013376"},{"icsId":"1013314","id":"490013314N","lat":51.390773,"lon":-0.09473,"name":"The Crescent","parentId":"490G00013314","stationId":"490G00013314","stopLetter":"S","topMostParentId":"490G00013314"},{"icsId":"1010868","id":"490010868N","lat":51.393555,"lon":-0.093824,"name":"Pawsons Road","parentId":"490G00010868","stationId":"490G00010868","stopLetter":"T","topMostParentId":"490G00010868"},{"icsId":"1015026","id":"490015026M","lat":51.396837,"lon":-0.092681,"name":"Talbot Road","parentId":"490G00015026","stationId":"490G00015026","stopLetter":"M","topMostParentId":"490G00015026"},{"icsId":"1015449","id":"490015449H","lat":51.398708,"lon":-0.097146,"name":"Thornton Heath Clock Tower","parentId":"490G000896","stationId":"490G000896","stopLetter":"H","topMostParentId":"490G000896"},{"icsId":"1001294","id":"490001294C","lat":51.398458,"lon":-0.099457,"name":"Thornton Heath Station","parentId":"490G01294C","stationId":"490G01294C","stopLetter":"C","topMostParentId":"910GTHTH"},{"icsId":"1015279","id":"490015279N","lat":51.400256,"lon":-0.103867,"name":"Brook Road","parentId":"490G00015279","stationId":"490G00015279","stopLetter":"->N","topMostParentId":"490G00015279"},{"icsId":"1015424","id":"490015424N","lat":51.402146,"lon":-0.106765,"name":"Sandfield Road","parentId":"490G00015424","stationId":"490G00015424","stopLetter":"->N","topMostParentId":"490G00015424"},{"icsId":"1004232","id":"490004232N","lat":51.403885,"lon":-0.109195,"name":"Braemar Avenue","parentId":"490G00004232","stationId":"490G00004232","stopLetter":"->N","topMostParentId":"490G00004232"},{"icsId":"1006413","id":"490006413N","lat":51.405948,"lon":-0.11223,"name":"Ederline Avenue","parentId":"490G00006413","stationId":"490G00006413","stopLetter":"->N","topMostParentId":"490G00006413"},{"icsId":"1006240","id":"490006240N","lat":51.407635,"lon":-0.114806,"name":"Dunbar Avenue","parentId":"490G00006240","stationId":"490G00006240","stopLetter":"->N","topMostParentId":"490G00006240"},{"icsId":"1012715","id":"490012715N","lat":51.409353,"lon":-0.11928,"name":"Norbury Crescent / St Helen's Road","parentId":"490G00012715","stationId":"490G00012715","topMostParentId":"490G00012715"},{"icsId":"1009285","id":"490009285E","lat":51.409438,"lon":-0.12175,"name":"St Helen's Road","parentId":"490G00009285","stationId":"490G00009285","stopLetter":"E","topMostParentId":"490G00009285"},{"icsId":"1001209","id":"490001209B","lat":51.410862,"lon":-0.123086,"name":"Norbury Station","parentId":"490G01209B","stationId":"490G01209B","stopLetter":"B","topMostParentId":"910GNORBURY"},{"icsId":"1008080","id":"490008080K","lat":51.413854,"lon":-0.124617,"name":"Hermitage Lane","parentId":"490G00008080","stationId":"490G00008080","stopLetter":"K","topMostParentId":"490G00008080"},{"icsId":"1003389","id":"490003389N","lat":51.416691,"lon":-0.125982,"name":"Arragon Gardens","parentId":"490G00003389","stationId":"490G00003389","stopLetter":"CK","topMostParentId":"490G00003389"},{"icsId":"1008618","id":"490008618N","lat":51.419033,"lon":-0.127972,"name":"Kempshott Road","parentId":"490G00008618","stationId":"490G00008618","stopLetter":"CL","topMostParentId":"490G00008618"},{"icsId":"1012924","id":"490012924N","lat":51.42116,"lon":-0.12882,"name":"Streatham Common / Greyhound Lane","parentId":"490G00012924","stationId":"490G00012924","stopLetter":"CM","topMostParentId":"490G00012924"},{"icsId":"1001279","id":"490001279S3","lat":51.425176,"lon":-0.130842,"name":"Streatham Station","parentId":"490G01279S3","stationId":"490G01279S3","stopLetter":"SJ","topMostParentId":"910GSTRETHM"},{"icsId":"1012761","id":"490012761SQ","lat":51.428385,"lon":-0.13133,"name":"St Leonard's Church","parentId":"490G00012761","stationId":"490G00012761","stopLetter":"SK","topMostParentId":"490G00012761"},{"icsId":"1003758","id":"490003758OA","lat":51.432821,"lon":-0.129192,"name":"Becmead Avenue","parentId":"490G00003758","stationId":"490G00003758","stopLetter":"OA","topMostParentId":"490G00003758"},{"icsId":"1008765","id":"490008765M","lat":51.434493,"lon":-0.128621,"name":"Kingscourt Road","parentId":"490G00008765","stationId":"490G00008765","stopLetter":"M","topMostParentId":"490G00008765"},{"icsId":"1010078","id":"490010078K","lat":51.435944,"lon":-0.12823,"name":"Mount Ephraim Road","parentId":"490G00010078","stationId":"490G00010078","stopLetter":"K","topMostParentId":"490G00010078"},{"icsId":"1001281","id":"490001281Q","lat":51.438554,"lon":-0.128929,"name":"Streatham Hill Station","parentId":"490G01281Q","stationId":"490G01281Q","stopLetter":"Q","topMostParentId":"910GSTRHILL"},{"icsId":"1012675","id":"490012675N","lat":51.440446,"lon":-0.132018,"name":"Criffel Avenue","parentId":"490G00012675","stationId":"490G00012675","stopLetter":"->N","topMostParentId":"490G00012675"},{"icsId":"1015219","id":"490015219N","lat":51.442504,"lon":-0.132481,"name":"New Park Road","parentId":"490G00015219","stationId":"490G00015219","stopLetter":"P","topMostParentId":"490G00015219"},{"icsId":"1009121","id":"490009121N","lat":51.44456,"lon":-0.133404,"name":"Lexton Gardens","parentId":"490G00009121","stationId":"490G00009121","stopLetter":"Q","topMostParentId":"490G00009121"},{"icsId":"1018992","id":"490003472N1","lat":51.446918,"lon":-0.132387,"name":"Atkins Road","parentId":"490G00018992","stationId":"490G00018992","stopLetter":"R","topMostParentId":"490G00018992"},{"icsId":"1005351","id":"490005351W","lat":51.449199,"lon":-0.136151,"name":"Poynders Road / Clarence Avenue","parentId":"490G00005351","stationId":"490G00005351","stopLetter":"S","topMostParentId":"490G00005351"},{"icsId":"1011162","id":"490011162W","lat":51.450024,"lon":-0.138837,"name":"Poynders Court","parentId":"490G00011162","stationId":"490G00011162","stopLetter":"T","topMostParentId":"490G00011162"},{"icsId":"1011776","id":"490011776W","lat":51.450769,"lon":-0.141585,"name":"Rudloe Road","parentId":"490G00011776","stationId":"490G00011776","stopLetter":"SL","topMostParentId":"490G00011776"},{"icsId":"1004889","id":"490004889W","lat":51.452732,"lon":-0.142901,"name":"Cavendish Road Police Station","parentId":"490G00004889","stationId":"490G00004889","stopLetter":"SM","topMostParentId":"490G00004889"},{"icsId":"1005329","id":"490005329SG","lat":51.453781,"lon":-0.145521,"name":"Cavendish Road / Clapham South Stn","parentId":"490G00005329","stationId":"490G00005329","stopLetter":"SN","topMostParentId":"490G00005329"},{"icsId":"1009474","id":"490009474SF","lat":51.454777,"lon":-0.145942,"name":"Lynette Avenue","parentId":"490G00009474","stationId":"490G00009474","stopLetter":"SF","topMostParentId":"490G00009474"},{"icsId":"1006520","id":"490006520N","lat":51.457131,"lon":-0.143572,"name":"Elms Road / Windmill on The Common","parentId":"490G00006520","stationId":"490G00006520","stopLetter":"C","topMostParentId":"490G00006520"},{"icsId":"1000050","id":"490000050D","lat":51.461521,"lon":-0.138514,"name":"Clapham Common Station","parentId":"490G00050G","stationId":"490G00050G","stopLetter":"D","topMostParentId":"940GZZLUCPC","zone":"2"},{"icsId":"1000286","id":"490012768A","lat":51.462871,"lon":-0.135234,"name":"Nelson's Row","parentId":"490G00000286","stationId":"490G00000286","stopLetter":"A","topMostParentId":"490G00000286"},{"icsId":"1020113","id":"490000051B","lat":51.464115,"lon":-0.131987,"name":"Clapham North & High Street Stns","parentId":"490G00020113","stationId":"490G00020113","stopLetter":"L","topMostParentId":"490G00020113"},{"icsId":"1016814","id":"490000051C","lat":51.465863,"lon":-0.129411,"name":"Clapham Road / Bedford Road","parentId":"490G00016814","stationId":"490G00016814","stopLetter":"C","topMostParentId":"490G00016814"},{"icsId":"1013907","id":"490013907N","lat":51.468401,"lon":-0.127277,"name":"Union Road","parentId":"490G00013907","stationId":"490G00013907","stopLetter":"J","topMostParentId":"490G00013907"},{"icsId":"1012834","id":"490000223F","lat":51.471939,"lon":-0.123057,"name":"Clapham Road / Stockwell Station","parentId":"490G000769","stationId":"490G000769","stopLetter":"F","topMostParentId":"490G000769"}]}]}