{"direction":"outbound","lineId":"51","lineName":"51","mode":"bus","stopPointSequences":[{"stopPoint":[{"icsId":"1014929","id":"490014929C","lat":51.493844,"lon":0.063811,"name":"Woolwich High Street","parentId":"490G000846","stationId":"490G000846","stopLetter":"C","topMostParentId":"490G000846"},{"icsId":"1007790","id":"490007790QC","lat":51.492615,"lon":0.06413,"name":"Hare Street","parentId":"490G00007790","stationId":"490G00007790","stopLetter":"F","topMostParentId":"490G00007790"},{"icsId":"1011161","id":"490011159YA","lat":51.492793,"lon":0.061689,"name":"Powis Street","parentId":"490G00011161","stationId":"490G00011161","stopLetter":"B","topMostParentId":"490G00011161"},{"icsId":"1004677","id":"490004677V","lat":51.49101,"lon":0.064389,"name":"Calderwood Street","parentId":"490G00004677","stationId":"490G00004677","stopLetter":"V","topMostParentId":"490G00004677"},{"icsId":"1001344","id":"490001344S","lat":51.489726,"lon":0.067342,"name":"Woolwich Arsenal Station","parentId":"490G01344G","stationId":"490G01344G","stopLetter":"M","topMostParentId":"HUBWWA"},{"icsId":"1005762","id":"490001344G","lat":51.489784,"lon":0.069131,"name":"Vincent Road / Woolwich Arsenal Station","parentId":"490G00005762","stationId":"490G00005762","stopLetter":"G","topMostParentId":"490G00005762"},{"icsId":"1005742","id":"490005742S","lat":51.488584,"lon":0.073427,"name":"Burrage Road / Arthur Grove","parentId":"490G00005742","stationId":"490G00005742","stopLetter":"WA","topMostParentId":"490G00005742"},{"icsId":"1007000","id":"490007000S","lat":51.484881,"lon":0.071775,"name":"Frederick Place","parentId":"490G00007000","stationId":"490G00007000","stopLetter":"WB","topMostParentId":"490G00007000"},{"icsId":"1015577","id":"490015577S","lat":51.482285,"lon":0.071139,"name":"Bloomfield Road / Plumstead Common Road","parentId":"490G00015577","stationId":"490G00015577","stopLetter":"WD","topMostParentId":"490G00015577"},{"icsId":"1013801","id":"490013801E","lat":51.481957,"lon":0.072881,"name":"Trinity Church","parentId":"490G00013801","stationId":"490G00013801","stopLetter":"WR","topMostParentId":"490G00013801"},{"icsId":"1004098","id":"490004098E","lat":51.481161,"lon":0.077699,"name":"Blendon Terrace","parentId":"490G00004098","stationId":"490G00004098","stopLetter":"H","topMostParentId":"490G00004098"},{"icsId":"1011073","id":"490011073E2","lat":51.480752,"lon":0.081021,"name":"Plumstead Common / The Ship","parentId":"490G00011073","stationId":"490G00011073","stopLetter":"J","topMostParentId":"490G00011073"},{"icsId":"1011072","id":"490011072E","lat":51.480158,"lon":0.085099,"name":"Plumstead Common Road / Erindale Terrace","parentId":"490G00011072","stationId":"490G00011072","stopLetter":"K","topMostParentId":"490G00011072"},{"icsId":"1013607","id":"490013607E","lat":51.480256,"lon":0.088661,"name":"The Slade / Ravine Grove","parentId":"490G00013607","stationId":"490G00013607","stopLetter":"L","topMostParentId":"490G00013607"},{"icsId":"1003672","id":"490009795E","lat":51.478596,"lon":0.093481,"name":"Bassant Road","parentId":"490G00003672","stationId":"490G00003672","stopLetter":"->S","topMostParentId":"490G00003672"},{"icsId":"1008773","id":"490008773S","lat":51.477424,"lon":0.093658,"name":"Kingsdale Road","parentId":"490G00008773","stationId":"490G00008773","stopLetter":"->S","topMostParentId":"490G00008773"},{"icsId":"1013627","id":"490013627S","lat":51.475937,"lon":0.093864,"name":"Thornhill Avenue","parentId":"490G00013627","stationId":"490G00013627","stopLetter":"->S","topMostParentId":"490G00013627"},{"icsId":"1013380","id":"490013375S","lat":51.473652,"lon":0.095386,"name":"Combeside","parentId":"490G00013380","stationId":"490G00013380","stopLetter":"->S","topMostParentId":"490G00013380"},{"icsId":"1005053","id":"490005053S","lat":51.471486,"lon":0.096324,"name":"Chaucer Road","parentId":"490G00005053","stationId":"490G00005053","topMostParentId":"490G00005053"},{"icsId":"1014655","id":"490014655E","lat":51.469085,"lon":0.098834,"name":"Wickham Street / Edison Road","parentId":"490G00014655","stationId":"490G00014655","stopLetter":"->E","topMostParentId":"490G00014655"},{"icsId":"1004602","id":"490004602S","lat":51.467725,"lon":0.100975,"name":"Central Avenue / Wickham Street","parentId":"490G00004602","stationId":"490G00004602","topMostParentId":"490G00004602"},{"icsId":"1001318","id":"490001318A","lat":51.464493,"lon":0.100178,"name":"Welling Station","parentId":"490G01318B","stationId":"490G01318B","stopLetter":"A","topMostParentId":"910GWELLING"},{"icsId":"1006018","id":"490006018H","lat":51.463016,"lon":0.104789,"name":"Deepdene Road","parentId":"490G00006018","stationId":"490G00006018","stopLetter":"H","topMostParentId":"490G00006018"},{"icsId":"1019725","id":"490014351L","lat":51.461659,"lon":0.106771,"name":"Hook Lane / St Leonards Close","parentId":"490G00019725","stationId":"490G00019725","stopLetter":"L","topMostParentId":"490G00019725"},{"icsId":"1006735","id":"490006735S","lat":51.460085,"lon":0.103244,"name":"Faraday Road","parentId":"490G00006735","stationId":"490G00006735","stopLetter":"->S","topMostParentId":"490G00006735"},{"icsId":"1014536","id":"490014536N","lat":51.45781,"lon":0.099224,"name":"Westwood Lane / Hook Lane","parentId":"490G00014536","stationId":"490G00014536","stopLetter":"->N","topMostParentId":"490G00014536"},{"icsId":"1014389","id":"490014389S","lat":51.454147,"lon":0.103431,"name":"Wendover Way","parentId":"490G00014389","stationId":"490G00014389","stopLetter":"P","topMostParentId":"490G00014389"},{"icsId":"1019066","id":"490004059S","lat":51.451081,"lon":0.103362,"name":"Westwood Lane / Blackfen Road","parentId":"490G00019066","stationId":"490G00019066","stopLetter":"Q","topMostParentId":"490G00019066"},{"icsId":"1015262","id":"490015262S1","lat":51.449748,"lon":0.102999,"name":"Wellington Avenue / Blackfen Road","parentId":"490G00015262","stationId":"490G00015262","stopLetter":"R","topMostParentId":"490G00015262"},{"icsId":"1013489","id":"490013489S","lat":51.445222,"lon":0.104129,"name":"The Oval","parentId":"490G00013489","stationId":"490G00013489","stopLetter":"S","topMostParentId":"490G00013489"},{"icsId":"1009674","id":"490009674W","lat":51.443953,"lon":0.101193,"name":"Marlborough Park Avenue","parentId":"490G00009674","stationId":"490G00009674","stopLetter":"T","topMostParentId":"490G00009674"},{"icsId":"1010491","id":"490010491W","lat":51.443202,"lon":0.098439,"name":"Oaklands Avenue","parentId":"490G00010491","stationId":"490G00010491","stopLetter":"U","topMostParentId":"490G00010491"},{"icsId":"1003333","id":"490003333S","lat":51.441149,"lon":0.095567,"name":"Annandale Road","parentId":"490G00003333","stationId":"490G00003333","stopLetter":"->S","topMostParentId":"490G00003333"},{"icsId":"1008291","id":"490008291E","lat":51.438189,"lon":0.094655,"name":"Hollies Avenue","parentId":"490G00008291","stationId":"490G00008291","stopLetter":"->E","topMostParentId":"490G00008291"},{"icsId":"1014998","id":"490014998S","lat":51.437016,"lon":0.099364,"name":"Halfway Street / Old Farm Road East","parentId":"490G00014998","stationId":"490G00014998","topMostParentId":"490G00014998"},{"icsId":"1001249","id":"490015177G","lat":51.432639,"lon":0.10276,"name":"Sidcup Station","parentId":"490G15177G","stationId":"490G15177G","stopLetter":"G","topMostParentId":"910GSIDCUP"},{"icsId":"1005743","id":"490005743M","lat":51.430536,"lon":0.102145,"name":"Station Road / Crescent Road","parentId":"490G00005743","stationId":"490G00005743","stopLetter":"M","topMostParentId":"490G00005743"},{"icsId":"1012140","id":"490012140T","lat":51.426421,"lon":0.101985,"name":"Sidcup High Street / Station Road","parentId":"490G00012140","stationId":"490G00012140","stopLetter":"T","topMostParentId":"490G00012140"},{"icsId":"1005299","id":"490005299Y","lat":51.424926,"lon":0.106563,"name":"Church Road","parentId":"490G00005299","stationId":"490G00005299","stopLetter":"Y","topMostParentId":"490G00005299"},{"icsId":"1008885","id":"490008885E","lat":51.421651,"lon":0.111173,"name":"Knoll Road","parentId":"490G00008885","stationId":"490G00008885","stopLetter":"->E","topMostParentId":"490G00008885"},{"icsId":"1009854","id":"490009854E","lat":51.420212,"lon":0.114688,"name":"Middleton Avenue","parentId":"490G00009854","stationId":"490G00009854","stopLetter":"->E","topMostParentId":"490G00009854"},{"icsId":"1011463","id":"490011463S","lat":51.417984,"lon":0.11752,"name":"Cray Road / Foots Cray High Street","parentId":"490G00011463","stationId":"490G00011463","stopLetter":"FP","topMostParentId":"490G00011463"},{"icsId":"1009746","id":"490009746S","lat":51.416246,"lon":0.115181,"name":"Mayfield Villas","parentId":"490G00009746","stationId":"490G00009746","stopLetter":"FQ","topMostParentId":"490G00009746"},{"icsId":"1005780","id":"490005780S","lat":51.414101,"lon":0.113443,"name":"Crittall's Corner","parentId":"490G00005780","stationId":"490G00005780","stopLetter":"FR","topMostParentId":"490G00005780"},{"icsId":"1016701","id":"490016701S","lat":51.411309,"lon":0.112667,"name":"Kemnal Technology College","parentId":"490G00016701","stationId":"490G00016701","stopLetter":"M","topMostParentId":"490G00016701"},{"icsId":"1009863","id":"490009863S","lat":51.408642,"lon":0.112932,"name":"Midfield Way","parentId":"490G00009863","stationId":"490G00009863","stopLetter":"N","topMostParentId":"490G00009863"},{"icsId":"1014152","id":"490014152S","lat":51.405498,"lon":0.113276,"name":"Walsingham Road","parentId":"490G00014152","stationId":"490G00014152","stopLetter":"P","topMostParentId":"490G00014152"},{"icsId":"1013276","id":"490013276S","lat":51.401703,"lon":0.113259,"name":"Broomwood Road","parentId":"490G00013276","stationId":"490G00013276","stopLetter":"Q","topMostParentId":"490G00013276"},{"icsId":"1012606","id":"490012606S","lat":51.396488,"lon":0.112688,"name":"Station Approach","parentId":"490G00012606","stationId":"490G00012606","stopLetter":"R","topMostParentId":"490G00012606"},{"icsId":"1010455","id":"490010455SG","lat":51.393038,"lon":0.111537,"name":"Nugent Retail Park","parentId":"490G00010455","stationId":"490G00010455","stopLetter":"SG","topMostParentId":"490G00010455"},{"icsId":"1012563","id":"490012563SH","lat":51.390414,"lon":0.11041,"name":"Stanley Way","parentId":"490G00012563","stationId":"490G00012563","stopLetter":"SH","topMostParentId":"490G00012563"},{"icsId":"1008673","id":"490011155ST","lat":51.38878,"lon":0.109746,"name":"Kent Road","parentId":"490G00008673","stationId":"490G00008673","stopLetter":"ST","topMostParentId":"490G00008673"},{"icsId":"1004801","id":"490004801S1","lat":51.38163,"lon":0.105781,"name":"High Street / Carlton Parade","parentId":"490G00004801","stationId":"490G00004801","stopLetter":"P","topMostParentId":"490G00004801"},{"icsId":"1010635","id":"490010635W","lat":51.37927,"lon":0.102526,"name":"High Street / Church Hill","parentId":"490G00010635","stationId":"490G00010635","stopLetter":"W","topMostParentId":"490G00010635"},{"icsId":"1014142","id":"490014142U","lat":51.377089,"lon":0.100285,"name":"Walnuts Centre","parentId":"490G00014142","stationId":"490G00014142","stopLetter":"U","topMostParentId":"490G00014142"},{"icsId":"1019892","id":"490015411S","lat":51.374282,"lon":0.098317,"name":"High Street / Orpington War Memorial","parentId":"490G00019892","stationId":"490G00019892","stopLetter":"S","topMostParentId":"490G00019892"},{"icsId":"1013818","id":"490013818J","lat":51.371761,"lon":0.091449,"name":"Tubbenden Lane","parentId":"490G00013818","stationId":"490G00013818","stopLetter":"J","topMostParentId":"490G00013818"},{"icsId":"1001220","id":"490001220G","lat":51.373205,"lon":0.089661,"name":"Orpington Station","parentId":"490G01220G","stationId":"490G01220G","stopLetter":"G","topMostParentId":"910GORPNGTN"}]}]}