{"direction":"outbound","lineId":"59","lineName":"59","mode":"bus","stopPointSequences":[{"stopPoint":[{"icsId":"1013186","id":"490013186T","lat":51.442609,"lon":-0.124994,"name":"Telford Avenue","parentId":"490G00013186","stationId":"490G00013186","stopLetter":"T","topMostParentId":"490G00013186"},{"icsId":"1005234","id":"490005234N","lat":51.444593,"lon":-0.124754,"name":"Christchurch Road","parentId":"490G00005234","stationId":"490G00005234","stopLetter":"BS","topMostParentId":"490G00005234"},{"icsId":"1008310","id":"490008310N","lat":51.446923,"lon":-0.124788,"name":"Holmewood Road","parentId":"490G00008310","stationId":"490G00008310","stopLetter":"BT","topMostParentId":"490G00008310"},{"icsId":"1015218","id":"490015218N","lat":51.448859,"lon":-0.123845,"name":"New Park Road","parentId":"490G00015218","stationId":"490G00015218","stopLetter":"BU","topMostParentId":"490G00015218"},{"icsId":"1008544","id":"490008544N","lat":51.45108,"lon":-0.122142,"name":"Jebb Avenue / Brixton Prison","parentId":"490G00008544","stationId":"490G00008544","stopLetter":"BV","topMostParentId":"490G00008544"},{"icsId":"1004101","id":"490004101N","lat":51.453341,"lon":-0.120682,"name":"Blenheim Gardens","parentId":"490G00004101","stationId":"490G00004101","stopLetter":"BW","topMostParentId":"490G00004101"},{"icsId":"1011793","id":"490011793N","lat":51.457677,"lon":-0.117985,"name":"Rush Common","parentId":"490G00011793","stationId":"490G00011793","stopLetter":"BY","topMostParentId":"490G00011793"},{"icsId":"1008919","id":"490008919X","lat":51.459886,"lon":-0.116714,"name":"Lambeth Town Hall","parentId":"490G000627","stationId":"490G000627","stopLetter":"X","topMostParentId":"490G000627"},{"icsId":"1000031","id":"490000031R","lat":51.462238,"lon":-0.115292,"name":"Brixton Station","parentId":"490G00031N","stationId":"490G00031N","stopLetter":"R","topMostParentId":"HUBBRX","zone":"2"},{"icsId":"1007523","id":"490007523D","lat":51.465614,"lon":-0.113872,"name":"Brixton Road / Brixton Police Station","parentId":"490G000549","stationId":"490G000549","stopLetter":"D","topMostParentId":"490G000549"},{"icsId":"1014085","id":"490014085N","lat":51.467326,"lon":-0.112952,"name":"Villa Road","parentId":"490G00014085","stationId":"490G00014085","stopLetter":"RA","topMostParentId":"490G00014085"},{"icsId":"1009373","id":"490009373N1","lat":51.470603,"lon":-0.112658,"name":"Loughborough Road","parentId":"490G00009373","stationId":"490G00009373","stopLetter":"RB","topMostParentId":"490G00009373"},{"icsId":"1007587","id":"490007587N","lat":51.472882,"lon":-0.112881,"name":"Groveway","parentId":"490G00007587","stationId":"490G00007587","stopLetter":"RC","topMostParentId":"490G00007587"},{"icsId":"1008248","id":"490008248N","lat":51.474737,"lon":-0.113049,"name":"Hillyard Street","parentId":"490G00008248","stationId":"490G00008248","stopLetter":"RD","topMostParentId":"490G00008248"},{"icsId":"1014013","id":"490014013N","lat":51.477308,"lon":-0.112439,"name":"Vassall Road","parentId":"490G00014013","stationId":"490G00014013","stopLetter":"RE","topMostParentId":"490G00014013"},{"icsId":"1008642","id":"490008642H","lat":51.48064,"lon":-0.111063,"name":"St Mark's Church","parentId":"490G00008642","stationId":"490G00008642","stopLetter":"H","topMostParentId":"490G00008642"},{"icsId":"1008645","id":"490008645U","lat":51.485044,"lon":-0.110881,"name":"Kennington Park Post Office","parentId":"490G00008645","stationId":"490G00008645","stopLetter":"U","topMostParentId":"490G00008645"},{"icsId":"1014773","id":"490014773KP","lat":51.487706,"lon":-0.111448,"name":"Windmill Row","parentId":"490G00014773","stationId":"490G00014773","stopLetter":"KP","topMostParentId":"490G00014773"},{"icsId":"1008643","id":"490008643KH","lat":51.49005,"lon":-0.11125,"name":"Kennington Lane","parentId":"490G00008643","stationId":"490G00008643","stopLetter":"KH","topMostParentId":"490G00008643"},{"icsId":"1006864","id":"490006864N1","lat":51.49279,"lon":-0.111094,"name":"Fitzalan Street","parentId":"490G00006864","stationId":"490G00006864","stopLetter":"KG","topMostParentId":"490G00006864"},{"icsId":"1008476","id":"490008473E","lat":51.495635,"lon":-0.111336,"name":"Kennington Road / Imperial War Museum","parentId":"490G000608","stationId":"490G000608","stopLetter":"E","topMostParentId":"490G000608"},{"icsId":"1000132","id":"490000132G","lat":51.498243,"lon":-0.112453,"name":"Lambeth North Station","parentId":"490G00132G","stationId":"490G00132G","stopLetter":"G","topMostParentId":"940GZZLULBN","zone":"1"},{"icsId":"1015224","id":"490000132P","lat":51.499726,"lon":-0.111801,"name":"Baylis Road / Lambeth North Station","parentId":"490G00015224","stationId":"490G00015224","stopLetter":"P","topMostParentId":"490G00015224"},{"icsId":"1003699","id":"490003699N","lat":51.501325,"lon":-0.11064,"name":"Baylis Road / Lower Marsh","parentId":"490G00003699","stationId":"490G00003699","topMostParentId":"490G00003699"},{"icsId":"1003713","id":"490000254K","lat":51.504361,"lon":-0.113742,"name":"Waterloo Station / Tenison Way","parentId":"490G000402","stationId":"490G000402","stopLetter":"K","topMostParentId":"HUBWAT"},{"icsId":"1014271","id":"490014270P","lat":51.506261,"lon":-0.115004,"name":"Waterloo Bridge / South Bank","parentId":"490G000819","stationId":"490G000819","stopLetter":"P","topMostParentId":"HUBWAT"},{"icsId":"1008932","id":"490008932T","lat":51.510523,"lon":-0.118935,"name":"Lancaster Place","parentId":"490G00008932","stationId":"490G00008932","stopLetter":"T","topMostParentId":"490G00008932"},{"icsId":"1003195","id":"490003191F","lat":51.513142,"lon":-0.117948,"name":"Aldwych / Kingsway","parentId":"490G00003195","stationId":"490G00003195","stopLetter":"F","topMostParentId":"490G00003195"},{"icsId":"1000112","id":"490000112N","lat":51.516873,"lon":-0.120144,"name":"Holborn Station","parentId":"490G00112L","stationId":"490G00112L","stopLetter":"N","topMostParentId":"940GZZLUHBN","zone":"1"},{"icsId":"1013478","id":"490013477Y","lat":51.519527,"lon":-0.121908,"name":"Southampton Row / Theobald's Road","parentId":"490G00013478","stationId":"490G00013478","stopLetter":"Y","topMostParentId":"490G00013478"},{"icsId":"1000200","id":"490000200H","lat":51.523214,"lon":-0.126384,"name":"Russell Square Station","parentId":"490G00200H","stationId":"490G00200H","stopLetter":"H","topMostParentId":"940GZZLURSQ","zone":"1"},{"icsId":"1013170","id":"490013170N","lat":51.525338,"lon":-0.128747,"name":"Tavistock Square","parentId":"490G00013170","stationId":"490G00013170","stopLetter":"K","topMostParentId":"490G00013170"},{"icsId":"1012867","id":"490012867L","lat":51.52716,"lon":-0.130777,"name":"Upper Woburn Place / Euston Road","parentId":"490G00012867","stationId":"490G00012867","stopLetter":"L","topMostParentId":"HUBEUS"},{"icsId":"1000077","id":"490000077C","lat":51.527378,"lon":-0.132628,"name":"Euston Station","parentId":"490G00077G","stationId":"490G00077G","stopLetter":"C","topMostParentId":"HUBEUS","zone":"1"},{"icsId":"1009498","id":"490015700C","lat":51.529027,"lon":-0.126607,"name":"British Library","parentId":"490G00009498","stationId":"490G00009498","stopLetter":"C","topMostParentId":"490G00009498"},{"icsId":"1001276","id":"490004722M","lat":51.529804,"lon":-0.124599,"name":"St Pancras International Station","parentId":"490G01276S","stationId":"490G01276S","stopLetter":"M","topMostParentId":"HUBKGX"},{"icsId":"1005916","id":"490001171G","lat":51.531284,"lon":-0.122679,"name":"King's Cross Station   / York Way","parentId":"490G000479","stationId":"490G000479","stopLetter":"G","topMostParentId":"HUBKGX"}]}]}