{"direction":"outbound","lineId":"6","lineName":"6","mode":"bus","stopPointSequences":[{"stopPoint":[{"icsId":"1003935","id":"490003935Z","lat":51.547102,"lon":-0.239298,"name":"Bertie Road","parentId":"490G00003935","stationId":"490G00003935","stopLetter":"WY","topMostParentId":"490G00003935"},{"icsId":"1010834","id":"490010834S","lat":51.546038,"lon":-0.237868,"name":"Clare Road","parentId":"490G00010834","stationId":"490G00010834","stopLetter":"HK","topMostParentId":"490G00010834"},{"icsId":"1014689","id":"490014689S1","lat":51.542467,"lon":-0.234228,"name":"The Oaks","parentId":"490G00014689","stationId":"490G00014689","stopLetter":"HJ","topMostParentId":"490G00014689"},{"icsId":"1006108","id":"490006108E","lat":51.541533,"lon":-0.231322,"name":"Willesden Sports Centre","parentId":"490G00006108","stationId":"490G00006108","stopLetter":"A","topMostParentId":"490G00006108"},{"icsId":"1003256","id":"490003256S","lat":51.540351,"lon":-0.225124,"name":"All Souls Avenue","parentId":"490G00003256","stationId":"490G00003256","stopLetter":"B","topMostParentId":"490G00003256"},{"icsId":"1010521","id":"490010521S","lat":51.537517,"lon":-0.222062,"name":"Okehampton Road","parentId":"490G00010521","stationId":"490G00010521","stopLetter":"KC","topMostParentId":"490G00010521"},{"icsId":"1014619","id":"490014619S","lat":51.536503,"lon":-0.220991,"name":"Whitmore Gardens","parentId":"490G00014619","stationId":"490G00014619","stopLetter":"KG","topMostParentId":"490G00014619"},{"icsId":"1001161","id":"490001161S1","lat":51.534405,"lon":-0.219054,"name":"Kensal Rise Station","parentId":"490G01161N","stationId":"490G01161N","stopLetter":"KH","topMostParentId":"910GKENR"},{"icsId":"1012622","id":"490012622S","lat":51.533217,"lon":-0.218337,"name":"Station Terrace","parentId":"490G00012622","stationId":"490G00012622","stopLetter":"KJ","topMostParentId":"490G00012622"},{"icsId":"1019003","id":"490003577E","lat":51.5313,"lon":-0.215874,"name":"Kilburn Lane","parentId":"490G00019003","stationId":"490G00019003","stopLetter":"KK","topMostParentId":"490G00019003"},{"icsId":"1003237","id":"490003237E","lat":51.532135,"lon":-0.211083,"name":"Allington Road","parentId":"490G00003237","stationId":"490G00003237","stopLetter":"A","topMostParentId":"490G00003237"},{"icsId":"1000186","id":"490000186A","lat":51.533231,"lon":-0.204552,"name":"Queen's Park Station","parentId":"490G00186A","stationId":"490G00186A","stopLetter":"B","topMostParentId":"HUBQPW","zone":"2"},{"icsId":"1005692","id":"490005692E","lat":51.532558,"lon":-0.199936,"name":"Neville Close","parentId":"490G00005692","stationId":"490G00005692","stopLetter":"C","topMostParentId":"490G00005692"},{"icsId":"1000911","id":"490004710E","lat":51.532259,"lon":-0.194527,"name":"Cambridge Road","parentId":"490G000228","stationId":"490G000228","stopLetter":"MA","topMostParentId":"490G000228"},{"icsId":"1004444","id":"490004444S","lat":51.530216,"lon":-0.194391,"name":"Cambridge Road","parentId":"490G00004444","stationId":"490G00004444","stopLetter":"MC","topMostParentId":"490G00004444"},{"icsId":"1005188","id":"490013297E","lat":51.527456,"lon":-0.196231,"name":"Chippenham Road","parentId":"490G00005188","stationId":"490G00005188","stopLetter":"ME","topMostParentId":"490G00005188"},{"icsId":"1006471","id":"490006471E","lat":51.526308,"lon":-0.192888,"name":"Elgin Avenue","parentId":"490G00006471","stationId":"490G00006471","stopLetter":"MF","topMostParentId":"490G00006471"},{"icsId":"1004990","id":"490004990E","lat":51.523996,"lon":-0.188165,"name":"Charfield Court","parentId":"490G00004990","stationId":"490G00004990","stopLetter":"MH","topMostParentId":"490G00004990"},{"icsId":"1000253","id":"490000253K","lat":51.523691,"lon":-0.183579,"name":"Warwick Avenue Station","parentId":"490G00253H","stationId":"490G00253H","stopLetter":"K","topMostParentId":"940GZZLUWKA","zone":"2"},{"icsId":"1005427","id":"490005427E","lat":51.525858,"lon":-0.178894,"name":"Clifton Road","parentId":"490G00005427","stationId":"490G00005427","stopLetter":"M","topMostParentId":"490G00005427"},{"icsId":"1010621","id":"490010621S","lat":51.523422,"lon":-0.174926,"name":"Orchardson Street","parentId":"490G00010621","stationId":"490G00010621","stopLetter":"EA","topMostParentId":"490G00010621"},{"icsId":"1015285","id":"490015285S","lat":51.5224,"lon":-0.173381,"name":"Church Street Market","parentId":"490G00015285","stationId":"490G00015285","stopLetter":"EB","topMostParentId":"490G00015285"},{"icsId":"1000071","id":"490006428D","lat":51.520625,"lon":-0.170872,"name":"Edgware Road Station","parentId":"490G00071E","stationId":"490G00071E","stopLetter":"EC","topMostParentId":"940GZZLUERB","zone":"1"},{"icsId":"1013046","id":"490013046M","lat":51.518951,"lon":-0.168489,"name":"Edgware Road / Praed Street","parentId":"490G000776","stationId":"490G000776","stopLetter":"ED","topMostParentId":"490G000776"},{"icsId":"1007167","id":"490007167V","lat":51.51631,"lon":-0.164645,"name":"George Street","parentId":"490G00007167","stationId":"490G00007167","stopLetter":"EH","topMostParentId":"490G00007167"},{"icsId":"1008450","id":"490000144H","lat":51.513517,"lon":-0.16029,"name":"Marble Arch Station  / Edgware Road","parentId":"490G00008450","stationId":"490G00008450","stopLetter":"H","topMostParentId":"490G00008450"},{"icsId":"1000399","id":"490000144R","lat":51.512308,"lon":-0.157744,"name":"Marble Arch Station  / Park Lane","parentId":"490G00000399","stationId":"490G00000399","stopLetter":"R","topMostParentId":"490G00000399"},{"icsId":"1006111","id":"490006111S1","lat":51.50842,"lon":-0.154097,"name":"Dorchester Hotel","parentId":"490G00006111","stationId":"490G00006111","stopLetter":"S","topMostParentId":"490G00006111"},{"icsId":"1009277","id":"490009277B","lat":51.505136,"lon":-0.151103,"name":"London Hilton Hotel","parentId":"490G00009277","stationId":"490G00009277","stopLetter":"B","topMostParentId":"490G00009277"},{"icsId":"1010574","id":"490010574C","lat":51.504086,"lon":-0.148408,"name":"Old Park Lane / Hard Rock Cafe","parentId":"490G00010574","stationId":"490G00010574","stopLetter":"C","topMostParentId":"490G00010574"},{"icsId":"1000093","id":"490000093PB","lat":51.507015,"lon":-0.142554,"name":"Green Park Station","parentId":"490G00093PE","stationId":"490G00093PE","stopLetter":"J","topMostParentId":"940GZZLUGPK","zone":"1"},{"icsId":"1010526","id":"490011748H","lat":51.508295,"lon":-0.13936,"name":"Old Bond Street / Royal Academy","parentId":"490G00010526","stationId":"490G00010526","stopLetter":"L","topMostParentId":"490G00010526"},{"icsId":"1000179","id":"490000179B","lat":51.509307,"lon":-0.136235,"name":"Piccadilly Circus","parentId":"490G00179B","stationId":"490G00179B","stopLetter":"B","topMostParentId":"940GZZLUPCC","zone":"1"},{"icsId":"1020307","id":"490007960R","lat":51.509683,"lon":-0.132732,"name":"Haymarket / Jermyn Street","parentId":"490G00020307","stationId":"490G00020307","stopLetter":"R","topMostParentId":"490G00020307"},{"icsId":"1013767","id":"490013767B","lat":51.507645,"lon":-0.129544,"name":"Trafalgar Square","parentId":"490G000804","stationId":"490G000804","stopLetter":"B","topMostParentId":"490G000804"},{"icsId":"1013766","id":"490013766E","lat":51.508045,"lon":-0.126487,"name":"Trafalgar Square / Charing Cross Stn","parentId":"490G000803","stationId":"490G000803","stopLetter":"E","topMostParentId":"HUBCHX"},{"icsId":"1012247","id":"490012247A","lat":51.510367,"lon":-0.122069,"name":"Southampton Street / Covent Garden","parentId":"490G00012247","stationId":"490G00012247","stopLetter":"A","topMostParentId":"490G00012247"},{"icsId":"1019703","id":"490019703E","lat":51.512639,"lon":-0.118517,"name":"Aldwych / Drury Lane","parentId":"490G00019703","stationId":"490G00019703","stopLetter":"E","topMostParentId":"490G00019703"}]}]}