{"direction":"outbound","lineId":"60","lineName":"60","mode":"bus","stopPointSequences":[{"stopPoint":[{"icsId":"1010535","id":"490010535W","lat":51.306639,"lon":-0.11991,"name":"Old Coulsdon / Tudor Rose","parentId":"490G00010535","stationId":"490G00010535","stopLetter":"L","topMostParentId":"490G00010535"},{"icsId":"1013688","id":"490013688W","lat":51.305861,"lon":-0.124647,"name":"Mead Way / Tollers Lane","parentId":"490G00013688","stationId":"490G00013688","stopLetter":"->W","topMostParentId":"490G00013688"},{"icsId":"1009770","id":"490009770W","lat":51.307719,"lon":-0.128373,"name":"New Hill","parentId":"490G00009770","stationId":"490G00009770","stopLetter":"->W","topMostParentId":"490G00009770"},{"icsId":"1009776","id":"490009776W","lat":51.309316,"lon":-0.132685,"name":"Mead Way / Chaldon Way","parentId":"490G00009776","stationId":"490G00009776","stopLetter":"->W","topMostParentId":"490G00009776"},{"icsId":"1004231","id":"490004231N","lat":51.311417,"lon":-0.134135,"name":"Bradmore Way","parentId":"490G00004231","stationId":"490G00004231","stopLetter":"->N","topMostParentId":"490G00004231"},{"icsId":"1004958","id":"490004958N","lat":51.31348,"lon":-0.134912,"name":"Chaldon Way Gardens","parentId":"490G00004958","stationId":"490G00004958","stopLetter":"->N","topMostParentId":"490G00004958"},{"icsId":"1001072","id":"490001072P","lat":51.316587,"lon":-0.137455,"name":"Coulsdon South Station","parentId":"490G01072M","stationId":"490G01072M","stopLetter":"P","topMostParentId":"910GCOLSDNS"},{"icsId":"1005640","id":"490005640G","lat":51.319663,"lon":-0.139182,"name":"Coulsdon Library","parentId":"490G00005640","stationId":"490G00005640","stopLetter":"G","topMostParentId":"490G00005640"},{"icsId":"1001253","id":"490005637N1","lat":51.321454,"lon":-0.137574,"name":"Coulsdon Town Station","parentId":"490G01253A","stationId":"490G01253A","stopLetter":"J","topMostParentId":"910GCOLSTWN"},{"icsId":"1005657","id":"490001253A","lat":51.322793,"lon":-0.13584,"name":"The Avenue","parentId":"490G00005657","stationId":"490G00005657","stopLetter":"A","topMostParentId":"490G00005657"},{"icsId":"1014704","id":"490014704N","lat":51.323742,"lon":-0.134467,"name":"Willow Court","parentId":"490G00014704","stationId":"490G00014704","stopLetter":"RA","topMostParentId":"490G00014704"},{"icsId":"1015438","id":"490012207N","lat":51.327064,"lon":-0.12961,"name":"Smitham Downs Road","parentId":"490G00015438","stationId":"490G00015438","stopLetter":"RB","topMostParentId":"490G00015438"},{"icsId":"1010565","id":"490010565C","lat":51.330856,"lon":-0.125494,"name":"Brighton Road / Old Lodge Lane","parentId":"490G000687","stationId":"490G000687","stopLetter":"RC","topMostParentId":"490G000687"},{"icsId":"1007560","id":"490007560N","lat":51.333156,"lon":-0.123103,"name":"Grovelands Road","parentId":"490G00007560","stationId":"490G00007560","stopLetter":"RD","topMostParentId":"490G00007560"},{"icsId":"1011274","id":"490011274W","lat":51.337089,"lon":-0.118822,"name":"Purley Tesco","parentId":"490G000716","stationId":"490G000716","stopLetter":"W","topMostParentId":"490G000716"},{"icsId":"1011259","id":"490011259D","lat":51.339168,"lon":-0.116109,"name":"Purley / Downlands Precinct","parentId":"490G00011259","stationId":"490G00011259","stopLetter":"D","topMostParentId":"490G00011259"},{"icsId":"1005236","id":"490005236N","lat":51.34067,"lon":-0.113363,"name":"Christchurch Road / Purley Hospital","parentId":"490G00005236","stationId":"490G00005236","stopLetter":"E","topMostParentId":"490G00005236"},{"icsId":"1010002","id":"490010002N","lat":51.342984,"lon":-0.109032,"name":"Montpelier Road","parentId":"490G00010002","stationId":"490G00010002","stopLetter":"F","topMostParentId":"490G00010002"},{"icsId":"1013543","id":"490013543N","lat":51.344433,"lon":-0.106316,"name":"Brighton Road / Purley Downs Road","parentId":"490G00013543","stationId":"490G00013543","stopLetter":"J","topMostParentId":"490G00013543"},{"icsId":"1003117","id":"490003117A","lat":51.347117,"lon":-0.10273,"name":"Biddulph Road","parentId":"490G00003117","stationId":"490G00003117","stopLetter":"GA","topMostParentId":"490G00003117"},{"icsId":"1013603","id":"490013603N","lat":51.348714,"lon":-0.101358,"name":"Purley Oaks Station","parentId":"490G00013603","stationId":"490G00013603","stopLetter":"GB","topMostParentId":"490G00013603"},{"icsId":"1011481","id":"490011481N","lat":51.352533,"lon":-0.098399,"name":"Sanderstead Road","parentId":"490G00011481","stationId":"490G00011481","stopLetter":"GC","topMostParentId":"490G00011481"},{"icsId":"1012272","id":"490012272N","lat":51.355222,"lon":-0.097857,"name":"South Croydon Bus Garage","parentId":"490G00012272","stationId":"490G00012272","stopLetter":"GD","topMostParentId":"490G00012272"},{"icsId":"1007670","id":"490007670N","lat":51.358504,"lon":-0.097865,"name":"Haling Park Road","parentId":"490G00007670","stationId":"490G00007670","stopLetter":"GE","topMostParentId":"490G00007670"},{"icsId":"1013920","id":"490013920N","lat":51.360567,"lon":-0.098095,"name":"Upland Road","parentId":"490G00013920","stationId":"490G00013920","stopLetter":"GF","topMostParentId":"490G00013920"},{"icsId":"1013100","id":"490013100H","lat":51.362943,"lon":-0.098183,"name":"Swan & Sugar Loaf","parentId":"490G00013100","stationId":"490G00013100","stopLetter":"H","topMostParentId":"490G00013100"},{"icsId":"1005574","id":"490005574V","lat":51.367247,"lon":-0.099083,"name":"Coombe Road","parentId":"490G00005574","stationId":"490G00005574","stopLetter":"V","topMostParentId":"490G00005574"},{"icsId":"1005855","id":"490005855C17","lat":51.371243,"lon":-0.100397,"name":"Croydon Flyover","parentId":"490G00005855","stationId":"490G00005855","stopLetter":"KU","topMostParentId":"490G00005855"},{"icsId":"1005858","id":"490005858C6","lat":51.372407,"lon":-0.098955,"name":"Croydon Library","parentId":"490G00005858","stationId":"490G00005858","stopLetter":"KL","topMostParentId":"490G00005858"},{"icsId":"1010839","id":"490010839C1","lat":51.373557,"lon":-0.097772,"name":"Park Street","parentId":"490G00010839","stationId":"490G00010839","stopLetter":"KE","topMostParentId":"490G00010839"},{"icsId":"1014614","id":"490014614E15","lat":51.376103,"lon":-0.0984,"name":"Whitgift Centre","parentId":"490G00014614","stationId":"490G00014614","stopLetter":"WL","topMostParentId":"490G00014614"},{"icsId":"1014420","id":"490014420Y","lat":51.379075,"lon":-0.101481,"name":"West Croydon Bus Station","parentId":"490G000824","stationId":"490G000824","stopLetter":"B4","topMostParentId":"HUBWCY"},{"icsId":"1001324","id":"490001324W2","lat":51.378536,"lon":-0.103687,"name":"West Croydon Station","parentId":"490G01324W2","stationId":"490G01324W2","stopLetter":"WT","topMostParentId":"HUBWCY"},{"icsId":"1005856","id":"490005856W3","lat":51.380333,"lon":-0.105309,"name":"Montague Road","parentId":"490G00005856","stationId":"490G00005856","stopLetter":"LD","topMostParentId":"490G00005856"},{"icsId":"1004367","id":"490004367N","lat":51.383774,"lon":-0.108429,"name":"Sumner Road","parentId":"490G00004367","stationId":"490G00004367","stopLetter":"LE","topMostParentId":"490G00004367"},{"icsId":"1004368","id":"490004368N","lat":51.384806,"lon":-0.109421,"name":"Broad Green Avenue","parentId":"490G00004368","stationId":"490G00004368","stopLetter":"LF","topMostParentId":"490G00004368"},{"icsId":"1009743","id":"490009732B","lat":51.386901,"lon":-0.111045,"name":"Canterbury Road","parentId":"490G00009743","stationId":"490G00009743","stopLetter":"B","topMostParentId":"490G00009743"},{"icsId":"1009732","id":"490006250D","lat":51.390285,"lon":-0.112343,"name":"Croydon University Hospital","parentId":"490G00009732","stationId":"490G00009732","stopLetter":"D","topMostParentId":"490G00009732"},{"icsId":"1013632","id":"490013632H","lat":51.392978,"lon":-0.114302,"name":"Thornton Heath Pond","parentId":"490G00013632","stationId":"490G00013632","stopLetter":"H","topMostParentId":"490G00013632"},{"icsId":"1005501","id":"490005501S","lat":51.395209,"lon":-0.114901,"name":"Colliers Water Lane","parentId":"490G00005501","stationId":"490G00005501","stopLetter":"S","topMostParentId":"490G00005501"},{"icsId":"1008939","id":"490008942N","lat":51.397674,"lon":-0.116079,"name":"Langdale Road","parentId":"490G00008939","stationId":"490G00008939","stopLetter":"A","topMostParentId":"490G00008939"},{"icsId":"1007099","id":"490007099W","lat":51.400753,"lon":-0.118526,"name":"Galpins Road / London Road","parentId":"490G00007099","stationId":"490G00007099","stopLetter":"C","topMostParentId":"490G00007099"},{"icsId":"1007277","id":"490007277W","lat":51.39937,"lon":-0.121429,"name":"Goldwell Road","parentId":"490G00007277","stationId":"490G00007277","stopLetter":"->W","topMostParentId":"490G00007277"},{"icsId":"1012159","id":"490012159A","lat":51.398134,"lon":-0.123995,"name":"Silverleigh Road","parentId":"490G00012159","stationId":"490G00012159","stopLetter":"A","topMostParentId":"490G00012159"},{"icsId":"1015020","id":"490015020D","lat":51.398989,"lon":-0.128532,"name":"Yorkshire Road","parentId":"490G00015020","stationId":"490G00015020","stopLetter":"D","topMostParentId":"490G00015020"},{"icsId":"1005148","id":"490005148G","lat":51.399671,"lon":-0.131293,"name":"Pollards Hill Library","parentId":"490G00005148","stationId":"490G00005148","stopLetter":"G","topMostParentId":"490G00005148"},{"icsId":"1008527","id":"490008527K","lat":51.402207,"lon":-0.135215,"name":"Ivy Gardens","parentId":"490G00008527","stationId":"490G00008527","stopLetter":"K","topMostParentId":"490G00008527"},{"icsId":"1010321","id":"490010321P","lat":51.404327,"lon":-0.137372,"name":"Northborough Road","parentId":"490G00010321","stationId":"490G00010321","stopLetter":"P","topMostParentId":"490G00010321"},{"icsId":"1011739","id":"490011739N","lat":51.406716,"lon":-0.140582,"name":"Stanford Way","parentId":"490G00011739","stationId":"490G00011739","stopLetter":"VA","topMostParentId":"490G00011739"},{"icsId":"1009338","id":"490009338E1","lat":51.409296,"lon":-0.142174,"name":"Longthornton Road","parentId":"490G00009338","stationId":"490G00009338","stopLetter":"VE","topMostParentId":"490G00009338"},{"icsId":"1011737","id":"490011737N","lat":51.411302,"lon":-0.140554,"name":"Rowan Crescent","parentId":"490G00011737","stationId":"490G00011737","stopLetter":"VF","topMostParentId":"490G00011737"},{"icsId":"1007531","id":"490007531W","lat":51.412753,"lon":-0.1413,"name":"Greyhound Terrace","parentId":"490G00007531","stationId":"490G00007531","stopLetter":"VH","topMostParentId":"490G00007531"},{"icsId":"1004233","id":"490004233N","lat":51.41502,"lon":-0.140202,"name":"Braeside Road","parentId":"490G00004233","stationId":"490G00004233","stopLetter":"VJ","topMostParentId":"490G00004233"},{"icsId":"1003057","id":"490003057S1","lat":51.417799,"lon":-0.136278,"name":"Streatham Common Station","parentId":"490G00003057","stationId":"490G00003057","stopLetter":"CS","topMostParentId":"490G00003057"},{"icsId":"1001287","id":"490001280SA","lat":51.418725,"lon":-0.134557,"name":"Tankerville Road","parentId":"490G00001287","stationId":"490G00001287","stopLetter":"CT","topMostParentId":"490G00001287"},{"icsId":"1012922","id":"490012922SC","lat":51.421632,"lon":-0.129635,"name":"Greyhound Lane / Streatham High Road","parentId":"490G00012922","stationId":"490G00012922","stopLetter":"CU","topMostParentId":"490G00012922"},{"icsId":"1001279","id":"490001279S3","lat":51.425176,"lon":-0.130842,"name":"Streatham Station","parentId":"490G01279S3","stationId":"490G01279S3","stopLetter":"SJ","topMostParentId":"910GSTRETHM"}]}]}