{"direction":"outbound","lineId":"601","lineName":"601","mode":"bus","stopPointSequences":[{"stopPoint":[{"icsId":"1013214","id":"490013214A","lat":51.507389,"lon":0.109183,"name":"Thamesmead Town Centre","parentId":"490G00013214","stationId":"490G00013214","stopLetter":"A","topMostParentId":"490G00013214"},{"icsId":"1009198","id":"490009198D","lat":51.507586,"lon":0.112708,"name":"Linton Mead Primary School","parentId":"490G00009198","stationId":"490G00009198","stopLetter":"D","topMostParentId":"490G00009198"},{"icsId":"1008405","id":"490008405E","lat":51.509319,"lon":0.116377,"name":"Hoveton Road","parentId":"490G00008405","stationId":"490G00008405","topMostParentId":"490G00008405"},{"icsId":"1010268","id":"490010268E","lat":51.509522,"lon":0.120061,"name":"Nickelby Close","parentId":"490G00010268","stationId":"490G00010268","stopLetter":"NE","topMostParentId":"490G00010268"},{"icsId":"1006355","id":"490006355S","lat":51.509107,"lon":0.126066,"name":"Eastgate Close","parentId":"490G00006355","stationId":"490G00006355","stopLetter":"NG","topMostParentId":"490G00006355"},{"icsId":"1009206","id":"490009206W","lat":51.506652,"lon":0.1266,"name":"Lister Walk","parentId":"490G00009206","stationId":"490G00009206","stopLetter":"NH","topMostParentId":"490G00009206"},{"icsId":"1011113","id":"490011113W","lat":51.506063,"lon":0.12137,"name":"Poplar Place","parentId":"490G00011113","stationId":"490G00011113","stopLetter":"SE","topMostParentId":"490G00011113"},{"icsId":"1004130","id":"490004130S","lat":51.503737,"lon":0.119202,"name":"Carlyle Road / Crossway","parentId":"490G00004130","stationId":"490G00004130","stopLetter":"SJ","topMostParentId":"490G00004130"},{"icsId":"1010190","id":"490010190S","lat":51.497482,"lon":0.121476,"name":"Newacres Library","parentId":"490G00010190","stationId":"490G00010190","stopLetter":"->S","topMostParentId":"490G00010190"},{"icsId":"1014990","id":"490014990E","lat":51.496421,"lon":0.122464,"name":"Yarnton Way / Harrow Manorway","parentId":"490G00014990","stationId":"490G00014990","stopLetter":"T","topMostParentId":"490G00014990"},{"icsId":"1009166","id":"490009166E","lat":51.496464,"lon":0.128993,"name":"Limestone Walk","parentId":"490G00009166","stationId":"490G00009166","stopLetter":"->E","topMostParentId":"490G00009166"},{"icsId":"1013211","id":"490013211E","lat":51.495441,"lon":0.133815,"name":"The Business Academy","parentId":"490G00013211","stationId":"490G00013211","stopLetter":"->E","topMostParentId":"490G00013211"},{"icsId":"1010432","id":"490010432E","lat":51.493944,"lon":0.138484,"name":"Northwood Place","parentId":"490G00010432","stationId":"490G00010432","stopLetter":"->E","topMostParentId":"490G00010432"},{"icsId":"1009042","id":"490009042E","lat":51.494193,"lon":0.142126,"name":"Thames Innovation Centre","parentId":"490G00009042","stationId":"490G00009042","stopLetter":"->E","topMostParentId":"490G00009042"},{"icsId":"1007643","id":"490007643E","lat":51.494394,"lon":0.150276,"name":"Hailey Road","parentId":"490G00007643","stationId":"490G00007643","stopLetter":"->E","topMostParentId":"490G00007643"},{"icsId":"1010308","id":"490010308N","lat":51.495794,"lon":0.152877,"name":"Yarnton Way / Norman Road","parentId":"490G00010308","stationId":"490G00010308","stopLetter":"->N","topMostParentId":"490G00010308"},{"icsId":"1006343","id":"490006343E","lat":51.498129,"lon":0.156503,"name":"Picardy Manorway / Eastern Way","parentId":"490G00006343","stationId":"490G00006343","topMostParentId":"490G00006343"},{"icsId":"1015147","id":"490015147D","lat":51.491378,"lon":0.155867,"name":"Picardy Manorway / Belvedere Station","parentId":"490G00015147","stationId":"490G00015147","stopLetter":"F","topMostParentId":"490G00015147"},{"icsId":"1003880","id":"490003880A","lat":51.490607,"lon":0.152287,"name":"Lower Road / Belvedere Station","parentId":"490G00003880","stationId":"490G00003880","stopLetter":"H","topMostParentId":"490G00003880"},{"icsId":"1007689","id":"490007689S","lat":51.487885,"lon":0.14971,"name":"Halt Robin Road","parentId":"490G00007689","stationId":"490G00007689","stopLetter":"L","topMostParentId":"490G00007689"},{"icsId":"1003882","id":"490003882S","lat":51.484823,"lon":0.148486,"name":"Belvedere Police Station","parentId":"490G00003882","stationId":"490G00003882","stopLetter":"M","topMostParentId":"490G00003882"},{"icsId":"1003247","id":"490003247S","lat":51.483395,"lon":0.147396,"name":"All Saints Church","parentId":"490G00003247","stationId":"490G00003247","stopLetter":"N","topMostParentId":"490G00003247"},{"icsId":"1012593","id":"490012593S","lat":51.481876,"lon":0.14538,"name":"Stapley Road","parentId":"490G00012593","stationId":"490G00012593","topMostParentId":"490G00012593"},{"icsId":"1006210","id":"490006206S","lat":51.479581,"lon":0.143487,"name":"Nuxley Road / Dryhill Road","parentId":"490G00006210","stationId":"490G00006210","topMostParentId":"490G00006210"},{"icsId":"1010860","id":"490010860N1","lat":51.477624,"lon":0.145296,"name":"Parsonage Manorway","parentId":"490G00010860","stationId":"490G00010860","stopLetter":"->S","topMostParentId":"490G00010860"},{"icsId":"1009217","id":"490009217S","lat":51.473235,"lon":0.145335,"name":"Little Heath Road","parentId":"490G00009217","stationId":"490G00009217","stopLetter":"->S","topMostParentId":"490G00009217"},{"icsId":"1008292","id":"490008292S","lat":51.470815,"lon":0.144876,"name":"Hollingbourne Avenue","parentId":"490G00008292","stationId":"490G00008292","stopLetter":"->S","topMostParentId":"490G00008292"},{"icsId":"1003802","id":"490009326S","lat":51.468451,"lon":0.142821,"name":"Bedonwell Road / Long Lane","parentId":"490G00003802","stationId":"490G00003802","topMostParentId":"490G00003802"},{"icsId":"1008116","id":"490008116E","lat":51.466101,"lon":0.145922,"name":"Heversham Road","parentId":"490G00008116","stationId":"490G00008116","topMostParentId":"490G00008116"},{"icsId":"1003974","id":"490003974S2","lat":51.459624,"lon":0.152945,"name":"Bexleyheath Bus Garage","parentId":"490G00003974","stationId":"490G00003974","stopLetter":"NW","topMostParentId":"490G00003974"},{"icsId":"1007662","id":"490007662S","lat":51.452762,"lon":0.151989,"name":"Halcot Avenue","parentId":"490G00007662","stationId":"490G00007662","stopLetter":"C","topMostParentId":"490G00007662"},{"icsId":"1004489","id":"490004489S","lat":51.451449,"lon":0.152935,"name":"Broomfield Road","parentId":"490G00004489","stationId":"490G00004489","stopLetter":"D","topMostParentId":"490G00004489"},{"icsId":"1007386","id":"490007386S","lat":51.44876,"lon":0.156881,"name":"Gravel Hill Close","parentId":"490G00007386","stationId":"490G00007386","stopLetter":"E","topMostParentId":"490G00007386"},{"icsId":"1007872","id":"490007872J","lat":51.444824,"lon":0.152292,"name":"Hartford Road","parentId":"490G00007872","stationId":"490G00007872","stopLetter":"J","topMostParentId":"490G00007872"},{"icsId":"1003984","id":"490003984G","lat":51.442332,"lon":0.150909,"name":"Bexley Library","parentId":"490G00003984","stationId":"490G00003984","stopLetter":"G","topMostParentId":"490G00003984"},{"icsId":"1014042","id":"490014042K","lat":51.439219,"lon":0.152921,"name":"North Cray Road / Vicarage Road","parentId":"490G00014042","stationId":"490G00014042","stopLetter":"K","topMostParentId":"490G00014042"},{"icsId":"1000394","id":"490014042M","lat":51.438208,"lon":0.154111,"name":"Vicarage Road","parentId":"490G000042","stationId":"490G000042","stopLetter":"M","topMostParentId":"490G000042"},{"icsId":"1012799","id":"490012799E","lat":51.437207,"lon":0.1611,"name":"St Mary's Road","parentId":"490G00012799","stationId":"490G00012799","stopLetter":"->E","topMostParentId":"490G00012799"},{"icsId":"1005969","id":"490005969E","lat":51.43547,"lon":0.166025,"name":"Dartford Road / Baldwyns Park","parentId":"490G00005969","stationId":"490G00005969","topMostParentId":"490G00005969"},{"icsId":"1015612","id":"2400A035780A","lat":51.435148,"lon":0.173218,"name":"Bexley Park","topMostParentId":"2400A035780A"}]}]}