{"direction":"outbound","lineId":"608","lineName":"608","mode":"bus","stopPointSequences":[{"stopPoint":[{"icsId":"1007095","id":"490007095N1","lat":51.594137,"lon":0.212982,"name":"Gallows Corner","parentId":"490G00007095","stationId":"490G00007095","stopLetter":"GL","topMostParentId":"490G00007095"},{"icsId":"1006738","id":"490006738N","lat":51.596852,"lon":0.212089,"name":"Faringdon Avenue","parentId":"490G00006738","stationId":"490G00006738","stopLetter":"GK","topMostParentId":"490G00006738"},{"icsId":"1008036","id":"490008036N","lat":51.599506,"lon":0.211048,"name":"Heaton Avenue","parentId":"490G00008036","stationId":"490G00008036","stopLetter":"->N","topMostParentId":"490G00008036"},{"icsId":"1010143","id":"490010143N","lat":51.60216,"lon":0.210022,"name":"Myrtle Road","parentId":"490G00010143","stationId":"490G00010143","stopLetter":"->N","topMostParentId":"490G00010143"},{"icsId":"1007354","id":"490007354N","lat":51.604086,"lon":0.209466,"name":"Grange Road","parentId":"490G00007354","stationId":"490G00007354","stopLetter":"->N","topMostParentId":"490G00007354"},{"icsId":"1012895","id":"490012895E","lat":51.605334,"lon":0.211014,"name":"Charlbury Crescent","parentId":"490G00012895","stationId":"490G00012895","stopLetter":"->E","topMostParentId":"490G00012895"},{"icsId":"1004992","id":"490004992E","lat":51.606104,"lon":0.213579,"name":"Chatteris Avenue","parentId":"490G00004992","stationId":"490G00004992","stopLetter":"->E","topMostParentId":"490G00004992"},{"icsId":"1006762","id":"490006762E","lat":51.607701,"lon":0.219029,"name":"Hilldene Avenue Shopping Centre","parentId":"490G00006762","stationId":"490G00006762","stopLetter":"->E","topMostParentId":"490G00006762"},{"icsId":"1005187","id":"490005187E","lat":51.608384,"lon":0.221908,"name":"Chippenham Road","parentId":"490G00005187","stationId":"490G00005187","stopLetter":"HJ","topMostParentId":"490G00005187"},{"icsId":"1007828","id":"490007828S","lat":51.607459,"lon":0.223711,"name":"Central Park Leisure Centre","parentId":"490G00007828","stationId":"490G00007828","stopLetter":"GP","topMostParentId":"490G00007828"},{"icsId":"1007827","id":"490007827S","lat":51.605396,"lon":0.226282,"name":"Harold Hill Community Centre","parentId":"490G00007827","stationId":"490G00007827","stopLetter":"GR","topMostParentId":"490G00007827"},{"icsId":"1007301","id":"490007301E","lat":51.60462,"lon":0.228352,"name":"Gooshays Drive","parentId":"490G00007301","stationId":"490G00007301","stopLetter":"PH","topMostParentId":"490G00007301"},{"icsId":"1010726","id":"490011852E","lat":51.605951,"lon":0.232577,"name":"Paines Brook Way","parentId":"490G00010726","stationId":"490G00010726","stopLetter":"PJ","topMostParentId":"490G00010726"},{"icsId":"1013497","id":"490013497S","lat":51.605322,"lon":0.234943,"name":"The Petersfield Centre","parentId":"490G00013497","stationId":"490G00013497","stopLetter":"PK","topMostParentId":"490G00013497"},{"icsId":"1012819","id":"490012819E","lat":51.603653,"lon":0.238963,"name":"St Neot's Road","parentId":"490G00012819","stationId":"490G00012819","stopLetter":"PL","topMostParentId":"490G00012819"},{"icsId":"1011536","id":"490013159E","lat":51.603792,"lon":0.242551,"name":"Tarnworth Road","parentId":"490G00011536","stationId":"490G00011536","stopLetter":"PN","topMostParentId":"490G00011536"},{"icsId":"1006711","id":"490006711S","lat":51.603415,"lon":0.244367,"name":"Fairford Way","parentId":"490G00006711","stationId":"490G00006711","stopLetter":"PP","topMostParentId":"490G00006711"},{"icsId":"1016847","id":"1500IM212B","lat":51.621109,"lon":0.304892,"name":"Brentwood High Street","parentId":"150G00002499","stationId":"150G00002499","stopLetter":"A","topMostParentId":"150G00002499"},{"icsId":"1017853","id":"1500IM1438B","lat":51.637221,"lon":0.326968,"name":"Shenfield High School","parentId":"150G00002519","stationId":"150G00002519","topMostParentId":"150G00002519"}]}]}