{"direction":"outbound","lineId":"61","lineName":"61","mode":"bus","stopPointSequences":[{"stopPoint":[{"icsId":"1005198","id":"490005198F","lat":51.420412,"lon":0.069203,"name":"Chislehurst / Gordon Arms","parentId":"490G00005198","stationId":"490G00005198","stopLetter":"X","topMostParentId":"490G00005198"},{"icsId":"1009356","id":"490009356M","lat":51.416853,"lon":0.070093,"name":"Loop Road","parentId":"490G00009356","stationId":"490G00009356","stopLetter":"M","topMostParentId":"490G00009356"},{"icsId":"1005205","id":"490005205P","lat":51.413025,"lon":0.073515,"name":"Centre Common Road / War Memorial","parentId":"490G00005205","stationId":"490G00005205","stopLetter":"P","topMostParentId":"490G00005205"},{"icsId":"1005197","id":"490005197S","lat":51.411998,"lon":0.075151,"name":"Royal Parade","parentId":"490G00005197","stationId":"490G00005197","stopLetter":"Q","topMostParentId":"490G00005197"},{"icsId":"1009572","id":"490009572S","lat":51.4085,"lon":0.081176,"name":"Manor Park Road","parentId":"490G00009572","stationId":"490G00009572","stopLetter":"->S","topMostParentId":"490G00009572"},{"icsId":"1009067","id":"490009067S","lat":51.401804,"lon":0.08704,"name":"St Pauls Cray Road / Leesons Hill","parentId":"490G00009067","stationId":"490G00009067","stopLetter":"DB","topMostParentId":"490G00009067"},{"icsId":"1010642","id":"490010642S","lat":51.395042,"lon":0.087508,"name":"Orpington Road","parentId":"490G00010642","stationId":"490G00010642","stopLetter":"J","topMostParentId":"490G00010642"},{"icsId":"1004022","id":"490004022E","lat":51.393589,"lon":0.088793,"name":"Birchwood Road","parentId":"490G00004022","stationId":"490G00004022","stopLetter":"K","topMostParentId":"490G00004022"},{"icsId":"1011154","id":"490011154S","lat":51.390047,"lon":0.090242,"name":"Chislehurst Road / Poverest Road","parentId":"490G00011154","stationId":"490G00011154","stopLetter":"L","topMostParentId":"490G00011154"},{"icsId":"1013293","id":"490013293S","lat":51.386926,"lon":0.087757,"name":"The Chenies","parentId":"490G00013293","stationId":"490G00013293","stopLetter":"M","topMostParentId":"490G00013293"},{"icsId":"1014695","id":"490014695E","lat":51.385276,"lon":0.088026,"name":"Willett Way","parentId":"490G00014695","stationId":"490G00014695","stopLetter":"N","topMostParentId":"490G00014695"},{"icsId":"1010948","id":"490010948E","lat":51.383766,"lon":0.095,"name":"Perry Hall School","parentId":"490G00010948","stationId":"490G00010948","stopLetter":"P","topMostParentId":"490G00010948"},{"icsId":"1010104","id":"490010104E","lat":51.38252,"lon":0.100792,"name":"Mountview Road","parentId":"490G00010104","stationId":"490G00010104","stopLetter":"J","topMostParentId":"490G00010104"},{"icsId":"1004801","id":"490004801S1","lat":51.38163,"lon":0.105781,"name":"High Street / Carlton Parade","parentId":"490G00004801","stationId":"490G00004801","stopLetter":"P","topMostParentId":"490G00004801"},{"icsId":"1010635","id":"490010635W","lat":51.37927,"lon":0.102526,"name":"High Street / Church Hill","parentId":"490G00010635","stationId":"490G00010635","stopLetter":"W","topMostParentId":"490G00010635"},{"icsId":"1014142","id":"490014142U","lat":51.377089,"lon":0.100285,"name":"Walnuts Centre","parentId":"490G00014142","stationId":"490G00014142","stopLetter":"U","topMostParentId":"490G00014142"},{"icsId":"1019892","id":"490015411S","lat":51.374282,"lon":0.098317,"name":"High Street / Orpington War Memorial","parentId":"490G00019892","stationId":"490G00019892","stopLetter":"S","topMostParentId":"490G00019892"},{"icsId":"1013818","id":"490013818J","lat":51.371761,"lon":0.091449,"name":"Tubbenden Lane","parentId":"490G00013818","stationId":"490G00013818","stopLetter":"J","topMostParentId":"490G00013818"},{"icsId":"1001220","id":"490001220A","lat":51.372711,"lon":0.087095,"name":"Orpington Station","parentId":"490G01220B","stationId":"490G01220B","stopLetter":"A","topMostParentId":"910GORPNGTN"},{"icsId":"1011150","id":"490011150W","lat":51.373119,"lon":0.078809,"name":"Pound Court Drive","parentId":"490G00011150","stationId":"490G00011150","stopLetter":"CA","topMostParentId":"490G00011150"},{"icsId":"1005790","id":"490005788W","lat":51.373314,"lon":0.073933,"name":"Crofton Road / Crofton Lane","parentId":"490G00005790","stationId":"490G00005790","stopLetter":"CB","topMostParentId":"490G00005790"},{"icsId":"1010512","id":"490010512W1","lat":51.373393,"lon":0.071494,"name":"Oakwood Road / St Paul's Church","parentId":"490G00010512","stationId":"490G00010512","stopLetter":"CC","topMostParentId":"490G00010512"},{"icsId":"1007255","id":"490007255W","lat":51.371163,"lon":0.063821,"name":"Glyndebourne Park","parentId":"490G00007255","stationId":"490G00007255","stopLetter":"CD","topMostParentId":"490G00007255"},{"icsId":"1012600","id":"490012600W","lat":51.368569,"lon":0.057886,"name":"Crofton Road / Starts Hill Road","parentId":"490G00012600","stationId":"490G00012600","stopLetter":"HL","topMostParentId":"490G00012600"},{"icsId":"1009243","id":"490009243W","lat":51.366787,"lon":0.054387,"name":"Locksbottom / St Michael's Church","parentId":"490G00009243","stationId":"490G00009243","stopLetter":"HK","topMostParentId":"490G00009243"},{"icsId":"1006757","id":"490006757N","lat":51.36863,"lon":0.049283,"name":"Farnborough Park","parentId":"490G00006757","stationId":"490G00006757","stopLetter":"->N","topMostParentId":"490G00006757"},{"icsId":"1008913","id":"490008913N","lat":51.371427,"lon":0.046189,"name":"Lakeside Drive","parentId":"490G00008913","stationId":"490G00008913","topMostParentId":"490G00008913"},{"icsId":"1004413","id":"490004413N","lat":51.376154,"lon":0.043842,"name":"Bromley Bus Garage","parentId":"490G00004413","stationId":"490G00004413","stopLetter":"BP","topMostParentId":"490G00004413"},{"icsId":"1010498","id":"490010498N","lat":51.380128,"lon":0.041778,"name":"Bromley Common / Holy Trinity Church","parentId":"490G00010498","stationId":"490G00010498","stopLetter":"BS","topMostParentId":"490G00010498"},{"icsId":"1013856","id":"490013856N","lat":51.383579,"lon":0.039344,"name":"Bromley Common / Turpington Lane","parentId":"490G00013856","stationId":"490G00013856","stopLetter":"BT","topMostParentId":"490G00013856"},{"icsId":"1008573","id":"490008573N","lat":51.389994,"lon":0.034498,"name":"Bromley Common / The Crown","parentId":"490G00008573","stationId":"490G00008573","stopLetter":"BU","topMostParentId":"490G00008573"},{"icsId":"1012309","id":"490012309W","lat":51.39311,"lon":0.030094,"name":"Southlands Road","parentId":"490G00012309","stationId":"490G00012309","stopLetter":"BV","topMostParentId":"490G00012309"},{"icsId":"1008330","id":"490008330N","lat":51.394713,"lon":0.026844,"name":"Homesdale Road","parentId":"490G00008330","stationId":"490G00008330","stopLetter":"PH","topMostParentId":"490G00008330"},{"icsId":"1003934","id":"490003934W","lat":51.396919,"lon":0.023075,"name":"Bertha James Day Centre","parentId":"490G00003934","stationId":"490G00003934","stopLetter":"BJ","topMostParentId":"490G00003934"},{"icsId":"1004423","id":"490004423TA","lat":51.398404,"lon":0.019359,"name":"Cromwell Avenue","parentId":"490G00004423","stationId":"490G00004423","stopLetter":"H","topMostParentId":"490G00004423"},{"icsId":"1001037","id":"490001037W","lat":51.400663,"lon":0.016627,"name":"Bromley South Station","parentId":"490G01037U","stationId":"490G01037U","stopLetter":"B","topMostParentId":"910GBROMLYS"},{"icsId":"1004410","id":"4900004410U","lat":51.402771,"lon":0.016403,"name":"Elmfield Road / The Mall","parentId":"490G00004410","stationId":"490G00004410","stopLetter":"U","topMostParentId":"490G00004410"},{"icsId":"1008665","id":"490008665Q","lat":51.404237,"lon":0.018495,"name":"Bromley Civic Centre","parentId":"490G00008665","stationId":"490G00008665","stopLetter":"S","topMostParentId":"490G00008665"},{"icsId":"1004435","id":"490004435Q","lat":51.406005,"lon":0.016603,"name":"Bromley Town Hall","parentId":"490G00004435","stationId":"490G00004435","stopLetter":"Q","topMostParentId":"490G00004435"},{"icsId":"1004425","id":"4900004425O","lat":51.407987,"lon":0.013814,"name":"West Street","parentId":"490G00004425","stationId":"490G00004425","stopLetter":"O","topMostParentId":"490G00004425"},{"icsId":"1001036","id":"490001036N","lat":51.409,"lon":0.016591,"name":"Bromley North Station","parentId":"490G01036EB","stationId":"490G01036EB","stopLetter":"->N","topMostParentId":"910GBROMLYN"}]}]}