{"direction":"outbound","lineId":"62","lineName":"62","mode":"bus","stopPointSequences":[{"stopPoint":[{"icsId":"1015111","id":"490015111S","lat":51.59162,"lon":0.142188,"name":"Marks Gate / Billet Road","parentId":"490G00015111","stationId":"490G00015111","stopLetter":"B","topMostParentId":"490G00015111"},{"icsId":"1007071","id":"490007071W","lat":51.590739,"lon":0.141685,"name":"Furze Farm Close","parentId":"490G00007071","stationId":"490G00007071","stopLetter":"C","topMostParentId":"490G00007071"},{"icsId":"1008822","id":"490008822W","lat":51.58974,"lon":0.137278,"name":"Kingston Hill Avenue","parentId":"490G00008822","stationId":"490G00008822","stopLetter":"D","topMostParentId":"490G00008822"},{"icsId":"1004004","id":"490004004S","lat":51.587409,"lon":0.134426,"name":"Rose Lane / Billet Road","parentId":"490G00004004","stationId":"490G00004004","stopLetter":"E","topMostParentId":"490G00004004"},{"icsId":"1000458","id":"490009014S","lat":51.584387,"lon":0.135944,"name":"Marks Gate Community Centre","parentId":"490G000104","stationId":"490G000104","stopLetter":"F","topMostParentId":"490G000104"},{"icsId":"1014548","id":"490014548E","lat":51.582866,"lon":0.14042,"name":"Whalebone Lane North","parentId":"490G00014548","stationId":"490G00014548","stopLetter":"G","topMostParentId":"490G00014548"},{"icsId":"1007157","id":"490007157S","lat":51.578333,"lon":0.140972,"name":"Pemberton Gardens","parentId":"490G00007157","stationId":"490G00007157","stopLetter":"H","topMostParentId":"490G00007157"},{"icsId":"1009885","id":"490009883S","lat":51.574427,"lon":0.14112,"name":"Whalebone Grove","parentId":"490G00009885","stationId":"490G00009885","stopLetter":"P","topMostParentId":"490G00009885"},{"icsId":"1003449","id":"490003449W","lat":51.571896,"lon":0.13937,"name":"Farrance Road","parentId":"490G00003449","stationId":"490G00003449","stopLetter":"L","topMostParentId":"490G00003449"},{"icsId":"1009910","id":"490009910J","lat":51.571626,"lon":0.135432,"name":"St Chad's Road","parentId":"490G00009910","stationId":"490G00009910","stopLetter":"J","topMostParentId":"490G00009910"},{"icsId":"1008541","id":"490008541H","lat":51.570894,"lon":0.13117,"name":"Japan Road","parentId":"490G00008541","stationId":"490G00008541","stopLetter":"H","topMostParentId":"490G00008541"},{"icsId":"1004947","id":"490004947S","lat":51.570276,"lon":0.130578,"name":"Herbert Gardens","parentId":"490G00004947","stationId":"490G00004947","stopLetter":"E","topMostParentId":"490G00004947"},{"icsId":"1001055","id":"490001055B","lat":51.567475,"lon":0.129812,"name":"Chadwell Heath Station","parentId":"490G01055B","stationId":"490G01055B","stopLetter":"B","topMostParentId":"910GCHDWLHT"},{"icsId":"1009753","id":"490009741S","lat":51.564875,"lon":0.129878,"name":"Kemp Road","parentId":"490G00009753","stationId":"490G00009753","stopLetter":"E","topMostParentId":"490G00009753"},{"icsId":"1000354","id":"490007462S","lat":51.562561,"lon":0.130016,"name":"Valence Avenue / Green Lane","parentId":"490G00000354","stationId":"490G00000354","stopLetter":"F","topMostParentId":"490G00000354"},{"icsId":"1003901","id":"490003759S","lat":51.558222,"lon":0.130246,"name":"Becontree Avenue","parentId":"490G00003901","stationId":"490G00003901","stopLetter":"G","topMostParentId":"490G00003901"},{"icsId":"1009179","id":"490009179S1","lat":51.556215,"lon":0.130339,"name":"Lindisfarne Road","parentId":"490G00009179","stationId":"490G00009179","stopLetter":"SB","topMostParentId":"490G00009179"},{"icsId":"1009705","id":"490009704F","lat":51.552399,"lon":0.130536,"name":"Martins Corner / Wood Lane","parentId":"490G00009705","stationId":"490G00009705","stopLetter":"SC","topMostParentId":"490G00009705"},{"icsId":"1010856","id":"490010856H","lat":51.550717,"lon":0.130039,"name":"Parsloes Avenue","parentId":"490G00010856","stationId":"490G00010856","stopLetter":"SD","topMostParentId":"490G00010856"},{"icsId":"1009676","id":"490009676S","lat":51.548343,"lon":0.127044,"name":"Marlborough Road","parentId":"490G00009676","stationId":"490G00009676","stopLetter":"SE","topMostParentId":"490G00009676"},{"icsId":"1014964","id":"490014964E","lat":51.545429,"lon":0.124586,"name":"Wroxall Road","parentId":"490G00014964","stationId":"490G00014964","stopLetter":"SF","topMostParentId":"490G00014964"},{"icsId":"1011811","id":"490011811S","lat":51.543459,"lon":0.126599,"name":"Rusper Road","parentId":"490G00011811","stationId":"490G00011811","stopLetter":"SH","topMostParentId":"490G00011811"},{"icsId":"1000019","id":"490000019B","lat":51.539842,"lon":0.1277,"name":"Becontree Station","parentId":"490G00019B","stationId":"490G00019B","stopLetter":"SJ","topMostParentId":"940GZZLUBEC","zone":"5"},{"icsId":"1003609","id":"490003609W","lat":51.538628,"lon":0.125221,"name":"Stamford Road / Health Centre","parentId":"490G00003609","stationId":"490G00003609","stopLetter":"WQ","topMostParentId":"490G00003609"},{"icsId":"1004762","id":"490004762W","lat":51.53813,"lon":0.117987,"name":"Canonsleigh Road","parentId":"490G00004762","stationId":"490G00004762","stopLetter":"->W","topMostParentId":"490G00004762"},{"icsId":"1014919","id":"490014919S","lat":51.537116,"lon":0.112345,"name":"Woodward Road","parentId":"490G00014919","stationId":"490G00014919","stopLetter":"L","topMostParentId":"490G00014919"},{"icsId":"1009629","id":"490009629S","lat":51.534143,"lon":0.11065,"name":"Maplestead Road","parentId":"490G00009629","stationId":"490G00009629","stopLetter":"M","topMostParentId":"490G00009629"},{"icsId":"1013224","id":"490013224W","lat":51.533389,"lon":0.106059,"name":"Barking Industrial Park","parentId":"490G00013224","stationId":"490G00013224","stopLetter":"Q","topMostParentId":"490G00013224"},{"icsId":"1011591","id":"490011591W","lat":51.534841,"lon":0.103833,"name":"Rippleside Cemetery","parentId":"490G00011591","stationId":"490G00011591","stopLetter":"T","topMostParentId":"490G00011591"},{"icsId":"1011590","id":"490011590N","lat":51.536219,"lon":0.102714,"name":"Meadow Road","parentId":"490G000726","stationId":"490G000726","stopLetter":"U","topMostParentId":"490G000726"},{"icsId":"1000244","id":"490000244A","lat":51.538424,"lon":0.101605,"name":"Upney Station","parentId":"490G00244B","stationId":"490G00244B","stopLetter":"V","topMostParentId":"940GZZLUUPY","zone":"4"},{"icsId":"1019006","id":"490003608N","lat":51.540706,"lon":0.09822,"name":"Sandringham Road","parentId":"490G00019006","stationId":"490G00019006","stopLetter":"W","topMostParentId":"490G00019006"},{"icsId":"1011864","id":"490011864N","lat":51.542607,"lon":0.096014,"name":"Salisbury Avenue","parentId":"490G00011864","stationId":"490G00011864","stopLetter":"BL","topMostParentId":"490G00011864"},{"icsId":"1003606","id":"490003605N","lat":51.544936,"lon":0.09452,"name":"Barking Bus Garage, Fair Cross","parentId":"490G00003606","stationId":"490G00003606","stopLetter":"BN","topMostParentId":"490G00003606"},{"icsId":"1006700","id":"490006700W","lat":51.545286,"lon":0.092532,"name":"Faircross","parentId":"490G00006700","stationId":"490G00006700","stopLetter":"BP","topMostParentId":"490G00006700"},{"icsId":"1008419","id":"490008419W","lat":51.543232,"lon":0.087707,"name":"Hulse Avenue / Barking Park","parentId":"490G00008419","stationId":"490G00008419","stopLetter":"BR","topMostParentId":"490G00008419"},{"icsId":"1006734","id":"490006734W","lat":51.541576,"lon":0.084704,"name":"Park Avenue","parentId":"490G00006734","stationId":"490G00006734","stopLetter":"WB","topMostParentId":"490G00006734"},{"icsId":"1000015","id":"490000015H","lat":51.539235,"lon":0.081367,"name":"Barking Station","parentId":"490G00015G","stationId":"490G00015G","stopLetter":"H","topMostParentId":"HUBBKG","zone":"4"},{"icsId":"1003616","id":"490003616C","lat":51.538056,"lon":0.078357,"name":"Barking Town Centre","parentId":"490G00003616","stationId":"490G00003616","stopLetter":"C","topMostParentId":"490G00003616"},{"icsId":"1004383","id":"490003603B","lat":51.536093,"lon":0.076955,"name":"Broadway Theatre","parentId":"490G00004383","stationId":"490G00004383","stopLetter":"B","topMostParentId":"490G00004383"},{"icsId":"1012573","id":"490012573S","lat":51.532776,"lon":0.079947,"name":"Gascoigne Primary School","parentId":"490G00012573","stationId":"490G00012573","stopLetter":"->S","topMostParentId":"490G00012573"},{"icsId":"1004189","id":"490004189S","lat":51.530794,"lon":0.081659,"name":"Boundary Road","parentId":"490G00004189","stationId":"490G00004189","topMostParentId":"490G00004189"},{"icsId":"1007132","id":"490007132S","lat":51.529678,"lon":0.082747,"name":"Gascoigne Estate","parentId":"490G00007132","stationId":"490G00007132","topMostParentId":"490G00007132"}]}]}