{"direction":"outbound","lineId":"625","lineName":"625","mode":"bus","stopPointSequences":[{"stopPoint":[{"icsId":"1011067","id":"490011067S2","lat":51.480767,"lon":0.084738,"name":"Warwick Terrace / Plumstead Common Road","parentId":"490G00011067","stationId":"490G00011067","stopLetter":"C","topMostParentId":"490G00011067"},{"icsId":"1011072","id":"490011072E","lat":51.480158,"lon":0.085099,"name":"Plumstead Common Road / Erindale Terrace","parentId":"490G00011072","stationId":"490G00011072","stopLetter":"K","topMostParentId":"490G00011072"},{"icsId":"1013607","id":"490013607E","lat":51.480256,"lon":0.088661,"name":"The Slade / Ravine Grove","parentId":"490G00013607","stationId":"490G00013607","stopLetter":"L","topMostParentId":"490G00013607"},{"icsId":"1003672","id":"490009795E","lat":51.478596,"lon":0.093481,"name":"Bassant Road","parentId":"490G00003672","stationId":"490G00003672","stopLetter":"->S","topMostParentId":"490G00003672"},{"icsId":"1008773","id":"490008773S","lat":51.477424,"lon":0.093658,"name":"Kingsdale Road","parentId":"490G00008773","stationId":"490G00008773","stopLetter":"->S","topMostParentId":"490G00008773"},{"icsId":"1013627","id":"490013627S","lat":51.475937,"lon":0.093864,"name":"Thornhill Avenue","parentId":"490G00013627","stationId":"490G00013627","stopLetter":"->S","topMostParentId":"490G00013627"},{"icsId":"1013380","id":"490013375S","lat":51.473652,"lon":0.095386,"name":"Combeside","parentId":"490G00013380","stationId":"490G00013380","stopLetter":"->S","topMostParentId":"490G00013380"},{"icsId":"1005053","id":"490005053S","lat":51.471486,"lon":0.096324,"name":"Chaucer Road","parentId":"490G00005053","stationId":"490G00005053","topMostParentId":"490G00005053"},{"icsId":"1014655","id":"490014655E","lat":51.469085,"lon":0.098834,"name":"Wickham Street / Edison Road","parentId":"490G00014655","stationId":"490G00014655","stopLetter":"->E","topMostParentId":"490G00014655"},{"icsId":"1004602","id":"490004602S","lat":51.467725,"lon":0.100975,"name":"Central Avenue / Wickham Street","parentId":"490G00004602","stationId":"490G00004602","topMostParentId":"490G00004602"},{"icsId":"1001318","id":"490001318A","lat":51.464493,"lon":0.100178,"name":"Welling Station","parentId":"490G01318B","stationId":"490G01318B","stopLetter":"A","topMostParentId":"910GWELLING"},{"icsId":"1006018","id":"490006018H","lat":51.463016,"lon":0.104789,"name":"Deepdene Road","parentId":"490G00006018","stationId":"490G00006018","stopLetter":"H","topMostParentId":"490G00006018"},{"icsId":"1019725","id":"490014351L","lat":51.461659,"lon":0.106771,"name":"Hook Lane / St Leonards Close","parentId":"490G00019725","stationId":"490G00019725","stopLetter":"L","topMostParentId":"490G00019725"},{"icsId":"1006735","id":"490006735S","lat":51.460085,"lon":0.103244,"name":"Faraday Road","parentId":"490G00006735","stationId":"490G00006735","stopLetter":"->S","topMostParentId":"490G00006735"},{"icsId":"1014536","id":"490014536N","lat":51.45781,"lon":0.099224,"name":"Westwood Lane / Hook Lane","parentId":"490G00014536","stationId":"490G00014536","stopLetter":"->N","topMostParentId":"490G00014536"},{"icsId":"1014389","id":"490014389S","lat":51.454147,"lon":0.103431,"name":"Wendover Way","parentId":"490G00014389","stationId":"490G00014389","stopLetter":"P","topMostParentId":"490G00014389"},{"icsId":"1019066","id":"490004059S","lat":51.451081,"lon":0.103362,"name":"Westwood Lane / Blackfen Road","parentId":"490G00019066","stationId":"490G00019066","stopLetter":"Q","topMostParentId":"490G00019066"},{"icsId":"1015262","id":"490015262S1","lat":51.449748,"lon":0.102999,"name":"Wellington Avenue / Blackfen Road","parentId":"490G00015262","stationId":"490G00015262","stopLetter":"R","topMostParentId":"490G00015262"},{"icsId":"1013489","id":"490013489S","lat":51.445222,"lon":0.104129,"name":"The Oval","parentId":"490G00013489","stationId":"490G00013489","stopLetter":"S","topMostParentId":"490G00013489"},{"icsId":"1009674","id":"490009674W","lat":51.443953,"lon":0.101193,"name":"Marlborough Park Avenue","parentId":"490G00009674","stationId":"490G00009674","stopLetter":"T","topMostParentId":"490G00009674"},{"icsId":"1010491","id":"490010491W","lat":51.443202,"lon":0.098439,"name":"Oaklands Avenue","parentId":"490G00010491","stationId":"490G00010491","stopLetter":"U","topMostParentId":"490G00010491"},{"icsId":"1003333","id":"490003333S","lat":51.441149,"lon":0.095567,"name":"Annandale Road","parentId":"490G00003333","stationId":"490G00003333","stopLetter":"->S","topMostParentId":"490G00003333"},{"icsId":"1008291","id":"490008291E","lat":51.438189,"lon":0.094655,"name":"Hollies Avenue","parentId":"490G00008291","stationId":"490G00008291","stopLetter":"->E","topMostParentId":"490G00008291"},{"icsId":"1014998","id":"490014998S","lat":51.437016,"lon":0.099364,"name":"Halfway Street / Old Farm Road East","parentId":"490G00014998","stationId":"490G00014998","topMostParentId":"490G00014998"},{"icsId":"1001249","id":"490015177G","lat":51.432639,"lon":0.10276,"name":"Sidcup Station","parentId":"490G15177G","stationId":"490G15177G","stopLetter":"G","topMostParentId":"910GSIDCUP"},{"icsId":"1005743","id":"490005743M","lat":51.430536,"lon":0.102145,"name":"Station Road / Crescent Road","parentId":"490G00005743","stationId":"490G00005743","stopLetter":"M","topMostParentId":"490G00005743"},{"icsId":"1019822","id":"490012140S","lat":51.425441,"lon":0.100962,"name":"Carlton Road","parentId":"490G00019822","stationId":"490G00019822","stopLetter":"S","topMostParentId":"490G00019822"},{"icsId":"1013421","id":"490013387S","lat":51.424206,"lon":0.101092,"name":"The Green","parentId":"490G00013421","stationId":"490G00013421","stopLetter":"W","topMostParentId":"490G00013421"},{"icsId":"1012150","id":"490012139HH","lat":51.419513,"lon":0.099022,"name":"Queen Mary's Hospital","parentId":"490G00012150","stationId":"490G00012150","stopLetter":"HH","topMostParentId":"490G00012150"},{"icsId":"1009041","id":"490009041HL","lat":51.417913,"lon":0.092951,"name":"Leas Green","parentId":"490G00009041","stationId":"490G00009041","stopLetter":"HL","topMostParentId":"490G00009041"},{"icsId":"1003735","id":"490003735W","lat":51.416395,"lon":0.089344,"name":"Beaverwood Road","parentId":"490G00003735","stationId":"490G00003735","stopLetter":"->W","topMostParentId":"490G00003735"},{"icsId":"1003427","id":"490003427W","lat":51.41501,"lon":0.081759,"name":"Ashfield Lane","parentId":"490G00003427","stationId":"490G00003427","stopLetter":"Z","topMostParentId":"490G00003427"},{"icsId":"1015269","id":"490005205R","lat":51.412922,"lon":0.077292,"name":"Bromley Lane / Chislehurst War Memorial","parentId":"490G00015269","stationId":"490G00015269","stopLetter":"R","topMostParentId":"490G00015269"},{"icsId":"1015270","id":"490015269T","lat":51.412326,"lon":0.074864,"name":"Chislehurst War Memorial","parentId":"490G00015270","stationId":"490G00015270","stopLetter":"T","topMostParentId":"490G00015270"}]}]}