{"direction":"outbound","lineId":"63","lineName":"63","mode":"bus","stopPointSequences":[{"stopPoint":[{"icsId":"1006921","id":"490006921N","lat":51.451293,"lon":-0.059036,"name":"Forest Hill Tavern","parentId":"490G00006921","stationId":"490G00006921","stopLetter":"H","topMostParentId":"490G00006921"},{"icsId":"1006264","id":"490006264N","lat":51.454224,"lon":-0.062798,"name":"Dunstans Road","parentId":"490G00006264","stationId":"490G00006264","stopLetter":"WA","topMostParentId":"490G00006264"},{"icsId":"1007032","id":"490007032N","lat":51.456541,"lon":-0.064269,"name":"Friern Road","parentId":"490G00007032","stationId":"490G00007032","stopLetter":"WB","topMostParentId":"490G00007032"},{"icsId":"1010885","id":"490010885N","lat":51.459504,"lon":-0.066174,"name":"Peckham Rye / Barry Road","parentId":"490G00010885","stationId":"490G00010885","stopLetter":"WE","topMostParentId":"490G00010885"},{"icsId":"1013366","id":"490013366N","lat":51.460947,"lon":-0.066429,"name":"The Gardens","parentId":"490G00013366","stationId":"490G00013366","stopLetter":"WF","topMostParentId":"490G00013366"},{"icsId":"1008807","id":"490008807N2","lat":51.462885,"lon":-0.066678,"name":"Peckham Rye / East Dulwich Road","parentId":"490G00008807","stationId":"490G00008807","stopLetter":"WK","topMostParentId":"490G00008807"},{"icsId":"1010269","id":"490010269N","lat":51.465831,"lon":-0.066482,"name":"Nigel Road","parentId":"490G00010269","stationId":"490G00010269","stopLetter":"WM","topMostParentId":"490G00010269"},{"icsId":"1005382","id":"490005382J","lat":51.472948,"lon":-0.065605,"name":"Clayton Road","parentId":"490G00005382","stationId":"490G00005382","stopLetter":"J","topMostParentId":"490G00005382"},{"icsId":"1010878","id":"490010878C","lat":51.474711,"lon":-0.068914,"name":"Peckham Library","parentId":"490G00010878","stationId":"490G00010878","stopLetter":"C","topMostParentId":"490G00010878"},{"icsId":"1004140","id":"490004140N","lat":51.475933,"lon":-0.06941,"name":"Bonar Road","parentId":"490G00004140","stationId":"490G00004140","stopLetter":"H","topMostParentId":"490G00004140"},{"icsId":"1005525","id":"490005525N1","lat":51.477313,"lon":-0.070187,"name":"Commercial Way","parentId":"490G00005525","stationId":"490G00005525","stopLetter":"J","topMostParentId":"490G00005525"},{"icsId":"1015073","id":"490015073N","lat":51.479028,"lon":-0.071108,"name":"Bird In Bush Road","parentId":"490G00015073","stationId":"490G00015073","stopLetter":"K","topMostParentId":"490G00015073"},{"icsId":"1012709","id":"490012709N","lat":51.481973,"lon":-0.074124,"name":"St George's Way","parentId":"490G00012709","stationId":"490G00012709","stopLetter":"U","topMostParentId":"490G00012709"},{"icsId":"1014117","id":"490014117N","lat":51.484789,"lon":-0.074192,"name":"Waite Street","parentId":"490G00014117","stationId":"490G00014117","stopLetter":"V","topMostParentId":"490G00014117"},{"icsId":"1010282","id":"490010282N","lat":51.48611,"lon":-0.074137,"name":"Nile Terrace","parentId":"490G00010282","stationId":"490G00010282","stopLetter":"NL","topMostParentId":"490G00010282"},{"icsId":"1006266","id":"490006266WN","lat":51.488594,"lon":-0.077547,"name":"Dunton Road","parentId":"490G00006266","stationId":"490G00006266","stopLetter":"WN","topMostParentId":"490G00006266"},{"icsId":"1006379","id":"490006379BN","lat":51.491459,"lon":-0.082295,"name":"Old Kent Road / East Street","parentId":"490G00006379","stationId":"490G00006379","stopLetter":"F","topMostParentId":"490G00006379"},{"icsId":"1004315","id":"490004315BQ","lat":51.49362,"lon":-0.08523,"name":"Bricklayer's Arms","parentId":"490G00004315","stationId":"490G00004315","stopLetter":"BQ","topMostParentId":"490G00004315"},{"icsId":"1003658","id":"490003658BS","lat":51.494035,"lon":-0.09024,"name":"Bricklayer's Arms / New Kent Road","parentId":"490G00003658","stationId":"490G00003658","stopLetter":"BS","topMostParentId":"490G00003658"},{"icsId":"1011632","id":"490011632BT","lat":51.49417,"lon":-0.094672,"name":"Rodney Place","parentId":"490G00011632","stationId":"490G00011632","stopLetter":"BT","topMostParentId":"490G00011632"},{"icsId":"1009298","id":"490000073N","lat":51.495008,"lon":-0.099218,"name":"Elephant & Castle / New Kent Road","parentId":"490G000645","stationId":"490G000645","stopLetter":"N","topMostParentId":"HUBEPH"},{"icsId":"1009281","id":"490009281A","lat":51.496136,"lon":-0.101706,"name":"Elephant & Castle / London Road","parentId":"490G000642","stationId":"490G000642","stopLetter":"A","topMostParentId":"490G000642"},{"icsId":"1012693","id":"490015140N","lat":51.500169,"lon":-0.104752,"name":"St George's Circus","parentId":"490G00012693","stationId":"490G00012693","stopLetter":"U","topMostParentId":"490G00012693"},{"icsId":"1011082","id":"490011082N","lat":51.502677,"lon":-0.104662,"name":"Pocock Street","parentId":"490G00011082","stationId":"490G00011082","stopLetter":"V","topMostParentId":"490G00011082"},{"icsId":"1000215","id":"490013323SA","lat":51.504466,"lon":-0.104617,"name":"Southwark Station","parentId":"490G13323SA","stationId":"490G13323SA","stopLetter":"SA","topMostParentId":"940GZZLUSWK","zone":"1"},{"icsId":"1012526","id":"490012526SD","lat":51.506433,"lon":-0.104521,"name":"Stamford Street","parentId":"490G00012526","stationId":"490G00012526","stopLetter":"SD","topMostParentId":"490G00012526"},{"icsId":"1013934","id":"490013934N","lat":51.5088,"lon":-0.104624,"name":"Blackfriars Station / South Entrance","parentId":"490G00013934","stationId":"490G00013934","stopLetter":"C","topMostParentId":"HUBBFR"},{"icsId":"1020084","id":"490000023J","lat":51.512392,"lon":-0.104302,"name":"Blackfriars Station / North Entrance","parentId":"490G00020084","stationId":"490G00020084","stopLetter":"J","topMostParentId":"490G00020084"},{"icsId":"1012640","id":"490012640M","lat":51.51489,"lon":-0.104717,"name":"Fleet Street / City Thameslink","parentId":"490G00012640","stationId":"490G00012640","stopLetter":"M","topMostParentId":"490G00012640"},{"icsId":"1012217","id":"490005027N","lat":51.517832,"lon":-0.105374,"name":"Snow Hill","parentId":"490G000747","stationId":"490G000747","stopLetter":"HS","topMostParentId":"490G000747"},{"icsId":"1008275","id":"490008275H","lat":51.517805,"lon":-0.109281,"name":"Holborn Circus / Fetter Lane","parentId":"490G00008275","stationId":"490G00008275","stopLetter":"H","topMostParentId":"490G00008275"},{"icsId":"1019194","id":"490008165B","lat":51.519415,"lon":-0.112097,"name":"Gray's Inn Road","parentId":"490G00019194","stationId":"490G00019194","stopLetter":"B","topMostParentId":"490G00019194"},{"icsId":"1013476","id":"490013476N1","lat":51.521059,"lon":-0.113124,"name":"Theobald's Road / Clerkenwell Road","parentId":"490G00013476","stationId":"490G00013476","stopLetter":"CQ","topMostParentId":"490G00013476"},{"icsId":"1011686","id":"490011686E","lat":51.523041,"lon":-0.111687,"name":"Rosebery Avenue","parentId":"490G00011686","stationId":"490G00011686","stopLetter":"CE","topMostParentId":"490G00011686"},{"icsId":"1010085","id":"490010085N1","lat":51.523749,"lon":-0.111543,"name":"Mount Pleasant","parentId":"490G00010085","stationId":"490G00010085","stopLetter":"CF","topMostParentId":"490G00010085"},{"icsId":"1004683","id":"490004683N","lat":51.526085,"lon":-0.112527,"name":"Calthorpe Street","parentId":"490G00004683","stationId":"490G00004683","stopLetter":"PS","topMostParentId":"490G00004683"},{"icsId":"1007613","id":"490007613N","lat":51.52735,"lon":-0.115099,"name":"Gwynne Place","parentId":"490G00007613","stationId":"490G00007613","stopLetter":"PT","topMostParentId":"490G00007613"},{"icsId":"1003087","id":"490003087W2","lat":51.528585,"lon":-0.116965,"name":"Acton Street","parentId":"490G00003087","stationId":"490G00003087","stopLetter":"PU","topMostParentId":"490G00003087"},{"icsId":"1013117","id":"490004354N","lat":51.529247,"lon":-0.120124,"name":"Swinton Street","parentId":"490G00013117","stationId":"490G00013117","stopLetter":"N","topMostParentId":"490G00013117"},{"icsId":"1005916","id":"490001171G","lat":51.531284,"lon":-0.122679,"name":"King's Cross Station   / York Way","parentId":"490G000479","stationId":"490G000479","stopLetter":"G","topMostParentId":"HUBKGX"}]}]}