{"direction":"outbound","lineId":"638","lineName":"638","mode":"bus","stopPointSequences":[{"stopPoint":[{"icsId":"1003099","id":"490003099N","lat":51.370749,"lon":-0.002044,"name":"Addington Road / Glebe Way","parentId":"490G00003099","stationId":"490G00003099","stopLetter":"C","topMostParentId":"490G00003099"},{"icsId":"1005545","id":"490005545N","lat":51.37388,"lon":0.001555,"name":"Tiepigs Lane","parentId":"490G00005545","stationId":"490G00005545","stopLetter":"D","topMostParentId":"490G00005545"},{"icsId":"1008289","id":"490008289W1","lat":51.375855,"lon":0.006484,"name":"Holland Way","parentId":"490G00008289","stationId":"490G00008289","stopLetter":"H","topMostParentId":"490G00008289"},{"icsId":"1001145","id":"490001145C","lat":51.376257,"lon":0.01087,"name":"Hayes Station","parentId":"490G01145B","stationId":"490G01145B","stopLetter":"C","topMostParentId":"910GHAYS"},{"icsId":"1007941","id":"490007941D","lat":51.377488,"lon":0.010363,"name":"Hayes / Station Approach","parentId":"490G000580","stationId":"490G000580","stopLetter":"D","topMostParentId":"490G000580"},{"icsId":"1007949","id":"490007949S2","lat":51.378924,"lon":0.006891,"name":"Hayes Hill Road","parentId":"490G00007949","stationId":"490G00007949","stopLetter":"E","topMostParentId":"490G00007949"},{"icsId":"1005758","id":"490005758N","lat":51.381203,"lon":0.004576,"name":"Crest Road","parentId":"490G00005758","stationId":"490G00005758","stopLetter":"A","topMostParentId":"490G00005758"},{"icsId":"1013498","id":"490013498N","lat":51.383338,"lon":0.002773,"name":"The Pickhurst","parentId":"490G00013498","stationId":"490G00013498","stopLetter":"B","topMostParentId":"490G00013498"},{"icsId":"1009778","id":"490009774N","lat":51.387296,"lon":0.002672,"name":"The Avenue","parentId":"490G00009778","stationId":"490G00009778","stopLetter":"C","topMostParentId":"490G00009778"},{"icsId":"1007282","id":"490007282N","lat":51.390177,"lon":0.001447,"name":"Pickhurst Lane / Goodhart Way","parentId":"490G00007282","stationId":"490G00007282","stopLetter":"D","topMostParentId":"490G00007282"},{"icsId":"1003644","id":"490003644E","lat":51.392869,"lon":0.002326,"name":"Barnfield Wood Road","parentId":"490G00003644","stationId":"490G00003644","stopLetter":"E","topMostParentId":"490G00003644"},{"icsId":"1004376","id":"490004376N","lat":51.39383,"lon":0.005013,"name":"Broadoaks Way","parentId":"490G00004376","stationId":"490G00004376","stopLetter":"F","topMostParentId":"490G00004376"},{"icsId":"1019189","id":"490004897E","lat":51.396116,"lon":0.009627,"name":"Westmoreland Road / Cumberland Road","parentId":"490G00019189","stationId":"490G00019189","stopLetter":"G","topMostParentId":"490G00019189"},{"icsId":"1011304","id":"490011304D","lat":51.398038,"lon":0.013981,"name":"Queen Anne Avenue","parentId":"490G00011304","stationId":"490G00011304","stopLetter":"D","topMostParentId":"490G00011304"},{"icsId":"1012775","id":"490012775E","lat":51.398829,"lon":0.016589,"name":"St Mark's Church","parentId":"490G00012775","stationId":"490G00012775","stopLetter":"E","topMostParentId":"490G00012775"},{"icsId":"1001037","id":"490001037A","lat":51.400346,"lon":0.016785,"name":"Bromley South Station","parentId":"490G01037U","stationId":"490G01037U","stopLetter":"A","topMostParentId":"910GBROMLYS"},{"icsId":"1004410","id":"490004410V","lat":51.402801,"lon":0.01675,"name":"Elmfield Road / The Mall","parentId":"490G00004410","stationId":"490G00004410","stopLetter":"V","topMostParentId":"490G00004410"},{"icsId":"1008665","id":"490008665Q","lat":51.404237,"lon":0.018495,"name":"Bromley Civic Centre","parentId":"490G00008665","stationId":"490G00008665","stopLetter":"S","topMostParentId":"490G00008665"},{"icsId":"1004435","id":"4900004408P","lat":51.406046,"lon":0.016849,"name":"Bromley Town Hall","parentId":"490G00004435","stationId":"490G00004435","stopLetter":"P","topMostParentId":"490G00004435"},{"icsId":"1004425","id":"490004425N","lat":51.406929,"lon":0.014659,"name":"West Street","parentId":"490G00004425","stationId":"490G00004425","stopLetter":"N","topMostParentId":"490G00004425"},{"icsId":"1015515","id":"490015515B","lat":51.409725,"lon":0.014207,"name":"Hammelton Road","parentId":"490G00015515","stationId":"490G00015515","stopLetter":"B","topMostParentId":"490G00015515"},{"icsId":"1010031","id":"490010031N","lat":51.412391,"lon":0.015014,"name":"Morgan Road","parentId":"490G00010031","stationId":"490G00010031","stopLetter":"->N","topMostParentId":"490G00010031"},{"icsId":"1009279","id":"490009279N","lat":51.413836,"lon":0.016214,"name":"Plaistow Green","parentId":"490G00009279","stationId":"490G00009279","stopLetter":"C","topMostParentId":"490G00009279"},{"icsId":"1010750","id":"490010750N","lat":51.417466,"lon":0.016877,"name":"Park Avenue","parentId":"490G00010750","stationId":"490G00010750","stopLetter":"H","topMostParentId":"490G00010750"},{"icsId":"1012325","id":"490012325E","lat":51.419736,"lon":0.018228,"name":"Burnt Ash Lane / Southover","parentId":"490G00012325","stationId":"490G00012325","stopLetter":"J","topMostParentId":"490G00012325"},{"icsId":"1010263","id":"490010263N","lat":51.422149,"lon":0.021758,"name":"New Street Hill","parentId":"490G00010263","stationId":"490G00010263","stopLetter":"K","topMostParentId":"490G00010263"},{"icsId":"1013782","id":"490013782N","lat":51.426235,"lon":0.021047,"name":"Treewall Gardens","parentId":"490G00013782","stationId":"490G00013782","stopLetter":"L","topMostParentId":"490G00013782"},{"icsId":"1008993","id":"490008993N","lat":51.428201,"lon":0.021234,"name":"Launcelot Road","parentId":"490G00008993","stationId":"490G00008993","stopLetter":"K","topMostParentId":"490G00008993"},{"icsId":"1001124","id":"490001124E","lat":51.43019,"lon":0.02112,"name":"Grove Park Station","parentId":"490G01124B","stationId":"490G01124B","stopLetter":"L","topMostParentId":"910GGRVPK"},{"icsId":"1015553","id":"490015553G","lat":51.431606,"lon":0.022952,"name":"Chinbrook Road / Baring Road","parentId":"490G000909","stationId":"490G000909","stopLetter":"G","topMostParentId":"490G000909"},{"icsId":"1003290","id":"490003290E","lat":51.431628,"lon":0.02537,"name":"Amblecote Road","parentId":"490G00003290","stationId":"490G00003290","stopLetter":"H","topMostParentId":"490G00003290"},{"icsId":"1013403","id":"490013403E","lat":51.431592,"lon":0.030548,"name":"Marvels Lane / Chinbrook Road","parentId":"490G00013403","stationId":"490G00013403","stopLetter":"A","topMostParentId":"490G00013403"},{"icsId":"1007683","id":"490007683E","lat":51.433903,"lon":0.036751,"name":"Hall View","parentId":"490G00007683","stationId":"490G00007683","stopLetter":"->E","topMostParentId":"490G00007683"},{"icsId":"1006538","id":"490006538E","lat":51.437487,"lon":0.040651,"name":"Eltham College","parentId":"490G00006538","stationId":"490G00006538","stopLetter":"->E","topMostParentId":"490G00006538"},{"icsId":"1010067","id":"490010067S","lat":51.435797,"lon":0.04577,"name":"Mottingham Road / Court Road","parentId":"490G00010067","stationId":"490G00010067","stopLetter":"ME","topMostParentId":"490G00010067"},{"icsId":"1010064","id":"490010064S","lat":51.433154,"lon":0.048788,"name":"Mottingham / Prince Of Wales","parentId":"490G00010064","stationId":"490G00010064","stopLetter":"MF","topMostParentId":"490G00010064"},{"icsId":"1011447","id":"490011447S","lat":51.430788,"lon":0.051919,"name":"Mottingham Road / Ravensworth Road","parentId":"490G00011447","stationId":"490G00011447","stopLetter":"MH","topMostParentId":"490G00011447"},{"icsId":"1006521","id":"490006521S","lat":51.427148,"lon":0.05541,"name":"Elmstead Lane","parentId":"490G00006521","stationId":"490G00006521","stopLetter":"D","topMostParentId":"490G00006521"},{"icsId":"1010478","id":"490010478E","lat":51.424553,"lon":0.058732,"name":"Oakdene Avenue","parentId":"490G00010478","stationId":"490G00010478","stopLetter":"E","topMostParentId":"490G00010478"},{"icsId":"1013496","id":"490013496S","lat":51.421476,"lon":0.062908,"name":"Ingleby Way","parentId":"490G00013496","stationId":"490G00013496","stopLetter":"C","topMostParentId":"490G00013496"},{"icsId":"1003139","id":"490003139H","lat":51.419696,"lon":0.065978,"name":"Albany Road","parentId":"490G00003139","stationId":"490G00003139","stopLetter":"D","topMostParentId":"490G00003139"},{"icsId":"1010817","id":"490010817K","lat":51.417368,"lon":0.068462,"name":"Chislehurst / Ashfield Lane","parentId":"490G00010817","stationId":"490G00010817","stopLetter":"K","topMostParentId":"490G00010817"},{"icsId":"1005205","id":"490005205P","lat":51.413025,"lon":0.073515,"name":"Centre Common Road / War Memorial","parentId":"490G00005205","stationId":"490G00005205","stopLetter":"P","topMostParentId":"490G00005205"},{"icsId":"1015269","id":"490015269S","lat":51.412699,"lon":0.075672,"name":"Bromley Lane / Chislehurst War Memorial","parentId":"490G00015269","stationId":"490G00015269","stopLetter":"S","topMostParentId":"490G00015269"},{"icsId":"1003427","id":"490003427E","lat":51.415143,"lon":0.081837,"name":"Ashfield Lane","parentId":"490G00003427","stationId":"490G00003427","stopLetter":"Y","topMostParentId":"490G00003427"},{"icsId":"1003735","id":"490003735E","lat":51.416613,"lon":0.089699,"name":"Beaverwood Road","parentId":"490G00003735","stationId":"490G00003735","stopLetter":"->E","topMostParentId":"490G00003735"},{"icsId":"1009041","id":"490009041HK","lat":51.418304,"lon":0.093745,"name":"Leas Green","parentId":"490G00009041","stationId":"490G00009041","stopLetter":"HK","topMostParentId":"490G00009041"},{"icsId":"1016701","id":"490016701S","lat":51.411309,"lon":0.112667,"name":"Kemnal Technology College","parentId":"490G00016701","stationId":"490G00016701","stopLetter":"M","topMostParentId":"490G00016701"}]}]}