{"direction":"outbound","lineId":"639","lineName":"639","mode":"bus","stopPointSequences":[{"stopPoint":[{"icsId":"1011639","id":"490011639E","lat":51.452167,"lon":-0.248135,"name":"Danebury Avenue / Minstead Gardens","parentId":"490G00011639","stationId":"490G00011639","topMostParentId":"490G00011639"},{"icsId":"1010069","id":"490010069E","lat":51.450727,"lon":-0.246218,"name":"Mount Angelus Road","parentId":"490G00010069","stationId":"490G00010069","stopLetter":"L","topMostParentId":"490G00010069"},{"icsId":"1011641","id":"490011641B","lat":51.449771,"lon":-0.242484,"name":"Roehampton Library","parentId":"490G00011641","stationId":"490G00011641","stopLetter":"B","topMostParentId":"490G00011641"},{"icsId":"1011640","id":"490011640E","lat":51.449768,"lon":-0.239893,"name":"Medfield Street","parentId":"490G00011640","stationId":"490G00011640","stopLetter":"E","topMostParentId":"490G00011640"},{"icsId":"1006150","id":"490006150E","lat":51.451827,"lon":-0.23387,"name":"Dover Park Drive","parentId":"490G00006150","stationId":"490G00006150","stopLetter":"H","topMostParentId":"490G00006150"},{"icsId":"1006685","id":"490006685E","lat":51.452543,"lon":-0.229482,"name":"Exeter House","parentId":"490G00006685","stationId":"490G00006685","stopLetter":"J","topMostParentId":"490G00006685"},{"icsId":"1007965","id":"490007965E","lat":51.453236,"lon":-0.224748,"name":"Hayward Gardens","parentId":"490G00007965","stationId":"490G00007965","stopLetter":"K","topMostParentId":"490G00007965"},{"icsId":"1011285","id":"490011285E2","lat":51.453514,"lon":-0.221168,"name":"Putney Heath / Green Man","parentId":"490G00011285","stationId":"490G00011285","stopLetter":"L","topMostParentId":"490G00011285"},{"icsId":"1011299","id":"490011285R","lat":51.451703,"lon":-0.221497,"name":"Putney Hill / Green Man","parentId":"490G00011299","stationId":"490G00011299","stopLetter":"R","topMostParentId":"490G00011299"},{"icsId":"1014796","id":"490014796N","lat":51.448201,"lon":-0.221806,"name":"Withycombe Road","parentId":"490G00014796","stationId":"490G00014796","stopLetter":"PL","topMostParentId":"490G00014796"},{"icsId":"1008565","id":"490008565S","lat":51.447907,"lon":-0.217846,"name":"Keevil Drive","parentId":"490G00008565","stationId":"490G00008565","stopLetter":"PM","topMostParentId":"490G00008565"},{"icsId":"1014758","id":"490004595S","lat":51.446726,"lon":-0.216496,"name":"Windlesham Grove","parentId":"490G00014758","stationId":"490G00014758","stopLetter":"PN","topMostParentId":"490G00014758"},{"icsId":"1012315","id":"490012315S","lat":51.445131,"lon":-0.215076,"name":"Southmead Primary School","parentId":"490G00012315","stationId":"490G00012315","stopLetter":"->S","topMostParentId":"490G00012315"},{"icsId":"1009097","id":"490009097S","lat":51.443374,"lon":-0.217245,"name":"Levana Close","parentId":"490G00009097","stationId":"490G00009097","stopLetter":"->S","topMostParentId":"490G00009097"},{"icsId":"1008805","id":"490012211N","lat":51.441551,"lon":-0.216784,"name":"Smithwood Close","parentId":"490G00008805","stationId":"490G00008805","topMostParentId":"490G00008805"},{"icsId":"1014737","id":"490012211S","lat":51.43826,"lon":-0.213272,"name":"Church Road","parentId":"490G00014737","stationId":"490G00014737","stopLetter":"C","topMostParentId":"490G00014737"},{"icsId":"1020224","id":"490020224Z","lat":51.438616,"lon":-0.212452,"name":"Bathgate Road","parentId":"490G00020224","stationId":"490G00020224","stopLetter":"->N","topMostParentId":"490G00020224"},{"icsId":"1014054","id":"490014903N","lat":51.440115,"lon":-0.211055,"name":"Woodspring Road","parentId":"490G00014054","stationId":"490G00014054","stopLetter":"B","topMostParentId":"490G00014054"},{"icsId":"1012273","id":"490012273N","lat":51.44246,"lon":-0.209165,"name":"Southdean Gardens","parentId":"490G00012273","stationId":"490G00012273","stopLetter":"A","topMostParentId":"490G00012273"},{"icsId":"1000209","id":"490000209C","lat":51.444007,"lon":-0.207406,"name":"Southfields Station","parentId":"490G00209E","stationId":"490G00209E","stopLetter":"B","topMostParentId":"940GZZLUSFS","zone":"3"},{"icsId":"1000941","id":"490000209A","lat":51.445212,"lon":-0.206251,"name":"Replingham Road","parentId":"490G000250","stationId":"490G000250","stopLetter":"C","topMostParentId":"490G000250"},{"icsId":"1004880","id":"490004880N","lat":51.447941,"lon":-0.204173,"name":"Gatwick Road","parentId":"490G00004880","stationId":"490G00004880","stopLetter":"D","topMostParentId":"490G00004880"},{"icsId":"1007376","id":"490007376E","lat":51.450056,"lon":-0.201931,"name":"Granville Road","parentId":"490G00007376","stationId":"490G00007376","stopLetter":"E","topMostParentId":"490G00007376"},{"icsId":"1013493","id":"490013493N","lat":51.450482,"lon":-0.199251,"name":"The Park Tavern","parentId":"490G00013493","stationId":"490G00013493","stopLetter":"L","topMostParentId":"490G00013493"},{"icsId":"1004492","id":"490004492N","lat":51.455027,"lon":-0.197173,"name":"Broomhill Road","parentId":"490G00004492","stationId":"490G00004492","stopLetter":"->N","topMostParentId":"490G00004492"},{"icsId":"1014184","id":"490014184W","lat":51.456876,"lon":-0.194595,"name":"Wandsworth / Southside","parentId":"490G00014184","stationId":"490G00014184","stopLetter":"W","topMostParentId":"490G00014184"},{"icsId":"1014190","id":"490014190G","lat":51.458128,"lon":-0.195309,"name":"Wandsworth Plain","parentId":"490G00014190","stationId":"490G00014190","stopLetter":"G","topMostParentId":"490G00014190"},{"icsId":"1014195","id":"490014195N","lat":51.457629,"lon":-0.189743,"name":"Wandsworth Town Hall","parentId":"490G00014195","stationId":"490G00014195","stopLetter":"N","topMostParentId":"490G00014195"},{"icsId":"1003259","id":"490003259E","lat":51.457707,"lon":-0.185523,"name":"East Hill / Alma Road","parentId":"490G00003259","stationId":"490G00003259","stopLetter":"A","topMostParentId":"490G00003259"},{"icsId":"1009638","id":"490015404E","lat":51.459451,"lon":-0.180847,"name":"Marcilly Road","parentId":"490G00009638","stationId":"490G00009638","stopLetter":"B","topMostParentId":"490G00009638"},{"icsId":"1011066","id":"490011066E","lat":51.461337,"lon":-0.174323,"name":"Plough Road","parentId":"490G00011066","stationId":"490G00011066","stopLetter":"C","topMostParentId":"490G00011066"},{"icsId":"1001069","id":"490001069C","lat":51.463013,"lon":-0.170484,"name":"Clapham Junction Station","parentId":"490G01069M","stationId":"490G01069M","stopLetter":"C","topMostParentId":"490G01069M"},{"icsId":"1005331","id":"490005331E","lat":51.464316,"lon":-0.168129,"name":"Clapham Junction Station  / Falcon Road","parentId":"490G000461","stationId":"490G000461","stopLetter":"E","topMostParentId":"HUBCLJ"},{"icsId":"1009849","id":"490009843F","lat":51.466325,"lon":-0.169531,"name":"Clapham Junction Station  / Falcon Road","parentId":"490G00009849","stationId":"490G00009849","stopLetter":"F","topMostParentId":"490G00009849"},{"icsId":"1008486","id":"490008486N","lat":51.467259,"lon":-0.170602,"name":"Ingrave Street","parentId":"490G00008486","stationId":"490G00008486","stopLetter":"N","topMostParentId":"490G00008486"},{"icsId":"1003687","id":"490003687N1","lat":51.469549,"lon":-0.171547,"name":"Battersea High Street","parentId":"490G00003687","stationId":"490G00003687","stopLetter":"LK","topMostParentId":"490G00003687"},{"icsId":"1004568","id":"490004568E","lat":51.471134,"lon":-0.169353,"name":"Bullen Street","parentId":"490G00004568","stationId":"490G00004568","stopLetter":"LQ","topMostParentId":"490G00004568"},{"icsId":"1013443","id":"490013443N","lat":51.472769,"lon":-0.165817,"name":"The Latchmere","parentId":"490G00013443","stationId":"490G00013443","stopLetter":"LU","topMostParentId":"490G00013443"},{"icsId":"1011197","id":"490011197N","lat":51.474378,"lon":-0.166372,"name":"Prince Of Wales Drive","parentId":"490G00011197","stationId":"490G00011197","stopLetter":"LV","topMostParentId":"490G00011197"},{"icsId":"1000807","id":"490000807Z","lat":51.475026,"lon":-0.172164,"name":"St John Bosco College","parentId":"490G000159","stationId":"490G000159","stopLetter":"->W","topMostParentId":"490G000159"}]}]}