{"direction":"outbound","lineId":"648","lineName":"648","mode":"bus","stopPointSequences":[{"stopPoint":[{"icsId":"1011659","id":"490011659G","lat":51.580596,"lon":0.183095,"name":"Romford Market","parentId":"490G00011659","stationId":"490G00011659","stopLetter":"G","topMostParentId":"490G00011659"},{"icsId":"1009810","id":"490009810M","lat":51.579466,"lon":0.18486,"name":"Mercury Gardens","parentId":"490G00009810","stationId":"490G00009810","stopLetter":"M","topMostParentId":"490G00009810"},{"icsId":"1014452","id":"490014452Q","lat":51.577133,"lon":0.184084,"name":"Western Road","parentId":"490G00014452","stationId":"490G00014452","stopLetter":"Q","topMostParentId":"490G00014452"},{"icsId":"1001243","id":"490001243Y","lat":51.573602,"lon":0.183929,"name":"Romford Station","parentId":"490G01243W","stationId":"490G01243W","stopLetter":"Y","topMostParentId":"910GROMFORD"},{"icsId":"1013654","id":"490013654S","lat":51.571419,"lon":0.184762,"name":"Thurloe Gardens","parentId":"490G00013654","stationId":"490G00013654","stopLetter":"C","topMostParentId":"490G00013654"},{"icsId":"1013483","id":"490013483S","lat":51.570336,"lon":0.186442,"name":"Brentwood Road","parentId":"490G00013483","stationId":"490G00013483","stopLetter":"D","topMostParentId":"490G00013483"},{"icsId":"1005450","id":"490005450S","lat":51.567318,"lon":0.186701,"name":"Clydesdale Road","parentId":"490G00005450","stationId":"490G00005450","stopLetter":"RZ","topMostParentId":"490G00005450"},{"icsId":"1011669","id":"490011669E","lat":51.56557,"lon":0.187397,"name":"Roneo Corner","parentId":"490G00011669","stationId":"490G00011669","stopLetter":"RA","topMostParentId":"490G00011669"},{"icsId":"1011670","id":"490011670E","lat":51.565241,"lon":0.191046,"name":"Roneo Corner / Tesco","parentId":"490G00011670","stationId":"490G00011670","stopLetter":"RB","topMostParentId":"490G00011670"},{"icsId":"1010785","id":"490010785E","lat":51.56522,"lon":0.196009,"name":"Park Lane","parentId":"490G00010785","stationId":"490G00010785","stopLetter":"RC","topMostParentId":"490G00010785"},{"icsId":"1008448","id":"490008448E","lat":51.564854,"lon":0.202614,"name":"Hyland Way","parentId":"490G00008448","stationId":"490G00008448","stopLetter":"RD","topMostParentId":"490G00008448"},{"icsId":"1007851","id":"490007851E","lat":51.564089,"lon":0.206458,"name":"Harrow Lodge Park","parentId":"490G00007851","stationId":"490G00007851","stopLetter":"W","topMostParentId":"490G00007851"},{"icsId":"1003049","id":"490003049E","lat":51.56309,"lon":0.214605,"name":"Abbs Cross Lane","parentId":"490G00003049","stationId":"490G00003049","stopLetter":"X","topMostParentId":"490G00003049"},{"icsId":"1004001","id":"490004001A","lat":51.563134,"lon":0.216541,"name":"Billet Lane","parentId":"490G00004001","stationId":"490G00004001","stopLetter":"A","topMostParentId":"490G00004001"},{"icsId":"1015350","id":"490015350F","lat":51.561641,"lon":0.22133,"name":"Hornchurch Town Centre","parentId":"490G00015350","stationId":"490G00015350","stopLetter":"F","topMostParentId":"490G00015350"},{"icsId":"1012536","id":"490012536E","lat":51.560773,"lon":0.226323,"name":"St Andrew's Church","parentId":"490G00012536","stationId":"490G00012536","stopLetter":"->E","topMostParentId":"490G00012536"},{"icsId":"1007628","id":"490007628E","lat":51.560348,"lon":0.228799,"name":"Hacton Lane","parentId":"490G00007628","stationId":"490G00007628","stopLetter":"K","topMostParentId":"490G00007628"},{"icsId":"1000243","id":"490000243B","lat":51.559062,"lon":0.235892,"name":"Upminster Bridge Station","parentId":"490G00243B","stationId":"490G00243B","stopLetter":"B","topMostParentId":"940GZZLUUPB","zone":"6"},{"icsId":"1013926","id":"490013926E","lat":51.55767,"lon":0.242373,"name":"Upminster Windmill","parentId":"490G00013926","stationId":"490G00013926","stopLetter":"P","topMostParentId":"490G00013926"},{"icsId":"1012756","id":"490012756E","lat":51.556585,"lon":0.246013,"name":"St Laurence Church","parentId":"490G00012756","stationId":"490G00012756","stopLetter":"R","topMostParentId":"490G00012756"},{"icsId":"1007148","id":"490007148D","lat":51.556871,"lon":0.249374,"name":"Gaynes Road","parentId":"490G00007148","stationId":"490G00007148","stopLetter":"D","topMostParentId":"490G00007148"},{"icsId":"1000242","id":"490000242A","lat":51.558503,"lon":0.250061,"name":"Upminster Station","parentId":"490G00242E","stationId":"910GUPMNSTR","stopLetter":"A","topMostParentId":"HUBUPM","zone":"6"},{"icsId":"1019449","id":"490015474C","lat":51.557662,"lon":0.24986,"name":"Upminster Stn   / St Lawrence Road","parentId":"490G000935","stationId":"490G000935","stopLetter":"C","topMostParentId":"HUBUPM"},{"icsId":"1005602","id":"490005602F","lat":51.556303,"lon":0.249923,"name":"Corbets Tey Road","parentId":"490G00005602","stationId":"490G00005602","stopLetter":"F","topMostParentId":"490G00005602"},{"icsId":"1013924","id":"490013924E","lat":51.556708,"lon":0.253651,"name":"Tudor Gardens","parentId":"490G00013924","stationId":"490G00013924","stopLetter":"G","topMostParentId":"490G00013924"},{"icsId":"1013455","id":"490013455E","lat":51.557553,"lon":0.2588,"name":"Argyle Gardens","parentId":"490G00013455","stationId":"490G00013455","stopLetter":"H","topMostParentId":"490G00013455"},{"icsId":"1008406","id":"490008406E","lat":51.557256,"lon":0.263012,"name":"Howard Road","parentId":"490G00008406","stationId":"490G00008406","stopLetter":"->E","topMostParentId":"490G00008406"},{"icsId":"1011093","id":"490011093N","lat":51.558123,"lon":0.26607,"name":"Pond Walk","parentId":"490G00011093","stationId":"490G00011093","stopLetter":"->N","topMostParentId":"490G00011093"},{"icsId":"1011462","id":"490011462N","lat":51.559168,"lon":0.26644,"name":"Rectory Gardens","parentId":"490G00011462","stationId":"490G00011462","stopLetter":"->N","topMostParentId":"490G00011462"},{"icsId":"1010014","id":"490010014N","lat":51.561802,"lon":0.266989,"name":"Moor Lane","parentId":"490G00010014","stationId":"490G00010014","topMostParentId":"490G00010014"}]}]}