{"direction":"outbound","lineId":"652","lineName":"652","mode":"bus","stopPointSequences":[{"stopPoint":[{"icsId":"1003037","id":"490003037E","lat":51.529471,"lon":0.213377,"name":"Abbey Wood Lane","parentId":"490G00003037","stationId":"490G00003037","topMostParentId":"490G00003037"},{"icsId":"1003940","id":"490003940S","lat":51.526501,"lon":0.214429,"name":"Thorn Lane","parentId":"490G00003940","stationId":"490G00003940","topMostParentId":"490G00003940"},{"icsId":"1008907","id":"490008907S","lat":51.525471,"lon":0.217551,"name":"Lake Avenue","parentId":"490G00008907","stationId":"490G00008907","stopLetter":"->S","topMostParentId":"490G00008907"},{"icsId":"1003066","id":"490003066W","lat":51.522721,"lon":0.217475,"name":"Acer Avenue","parentId":"490G00003066","stationId":"490G00003066","stopLetter":"->W","topMostParentId":"490G00003066"},{"icsId":"1008923","id":"490008923W","lat":51.521769,"lon":0.212124,"name":"Lambs Lane North","parentId":"490G00008923","stationId":"490G00008923","topMostParentId":"490G00008923"},{"icsId":"1003232","id":"490003232W","lat":51.521054,"lon":0.209048,"name":"Allen Road","parentId":"490G00003232","stationId":"490G00003232","stopLetter":"->W","topMostParentId":"490G00003232"},{"icsId":"1010254","id":"490010254W","lat":51.520372,"lon":0.20469,"name":"New Road","parentId":"490G00010254","stationId":"490G00010254","stopLetter":"->W","topMostParentId":"490G00010254"},{"icsId":"1004341","id":"490004341W","lat":51.520072,"lon":0.202456,"name":"Brights Avenue","parentId":"490G00004341","stationId":"490G00004341","stopLetter":"->W","topMostParentId":"490G00004341"},{"icsId":"1011395","id":"490011395W","lat":51.519362,"lon":0.196194,"name":"Rainham Village School","parentId":"490G00011395","stationId":"490G00011395","stopLetter":"P","topMostParentId":"490G00011395"},{"icsId":"1020119","id":"490020119W","lat":51.51837,"lon":0.191995,"name":"St Helen's Court","parentId":"490G00020119","stationId":"490G00020119","stopLetter":"->W","topMostParentId":"490G00020119"},{"icsId":"1011396","id":"490011396C","lat":51.518534,"lon":0.189956,"name":"Rainham War Memorial","parentId":"490G00011396","stationId":"490G00011396","stopLetter":"C","topMostParentId":"490G00011396"},{"icsId":"1006152","id":"490006152G","lat":51.521746,"lon":0.188438,"name":"Dovers Corner","parentId":"490G00006152","stationId":"490G00006152","stopLetter":"G","topMostParentId":"490G00006152"},{"icsId":"1015718","id":"490015718W","lat":51.522096,"lon":0.185111,"name":"Cherry Tree Lane","parentId":"490G00015718","stationId":"490G00015718","stopLetter":"Q","topMostParentId":"490G00015718"},{"icsId":"1006247","id":"490006247N","lat":51.523438,"lon":0.181614,"name":"Dunedin Road","parentId":"490G00006247","stationId":"490G00006247","stopLetter":"M","topMostParentId":"490G00006247"},{"icsId":"1006446","id":"490006446N","lat":51.524255,"lon":0.182201,"name":"Edmund Road","parentId":"490G00006446","stationId":"490G00006446","stopLetter":"N","topMostParentId":"490G00006446"},{"icsId":"1012560","id":"490012560N","lat":51.526483,"lon":0.186143,"name":"Stanley Road South","parentId":"490G00012560","stationId":"490G00012560","stopLetter":"P","topMostParentId":"490G00012560"},{"icsId":"1011393","id":"490011393N","lat":51.52874,"lon":0.189048,"name":"Rainham Road","parentId":"490G00011393","stationId":"490G00011393","stopLetter":"F","topMostParentId":"490G00011393"},{"icsId":"1003216","id":"490003216N","lat":51.530508,"lon":0.190675,"name":"Alexandra Road","parentId":"490G00003216","stationId":"490G00003216","stopLetter":"G","topMostParentId":"490G00003216"},{"icsId":"1006902","id":"490006902N","lat":51.534042,"lon":0.192143,"name":"Ford Lane","parentId":"490G00006902","stationId":"490G00006902","stopLetter":"H","topMostParentId":"490G00006902"},{"icsId":"1006156","id":"490006156E","lat":51.53876,"lon":0.202421,"name":"Dowding Way","parentId":"490G00006156","stationId":"490G00006156","stopLetter":"K","topMostParentId":"490G00006156"},{"icsId":"1007325","id":"490007325N","lat":51.54056,"lon":0.205695,"name":"Gosport Drive","parentId":"490G00007325","stationId":"490G00007325","stopLetter":"L","topMostParentId":"490G00007325"},{"icsId":"1003129","id":"490003129E","lat":51.543561,"lon":0.209171,"name":"Sarre Avenue","parentId":"490G00003129","stationId":"490G00003129","stopLetter":"M","topMostParentId":"490G00003129"},{"icsId":"1008346","id":"490008346N","lat":51.544082,"lon":0.214461,"name":"Hornchurch Country Park","parentId":"490G00008346","stationId":"490G00008346","stopLetter":"N","topMostParentId":"490G00008346"},{"icsId":"1009943","id":"490009943N","lat":51.545761,"lon":0.215538,"name":"Miramar Way","parentId":"490G00009943","stationId":"490G00009943","stopLetter":"C","topMostParentId":"490G00009943"},{"icsId":"1012695","id":"490012695N","lat":51.547839,"lon":0.216937,"name":"St George's Hospital","parentId":"490G00012695","stationId":"490G00012695","stopLetter":"D","topMostParentId":"490G00012695"},{"icsId":"1014015","id":"490014015N","lat":51.550495,"lon":0.218177,"name":"Vaughan Avenue","parentId":"490G00014015","stationId":"490G00014015","stopLetter":"E","topMostParentId":"490G00014015"},{"icsId":"1000115","id":"490000115L","lat":51.554545,"lon":0.21947,"name":"Hornchurch Station","parentId":"490G00115L","stationId":"490G00115L","stopLetter":"L","topMostParentId":"940GZZLUHCH","zone":"6"},{"icsId":"1006068","id":"490006068H","lat":51.558323,"lon":0.220332,"name":"Devonshire Road","parentId":"490G00006068","stationId":"490G00006068","stopLetter":"H","topMostParentId":"490G00006068"},{"icsId":"1015350","id":"490015350F","lat":51.561641,"lon":0.22133,"name":"Hornchurch Town Centre","parentId":"490G00015350","stationId":"490G00015350","stopLetter":"F","topMostParentId":"490G00015350"},{"icsId":"1012536","id":"490012536E","lat":51.560773,"lon":0.226323,"name":"St Andrew's Church","parentId":"490G00012536","stationId":"490G00012536","stopLetter":"->E","topMostParentId":"490G00012536"},{"icsId":"1007628","id":"490007628E","lat":51.560348,"lon":0.228799,"name":"Hacton Lane","parentId":"490G00007628","stationId":"490G00007628","stopLetter":"K","topMostParentId":"490G00007628"},{"icsId":"1000243","id":"490000243B","lat":51.559062,"lon":0.235892,"name":"Upminster Bridge Station","parentId":"490G00243B","stationId":"490G00243B","stopLetter":"B","topMostParentId":"940GZZLUUPB","zone":"6"},{"icsId":"1013926","id":"490013926E","lat":51.55767,"lon":0.242373,"name":"Upminster Windmill","parentId":"490G00013926","stationId":"490G00013926","stopLetter":"P","topMostParentId":"490G00013926"},{"icsId":"1012756","id":"490012756E","lat":51.556585,"lon":0.246013,"name":"St Laurence Church","parentId":"490G00012756","stationId":"490G00012756","stopLetter":"R","topMostParentId":"490G00012756"},{"icsId":"1007148","id":"490007148D","lat":51.556871,"lon":0.249374,"name":"Gaynes Road","parentId":"490G00007148","stationId":"490G00007148","stopLetter":"D","topMostParentId":"490G00007148"},{"icsId":"1000242","id":"490000242A","lat":51.558503,"lon":0.250061,"name":"Upminster Station","parentId":"490G00242E","stationId":"910GUPMNSTR","stopLetter":"A","topMostParentId":"HUBUPM","zone":"6"}]}]}