{"direction":"outbound","lineId":"654","lineName":"654","mode":"bus","stopPointSequences":[{"stopPoint":[{"icsId":"1003101","id":"490003101B","lat":51.356501,"lon":-0.032108,"name":"Addington Village Interchange","parentId":"490G000380","stationId":"490G000380","stopLetter":"B","topMostParentId":"490G000380"},{"icsId":"1003095","id":"490003095E","lat":51.364065,"lon":-0.018338,"name":"Addington Road / Pumping Station","parentId":"490G00003095","stationId":"490G00003095","stopLetter":"->E","topMostParentId":"490G00003095"},{"icsId":"1009032","id":"490009032E","lat":51.369331,"lon":-0.004347,"name":"Layhams Road","parentId":"490G00009032","stationId":"490G00009032","stopLetter":"B","topMostParentId":"490G00009032"},{"icsId":"1003099","id":"490003099N","lat":51.370749,"lon":-0.002044,"name":"Addington Road / Glebe Way","parentId":"490G00003099","stationId":"490G00003099","stopLetter":"C","topMostParentId":"490G00003099"},{"icsId":"1003097","id":"490003097E","lat":51.370986,"lon":-0.000669,"name":"Glebe Way","parentId":"490G00003097","stationId":"490G00003097","stopLetter":"P","topMostParentId":"490G00003097"},{"icsId":"1005544","id":"490005544E","lat":51.370484,"lon":0.002959,"name":"Coney Hall","parentId":"490G00005544","stationId":"490G00005544","stopLetter":"Q","topMostParentId":"490G00005544"},{"icsId":"1007871","id":"490007871E","lat":51.368248,"lon":0.014283,"name":"Hartfield Crescent","parentId":"490G00007871","stationId":"490G00007871","stopLetter":"->E","topMostParentId":"490G00007871"},{"icsId":"1003675","id":"490003675E","lat":51.367836,"lon":0.027238,"name":"Baston Road","parentId":"490G00003675","stationId":"490G00003675","stopLetter":"KN","topMostParentId":"490G00003675"},{"icsId":"1010989","id":"490010989E","lat":51.36746,"lon":0.035956,"name":"Phoenix Drive","parentId":"490G00010989","stationId":"490G00010989","stopLetter":"KP","topMostParentId":"490G00010989"},{"icsId":"1013438","id":"490013438E","lat":51.367265,"lon":0.039912,"name":"Croydon Road / The Keston Mark","parentId":"490G00013438","stationId":"490G00013438","stopLetter":"KQ","topMostParentId":"490G00013438"},{"icsId":"1008683","id":"490008683E","lat":51.367208,"lon":0.04682,"name":"Keston Park Close","parentId":"490G00008683","stationId":"490G00008683","stopLetter":"KR","topMostParentId":"490G00008683"},{"icsId":"1009241","id":"490009241E","lat":51.36665,"lon":0.050401,"name":"Locksbottom / Farnborough Common","parentId":"490G00009241","stationId":"490G00009241","stopLetter":"HH","topMostParentId":"490G00009241"},{"icsId":"1009243","id":"490009243E","lat":51.366807,"lon":0.054273,"name":"Locksbottom / St Michael's Church","parentId":"490G00009243","stationId":"490G00009243","stopLetter":"HJ","topMostParentId":"490G00009243"},{"icsId":"1012600","id":"490012600E","lat":51.368913,"lon":0.058304,"name":"Crofton Road / Starts Hill Road","parentId":"490G00012600","stationId":"490G00012600","stopLetter":"HN","topMostParentId":"490G00012600"},{"icsId":"1007255","id":"490007255E","lat":51.37102,"lon":0.063269,"name":"Glyndebourne Park","parentId":"490G00007255","stationId":"490G00007255","stopLetter":"CM","topMostParentId":"490G00007255"},{"icsId":"1010512","id":"490010512W2","lat":51.373517,"lon":0.070551,"name":"Oakwood Road / St Paul's Church","parentId":"490G00010512","stationId":"490G00010512","stopLetter":"CN","topMostParentId":"490G00010512"},{"icsId":"1005790","id":"490005788E","lat":51.373354,"lon":0.076708,"name":"Crofton Road / Crofton Lane","parentId":"490G00005790","stationId":"490G00005790","stopLetter":"CP","topMostParentId":"490G00005790"},{"icsId":"1011150","id":"490011150E","lat":51.372998,"lon":0.080542,"name":"Pound Court Drive","parentId":"490G00011150","stationId":"490G00011150","stopLetter":"CR","topMostParentId":"490G00011150"},{"icsId":"1001220","id":"490001220B","lat":51.372809,"lon":0.088652,"name":"Orpington Station","parentId":"490G01220B","stationId":"490G01220B","stopLetter":"B","topMostParentId":"910GORPNGTN"},{"icsId":"1013818","id":"490013818H","lat":51.371871,"lon":0.091353,"name":"Tubbenden Lane","parentId":"490G00013818","stationId":"490G00013818","stopLetter":"H","topMostParentId":"490G00013818"},{"icsId":"1008209","id":"490008209M","lat":51.371507,"lon":0.097098,"name":"Hillcrest Road","parentId":"490G00008209","stationId":"490G00008209","stopLetter":"M","topMostParentId":"490G00008209"},{"icsId":"1013749","id":"490013749S","lat":51.367952,"lon":0.095743,"name":"Sevenoaks Road / Tower Road","parentId":"490G00013749","stationId":"490G00013749","stopLetter":"D","topMostParentId":"490G00013749"},{"icsId":"1012592","id":"490010639E","lat":51.36474,"lon":0.093341,"name":"Sevenoaks Road / Orpington Hospital","parentId":"490G00012592","stationId":"490G00012592","stopLetter":"E","topMostParentId":"490G00012592"},{"icsId":"1010639","id":"490010639S1","lat":51.362914,"lon":0.091362,"name":"Sevenoaks Road / Cloonmore Avenue","parentId":"490G00010639","stationId":"490G00010639","stopLetter":"F","topMostParentId":"490G00010639"},{"icsId":"1005748","id":"490005748S","lat":51.36083,"lon":0.089184,"name":"Crescent Way","parentId":"490G00005748","stationId":"490G00005748","stopLetter":"G","topMostParentId":"490G00005748"},{"icsId":"1005446","id":"490005446E","lat":51.35959,"lon":0.098708,"name":"Cloonmore Avenue","parentId":"490G00005446","stationId":"490G00005446","topMostParentId":"490G00005446"},{"icsId":"1014893","id":"490014893E","lat":51.357929,"lon":0.103057,"name":"Woodside","parentId":"490G00014893","stationId":"490G00014893","stopLetter":"->E","topMostParentId":"490G00014893"},{"icsId":"1001060","id":"490001060A","lat":51.35742,"lon":0.106854,"name":"Chelsfield Station","parentId":"490G01060B","stationId":"490G01060B","stopLetter":"A","topMostParentId":"910GCHLSFLD"},{"icsId":"1015896","id":"490015896E","lat":51.358124,"lon":0.109213,"name":"Stirling Drive","parentId":"490G00015896","stationId":"490G00015896","stopLetter":"D","topMostParentId":"490G00015896"},{"icsId":"1013419","id":"490013419N","lat":51.360141,"lon":0.112035,"name":"The Highway School","parentId":"490G00013419","stationId":"490G00013419","stopLetter":"E","topMostParentId":"490G00013419"},{"icsId":"1013418","id":"490013418N","lat":51.363171,"lon":0.113611,"name":"The Highway","parentId":"490G00013418","stationId":"490G00013418","stopLetter":"V","topMostParentId":"490G00013418"},{"icsId":"1007264","id":"490007264N","lat":51.36559,"lon":0.110088,"name":"Goddington Lane","parentId":"490G00007264","stationId":"490G00007264","stopLetter":"->N","topMostParentId":"490G00007264"},{"icsId":"1005675","id":"490005675N","lat":51.369984,"lon":0.109327,"name":"Court Road / Spur Road","parentId":"490G00005675","stationId":"490G00005675","stopLetter":"->N","topMostParentId":"490G00005675"},{"icsId":"1007185","id":"490007185E","lat":51.37285,"lon":0.111485,"name":"Tintagel Road / Gillmans Road","parentId":"490G00007185","stationId":"490G00007185","stopLetter":"J","topMostParentId":"490G00007185"},{"icsId":"1006465","id":"490006465N","lat":51.374042,"lon":0.115692,"name":"Eldred Drive","parentId":"490G00006465","stationId":"490G00006465","stopLetter":"K","topMostParentId":"490G00006465"}]}]}