{"direction":"outbound","lineId":"655","lineName":"655","mode":"bus","stopPointSequences":[{"stopPoint":[{"icsId":"1023121","id":"490023121W","lat":51.406134,"lon":-0.166371,"name":"Love Lane","parentId":"490G00023121","stationId":"490G00023121","stopLetter":"F","topMostParentId":"490G00023121"},{"icsId":"1011847","id":"490011847W","lat":51.407463,"lon":-0.169122,"name":"Sadler Close","parentId":"490G00011847","stationId":"490G00011847","topMostParentId":"490G00011847"},{"icsId":"1009119","id":"490009119W","lat":51.408642,"lon":-0.170398,"name":"Lewis Road","parentId":"490G00009119","stationId":"490G00009119","topMostParentId":"490G00009119"},{"icsId":"1009003","id":"490009003W","lat":51.410319,"lon":-0.172358,"name":"Lavender Avenue","parentId":"490G00009003","stationId":"490G00009003","topMostParentId":"490G00009003"},{"icsId":"1005068","id":"490005068W","lat":51.411521,"lon":-0.175675,"name":"Chelsea Fields","parentId":"490G00005068","stationId":"490G00005068","stopLetter":"->W","topMostParentId":"490G00005068"},{"icsId":"1011789","id":"490011789J","lat":51.413494,"lon":-0.178789,"name":"Runnymede","parentId":"490G00011789","stationId":"490G00011789","stopLetter":"J","topMostParentId":"490G00011789"},{"icsId":"1000055","id":"490005223C","lat":51.41772,"lon":-0.178132,"name":"Colliers Wood Station","parentId":"490G00055A","stationId":"490G00055A","stopLetter":"C","topMostParentId":"940GZZLUCSD","zone":"3"},{"icsId":"1009830","id":"490009830F","lat":51.416132,"lon":-0.183042,"name":"Merton Abbey","parentId":"490G00009830","stationId":"490G00009830","stopLetter":"F","topMostParentId":"490G00009830"},{"icsId":"1007938","id":"490007938E","lat":51.415985,"lon":-0.185752,"name":"Abbey Road","parentId":"490G00007938","stationId":"490G00007938","stopLetter":"SE","topMostParentId":"490G00007938"},{"icsId":"1000216","id":"490000216C","lat":51.415572,"lon":-0.191578,"name":"South Wimbledon Station","parentId":"490G00216C","stationId":"490G00216C","stopLetter":"SF","topMostParentId":"940GZZLUSWN","zone":"3+4"},{"icsId":"1010023","id":"490010023L","lat":51.415494,"lon":-0.193537,"name":"Morden Road","parentId":"490G00010023","stationId":"490G00010023","stopLetter":"SN","topMostParentId":"490G00010023"},{"icsId":"1014733","id":"490014733W","lat":51.415274,"lon":-0.196163,"name":"Wimbledon Fire Station","parentId":"490G00014733","stationId":"490G00014733","stopLetter":"SQ","topMostParentId":"490G00014733"},{"icsId":"1002057","id":"490002057D","lat":51.414746,"lon":-0.201016,"name":"Merton Park Tram Stop","parentId":"490G02057D","stationId":"490G02057D","stopLetter":"MD","topMostParentId":"940GZZCRMTP"},{"icsId":"1010057","id":"490010057W","lat":51.412477,"lon":-0.206713,"name":"Wilton Crescent","parentId":"490G00010057","stationId":"490G00010057","stopLetter":"ME","topMostParentId":"490G00010057"},{"icsId":"1010168","id":"490010168W","lat":51.410559,"lon":-0.210038,"name":"The Nelson Health Centre","parentId":"490G00010168","stationId":"490G00010168","stopLetter":"MF","topMostParentId":"490G00010168"},{"icsId":"1001339","id":"490001339B","lat":51.409265,"lon":-0.213654,"name":"Wimbledon Chase Station","parentId":"490G01339A","stationId":"490G01339A","stopLetter":"MH","topMostParentId":"910GWIMLCHS"},{"icsId":"1009834","id":"490009834W","lat":51.408299,"lon":-0.216956,"name":"Merton Park Baptist Church","parentId":"490G00009834","stationId":"490G00009834","stopLetter":"MJ","topMostParentId":"490G00009834"},{"icsId":"1004647","id":"490004647W","lat":51.406977,"lon":-0.230566,"name":"Bushey Road / Grand Drive","parentId":"490G00004647","stationId":"490G00004647","stopLetter":"U","topMostParentId":"490G00004647"},{"icsId":"1004832","id":"490004832W","lat":51.404728,"lon":-0.237109,"name":"Carters Bridge","parentId":"490G00004832","stationId":"490G00004832","stopLetter":"Q","topMostParentId":"490G00004832"},{"icsId":"1011455","id":"490011455S","lat":51.403198,"lon":-0.240632,"name":"Raynes Park High School","parentId":"490G00011455","stationId":"490G00011455","stopLetter":"U","topMostParentId":"490G00011455"}]}]}