{"direction":"outbound","lineId":"66","lineName":"66","mode":"bus","stopPointSequences":[{"stopPoint":[{"icsId":"1001243","id":"490001243ZA","lat":51.574655,"lon":0.183431,"name":"Romford Station","parentId":"490G01243W","stationId":"490G01243W","stopLetter":"Z","topMostParentId":"910GROMFORD"},{"icsId":"1014452","id":"490014452P","lat":51.576976,"lon":0.183369,"name":"Western Road","parentId":"490G00014452","stationId":"490G00014452","stopLetter":"P","topMostParentId":"490G00014452"},{"icsId":"1011659","id":"490011659H","lat":51.580447,"lon":0.181919,"name":"Romford Market","parentId":"490G00011659","stationId":"490G00011659","stopLetter":"H","topMostParentId":"490G00011659"},{"icsId":"1004467","id":"490004467N1","lat":51.581603,"lon":0.176836,"name":"The Avenue","parentId":"490G00004467","stationId":"490G00004467","stopLetter":"F","topMostParentId":"490G00004467"},{"icsId":"1011658","id":"490010764N","lat":51.582895,"lon":0.175512,"name":"Romford Bus Garage","parentId":"490G00011658","stationId":"490G00011658","stopLetter":"NA","topMostParentId":"490G00011658"},{"icsId":"1011657","id":"490011657N1","lat":51.585301,"lon":0.172812,"name":"Cedar Road","parentId":"490G00011657","stationId":"490G00011657","stopLetter":"NB","topMostParentId":"490G00011657"},{"icsId":"1009722","id":"490009720W","lat":51.582654,"lon":0.166681,"name":"Mawney Road","parentId":"490G00009722","stationId":"490G00009722","stopLetter":"N","topMostParentId":"490G00009722"},{"icsId":"1014551","id":"490014551Y","lat":51.581004,"lon":0.138499,"name":"Whalebone Lane North","parentId":"490G00014551","stationId":"490G00014551","stopLetter":"ED","topMostParentId":"490G00014551"},{"icsId":"1006375","id":"490006375W","lat":51.581094,"lon":0.135025,"name":"East Road","parentId":"490G00006375","stationId":"490G00006375","stopLetter":"EE","topMostParentId":"490G00006375"},{"icsId":"1012232","id":"490012232W","lat":51.581501,"lon":0.127942,"name":"Somerville Road","parentId":"490G00012232","stationId":"490G00012232","stopLetter":"EF","topMostParentId":"490G00012232"},{"icsId":"1003620","id":"490003620C","lat":51.582191,"lon":0.116167,"name":"Barley Lane","parentId":"490G00003620","stationId":"490G00003620","stopLetter":"C","topMostParentId":"490G00003620"},{"icsId":"1003696","id":"490003696W","lat":51.581171,"lon":0.106406,"name":"Bawdsey Avenue","parentId":"490G00003696","stationId":"490G00003696","stopLetter":"->W","topMostParentId":"490G00003696"},{"icsId":"1020345","id":"490011412W","lat":51.579518,"lon":0.102779,"name":"Grenfell Gardens","parentId":"490G00020345","stationId":"490G00020345","stopLetter":"->W","topMostParentId":"490G00020345"},{"icsId":"1019701","id":"490019701NU","lat":51.577704,"lon":0.099115,"name":"Aldborough Road South","parentId":"490G000938","stationId":"490G000938","stopLetter":"NU","topMostParentId":"490G000938"},{"icsId":"1000154","id":"490000154B","lat":51.575101,"lon":0.091823,"name":"Newbury Park Station","parentId":"490G00154B","stationId":"490G00154B","stopLetter":"NB","topMostParentId":"940GZZLUNBP","zone":"4"},{"icsId":"1009129","id":"490009129W","lat":51.573562,"lon":0.08481,"name":"Ley Street","parentId":"490G00009129","stationId":"490G00009129","stopLetter":"NK","topMostParentId":"490G00009129"},{"icsId":"1009930","id":"490009930W","lat":51.574476,"lon":0.077377,"name":"Milton Crescent","parentId":"490G00009930","stationId":"490G00009930","stopLetter":"ER","topMostParentId":"490G00009930"},{"icsId":"1012344","id":"490012344W","lat":51.575355,"lon":0.072409,"name":"South View Crescent","parentId":"490G00012344","stationId":"490G00012344","stopLetter":"ES","topMostParentId":"490G00012344"},{"icsId":"1000085","id":"490015201L","lat":51.575958,"lon":0.068828,"name":"Gants Hill Station","parentId":"490G00085G","stationId":"490G00085G","stopLetter":"ET","topMostParentId":"940GZZLUGTH","zone":"4"},{"icsId":"1015203","id":"490000085H","lat":51.576424,"lon":0.064837,"name":"Clarence Avenue","parentId":"490G000879","stationId":"490G000879","stopLetter":"EV","topMostParentId":"490G000879"},{"icsId":"1003829","id":"490003829W","lat":51.576381,"lon":0.059062,"name":"Beehive Lane","parentId":"490G00003829","stationId":"490G00003829","stopLetter":"EW","topMostParentId":"490G00003829"},{"icsId":"1013332","id":"490013332W","lat":51.576103,"lon":0.051848,"name":"The Drive","parentId":"490G00013332","stationId":"490G00013332","stopLetter":"RN","topMostParentId":"490G00013332"},{"icsId":"1000190","id":"490015554C","lat":51.575851,"lon":0.04566,"name":"Redbridge Station","parentId":"490G00190038","stationId":"490G00190038","stopLetter":"RC","topMostParentId":"940GZZLURBG","zone":"4"},{"icsId":"1011477","id":"490011477W","lat":51.576016,"lon":0.040356,"name":"Redbridge Lane West","parentId":"490G00011477","stationId":"490G00011477","stopLetter":"RD","topMostParentId":"490G00011477"},{"icsId":"1014674","id":"490014674W","lat":51.576408,"lon":0.032262,"name":"Wigram Road","parentId":"490G00014674","stationId":"490G00014674","stopLetter":"S","topMostParentId":"490G00014674"},{"icsId":"1000250","id":"490000250A","lat":51.575902,"lon":0.028747,"name":"Wanstead Station","parentId":"490G00250A","stationId":"490G00250A","stopLetter":"A","topMostParentId":"940GZZLUWSD","zone":"4"},{"icsId":"1014206","id":"490014206N","lat":51.578329,"lon":0.025709,"name":"Wanstead Place","parentId":"490G00014206","stationId":"490G00014206","stopLetter":"SH","topMostParentId":"490G00014206"},{"icsId":"1001970","id":"490001970Z","lat":51.578856,"lon":0.021749,"name":"Homesdale Close","parentId":"490G000294","stationId":"490G000294","topMostParentId":"490G000294"},{"icsId":"1018836","id":"490018836S","lat":51.575225,"lon":0.018499,"name":"Chestnut Drive","parentId":"490G00018836","stationId":"490G00018836","topMostParentId":"490G00018836"},{"icsId":"1007490","id":"490007490P","lat":51.570533,"lon":0.014669,"name":"Green Man Roundabout","parentId":"490G00007490","stationId":"490G00007490","stopLetter":"P","topMostParentId":"490G00007490"},{"icsId":"1000137","id":"490000137X","lat":51.569239,"lon":0.009389,"name":"Leytonstone Station","parentId":"490G00137T","stationId":"490G00137T","stopLetter":"X","topMostParentId":"940GZZLULYS","zone":"3+4"}]}]}