{"direction":"outbound","lineId":"661","lineName":"661","mode":"bus","stopPointSequences":[{"stopPoint":[{"icsId":"1015388","id":"490015388D","lat":51.389235,"lon":0.074236,"name":"Station Square / Petts Wood Station","parentId":"490G000891","stationId":"490G000891","stopLetter":"D","topMostParentId":"490G000891"},{"icsId":"1014868","id":"490014868F","lat":51.390424,"lon":0.075626,"name":"Woodland Way","parentId":"490G00014868","stationId":"490G00014868","stopLetter":"F","topMostParentId":"490G00014868"},{"icsId":"1005819","id":"490005819E","lat":51.390672,"lon":0.080381,"name":"Crossway","parentId":"490G00005819","stationId":"490G00005819","stopLetter":"->E","topMostParentId":"490G00005819"},{"icsId":"1010978","id":"490010978E","lat":51.390863,"lon":0.085363,"name":"Petts Wood Road","parentId":"490G00010978","stationId":"490G00010978","stopLetter":"R","topMostParentId":"490G00010978"},{"icsId":"1008906","id":"490008906E","lat":51.391156,"lon":0.089099,"name":"Ladywood Avenue","parentId":"490G00008906","stationId":"490G00008906","stopLetter":"S","topMostParentId":"490G00008906"},{"icsId":"1005202","id":"490005202E","lat":51.391027,"lon":0.09227,"name":"Poverest Road / Chislehurst Road","parentId":"490G00005202","stationId":"490G00005202","stopLetter":"T","topMostParentId":"490G00005202"},{"icsId":"1005268","id":"490005268E","lat":51.390715,"lon":0.096151,"name":"Poverest Road / Church Hill Wood","parentId":"490G00005268","stationId":"490G00005268","stopLetter":"U","topMostParentId":"490G00005268"},{"icsId":"1005729","id":"490005729E","lat":51.389983,"lon":0.100387,"name":"Cray Valley Road","parentId":"490G00005729","stationId":"490G00005729","stopLetter":"->E","topMostParentId":"490G00005729"},{"icsId":"1003486","id":"490003486E","lat":51.389505,"lon":0.103441,"name":"Austin Road","parentId":"490G00003486","stationId":"490G00003486","stopLetter":"->E","topMostParentId":"490G00003486"},{"icsId":"1009653","id":"490009653E","lat":51.389196,"lon":0.105166,"name":"Marion Crescent","parentId":"490G00009653","stationId":"490G00009653","stopLetter":"SW","topMostParentId":"490G00009653"},{"icsId":"1010455","id":"490010455SJ","lat":51.391748,"lon":0.110759,"name":"Nugent Retail Park","parentId":"490G00010455","stationId":"490G00010455","stopLetter":"SJ","topMostParentId":"490G00010455"},{"icsId":"1012606","id":"490012606SD","lat":51.395082,"lon":0.11087,"name":"St Mary Cray / Station Approach","parentId":"490G00012606","stationId":"490G00012606","stopLetter":"SD","topMostParentId":"490G00012606"},{"icsId":"1001271","id":"490001271SA","lat":51.395742,"lon":0.107206,"name":"St Mary Cray Station","parentId":"490G01271SB","stationId":"490G01271SB","stopLetter":"SA","topMostParentId":"910GSTMRYC"},{"icsId":"1009068","id":"490009068W","lat":51.397833,"lon":0.105447,"name":"Leesons Primary School","parentId":"490G00009068","stationId":"490G00009068","stopLetter":"T","topMostParentId":"490G00009068"},{"icsId":"1005361","id":"490005361W","lat":51.397362,"lon":0.10209,"name":"Clarendon Way","parentId":"490G00005361","stationId":"490G00005361","stopLetter":"U","topMostParentId":"490G00005361"},{"icsId":"1009556","id":"490009556W","lat":51.398949,"lon":0.096341,"name":"Manorfields Close","parentId":"490G00009556","stationId":"490G00009556","stopLetter":"V","topMostParentId":"490G00009556"},{"icsId":"1009679","id":"490009679W","lat":51.399677,"lon":0.09334,"name":"Marlings Park Avenue","parentId":"490G00009679","stationId":"490G00009679","stopLetter":"DK","topMostParentId":"490G00009679"},{"icsId":"1009067","id":"490009067N","lat":51.402391,"lon":0.086391,"name":"St Pauls Cray Road / Leesons Hill","parentId":"490G00009067","stationId":"490G00009067","stopLetter":"DA","topMostParentId":"490G00009067"},{"icsId":"1009572","id":"490009572N","lat":51.409381,"lon":0.079159,"name":"Manor Park Road","parentId":"490G00009572","stationId":"490G00009572","stopLetter":"->N","topMostParentId":"490G00009572"},{"icsId":"1005199","id":"490005197E","lat":51.410735,"lon":0.077394,"name":"St Pauls Cray Road / Church Lane","parentId":"490G00005199","stationId":"490G00005199","stopLetter":"W","topMostParentId":"490G00005199"},{"icsId":"1005205","id":"490005205N","lat":51.413444,"lon":0.072671,"name":"Centre Common Road / War Memorial","parentId":"490G00005205","stationId":"490G00005205","stopLetter":"N","topMostParentId":"490G00005205"}]}]}