{"direction":"outbound","lineId":"669","lineName":"669","mode":"bus","stopPointSequences":[{"stopPoint":[{"icsId":"1013214","id":"490013214A","lat":51.507389,"lon":0.109183,"name":"Thamesmead Town Centre","parentId":"490G00013214","stationId":"490G00013214","stopLetter":"A","topMostParentId":"490G00013214"},{"icsId":"1009198","id":"490009198D","lat":51.507586,"lon":0.112708,"name":"Linton Mead Primary School","parentId":"490G00009198","stationId":"490G00009198","stopLetter":"D","topMostParentId":"490G00009198"},{"icsId":"1008405","id":"490008405E","lat":51.509319,"lon":0.116377,"name":"Hoveton Road","parentId":"490G00008405","stationId":"490G00008405","topMostParentId":"490G00008405"},{"icsId":"1010268","id":"490010268E","lat":51.509522,"lon":0.120061,"name":"Nickelby Close","parentId":"490G00010268","stationId":"490G00010268","stopLetter":"NE","topMostParentId":"490G00010268"},{"icsId":"1006355","id":"490006355S","lat":51.509107,"lon":0.126066,"name":"Eastgate Close","parentId":"490G00006355","stationId":"490G00006355","stopLetter":"NG","topMostParentId":"490G00006355"},{"icsId":"1009206","id":"490009206W","lat":51.506652,"lon":0.1266,"name":"Lister Walk","parentId":"490G00009206","stationId":"490G00009206","stopLetter":"NH","topMostParentId":"490G00009206"},{"icsId":"1011113","id":"490011113W","lat":51.506063,"lon":0.12137,"name":"Poplar Place","parentId":"490G00011113","stationId":"490G00011113","stopLetter":"SE","topMostParentId":"490G00011113"},{"icsId":"1004130","id":"490004130S","lat":51.503737,"lon":0.119202,"name":"Carlyle Road / Crossway","parentId":"490G00004130","stationId":"490G00004130","stopLetter":"SJ","topMostParentId":"490G00004130"},{"icsId":"1010190","id":"490010190S","lat":51.497482,"lon":0.121476,"name":"Newacres Library","parentId":"490G00010190","stationId":"490G00010190","stopLetter":"->S","topMostParentId":"490G00010190"},{"icsId":"1013257","id":"490013257B","lat":51.49523,"lon":0.121199,"name":"Harrow Manorway / Yarnton Way","parentId":"490G00013257","stationId":"490G00013257","stopLetter":"B","topMostParentId":"490G00013257"},{"icsId":"1010675","id":"490010675BA","lat":51.493486,"lon":0.121175,"name":"Overton Road","parentId":"490G00010675","stationId":"490G00010675","stopLetter":"BA","topMostParentId":"490G00010675"},{"icsId":"1019855","id":"490001001D","lat":51.490915,"lon":0.122093,"name":"Harrow Manorway / Abbey Wood Station","parentId":"490G000957","stationId":"490G000957","stopLetter":"D","topMostParentId":"490G000957"},{"icsId":"1003039","id":"490003039E","lat":51.48934,"lon":0.121184,"name":"Abbey Wood Road","parentId":"490G000378","stationId":"490G000378","stopLetter":"E","topMostParentId":"490G000378"},{"icsId":"1006959","id":"490006958E","lat":51.490147,"lon":0.128252,"name":"Lesnes Abbey","parentId":"490G00006959","stationId":"490G00006959","stopLetter":"->E","topMostParentId":"490G00006959"},{"icsId":"1006530","id":"490006530E","lat":51.490567,"lon":0.132823,"name":"Elstree Gardens","parentId":"490G00006530","stationId":"490G00006530","topMostParentId":"490G00006530"},{"icsId":"1013841","id":"490013841E","lat":51.490342,"lon":0.136818,"name":"Tunstock Way","parentId":"490G00013841","stationId":"490G00013841","stopLetter":"->E","topMostParentId":"490G00013841"},{"icsId":"1008837","id":"490008837E","lat":51.490766,"lon":0.140655,"name":"Kingswood Avenue","parentId":"490G00008837","stationId":"490G00008837","topMostParentId":"490G00008837"},{"icsId":"1012627","id":"490012627E","lat":51.491236,"lon":0.14448,"name":"St Augustine's Road","parentId":"490G00012627","stationId":"490G00012627","stopLetter":"A","topMostParentId":"490G00012627"},{"icsId":"1007175","id":"490007175E","lat":51.491287,"lon":0.14758,"name":"Gilbert Road","parentId":"490G00007175","stationId":"490G00007175","stopLetter":"B","topMostParentId":"490G00007175"},{"icsId":"1003880","id":"490003880B","lat":51.49056,"lon":0.153408,"name":"Lower Road / Belvedere Station","parentId":"490G00003880","stationId":"490G00003880","stopLetter":"C","topMostParentId":"490G00003880"},{"icsId":"1007688","id":"490007688E","lat":51.490213,"lon":0.157094,"name":"Halt Robin Lane","parentId":"490G00007688","stationId":"490G00007688","stopLetter":"D","topMostParentId":"490G00007688"},{"icsId":"1011112","id":"490011112E","lat":51.490428,"lon":0.159611,"name":"Poplar Mount","parentId":"490G00011112","stationId":"490G00011112","stopLetter":"->E","topMostParentId":"490G00011112"},{"icsId":"1009739","id":"490009739E","lat":51.490136,"lon":0.162752,"name":"Mayfield Road","parentId":"490G00009739","stationId":"490G00009739","stopLetter":"->E","topMostParentId":"490G00009739"},{"icsId":"1005279","id":"490005279E","lat":51.487944,"lon":0.169433,"name":"Lower Road / Church Manorway","parentId":"490G00005279","stationId":"490G00005279","stopLetter":"->E","topMostParentId":"490G00005279"},{"icsId":"1012687","id":"490012687S","lat":51.48649,"lon":0.171222,"name":"St Francis Road","parentId":"490G00012687","stationId":"490G00012687","stopLetter":"->S","topMostParentId":"490G00012687"},{"icsId":"1014784","id":"490014784E","lat":51.484355,"lon":0.174808,"name":"Winifred Road / The Ship","parentId":"490G00014784","stationId":"490G00014784","stopLetter":"->E","topMostParentId":"490G00014784"},{"icsId":"1006615","id":"490006615L","lat":51.482518,"lon":0.17884,"name":"Erith Station  / West Street","parentId":"490G000506","stationId":"490G000506","stopLetter":"L","topMostParentId":"490G000506"},{"icsId":"1005821","id":"490005817G","lat":51.48066,"lon":0.17865,"name":"Erith Town Centre / Cross Street","parentId":"490G00005821","stationId":"490G00005821","stopLetter":"G","topMostParentId":"490G00005821"},{"icsId":"1006999","id":"490006999D","lat":51.480546,"lon":0.174627,"name":"Fraser Road","parentId":"490G000523","stationId":"490G000523","stopLetter":"D","topMostParentId":"490G000523"},{"icsId":"1009094","id":"490009094S","lat":51.479656,"lon":0.166836,"name":"Lesney Park","parentId":"490G00009094","stationId":"490G00009094","stopLetter":"S","topMostParentId":"490G00009094"},{"icsId":"1004804","id":"490004804S","lat":51.47737,"lon":0.16353,"name":"Carlton Road","parentId":"490G00004804","stationId":"490G00004804","stopLetter":"T","topMostParentId":"490G00004804"},{"icsId":"1010413","id":"490010413S","lat":51.474264,"lon":0.16275,"name":"Northumberland Park","parentId":"490G00010413","stationId":"490G00010413","stopLetter":"V","topMostParentId":"490G00010413"},{"icsId":"1019145","id":"490004477S","lat":51.470651,"lon":0.160649,"name":"Brook Street","parentId":"490G00019145","stationId":"490G00019145","stopLetter":"L","topMostParentId":"490G00019145"},{"icsId":"1011833","id":"490011833S","lat":51.467622,"lon":0.158145,"name":"Rydal Drive","parentId":"490G00011833","stationId":"490G00011833","stopLetter":"M","topMostParentId":"490G00011833"},{"icsId":"1001013","id":"490001013B","lat":51.465564,"lon":0.157083,"name":"Barnehurst Station","parentId":"490G01013B","stationId":"490G01013B","stopLetter":"A","topMostParentId":"910GBRNHRST"},{"icsId":"1009470","id":"490009470S","lat":51.463329,"lon":0.154401,"name":"Lyndhurst Road","parentId":"490G00009470","stationId":"490G00009470","stopLetter":"NU","topMostParentId":"490G00009470"},{"icsId":"1015358","id":"490015358S","lat":51.461603,"lon":0.153398,"name":"Long Lane","parentId":"490G00015358","stationId":"490G00015358","stopLetter":"NV","topMostParentId":"490G00015358"},{"icsId":"1003974","id":"490003974S2","lat":51.459624,"lon":0.152945,"name":"Bexleyheath Bus Garage","parentId":"490G00003974","stationId":"490G00003974","stopLetter":"NW","topMostParentId":"490G00003974"},{"icsId":"1007662","id":"490007662S","lat":51.452762,"lon":0.151989,"name":"Halcot Avenue","parentId":"490G00007662","stationId":"490G00007662","stopLetter":"C","topMostParentId":"490G00007662"},{"icsId":"1004489","id":"490004489S","lat":51.451449,"lon":0.152935,"name":"Broomfield Road","parentId":"490G00004489","stationId":"490G00004489","stopLetter":"D","topMostParentId":"490G00004489"},{"icsId":"1007386","id":"490007386S","lat":51.44876,"lon":0.156881,"name":"Gravel Hill Close","parentId":"490G00007386","stationId":"490G00007386","stopLetter":"E","topMostParentId":"490G00007386"},{"icsId":"1007872","id":"490007872J","lat":51.444824,"lon":0.152292,"name":"Hartford Road","parentId":"490G00007872","stationId":"490G00007872","stopLetter":"J","topMostParentId":"490G00007872"},{"icsId":"1003984","id":"490003984G","lat":51.442332,"lon":0.150909,"name":"Bexley Library","parentId":"490G00003984","stationId":"490G00003984","stopLetter":"G","topMostParentId":"490G00003984"},{"icsId":"1001024","id":"490001024E","lat":51.441474,"lon":0.147674,"name":"Bexley Station","parentId":"490G01024E","stationId":"490G01024E","stopLetter":"E","topMostParentId":"910GBEXLEY"},{"icsId":"1003988","id":"490003988E","lat":51.441577,"lon":0.14598,"name":"Bexley War Memorial","parentId":"490G000416","stationId":"490G000416","stopLetter":"C","topMostParentId":"490G000416"},{"icsId":"1014905","id":"490014905W","lat":51.440267,"lon":0.139386,"name":"Woodstock Close","parentId":"490G00014905","stationId":"490G00014905","stopLetter":"->W","topMostParentId":"490G00014905"},{"icsId":"1013986","id":"490013986W","lat":51.43827,"lon":0.132041,"name":"Valentine Avenue","parentId":"490G00013986","stationId":"490G00013986","stopLetter":"->W","topMostParentId":"490G00013986"},{"icsId":"1004783","id":"490004783W","lat":51.438582,"lon":0.128228,"name":"Carisbrooke Avenue","parentId":"490G00004783","stationId":"490G00004783","stopLetter":"C","topMostParentId":"490G00004783"},{"icsId":"1005784","id":"490005784W","lat":51.439185,"lon":0.12273,"name":"Crofton Avenue","parentId":"490G00005784","stationId":"490G00005784","stopLetter":"D","topMostParentId":"490G00005784"},{"icsId":"1006890","id":"490006890S","lat":51.438345,"lon":0.118979,"name":"Foots Cray Lane / Hurst Road","parentId":"490G00006890","stationId":"490G00006890","stopLetter":"E","topMostParentId":"490G00006890"},{"icsId":"1004765","id":"490004765S","lat":51.436591,"lon":0.119517,"name":"Canterbury Avenue","parentId":"490G00004765","stationId":"490G00004765","stopLetter":"F","topMostParentId":"490G00004765"},{"icsId":"1005386","id":"490005386S","lat":51.429324,"lon":0.118547,"name":"Bexley Lane / Cleeve Park School","parentId":"490G00005386","stationId":"490G00005386","stopLetter":"->S","topMostParentId":"490G00005386"}]}]}