{"direction":"outbound","lineId":"670","lineName":"670","mode":"bus","stopPointSequences":[{"stopPoint":[{"icsId":"1011639","id":"490011639E","lat":51.452167,"lon":-0.248135,"name":"Danebury Avenue / Minstead Gardens","parentId":"490G00011639","stationId":"490G00011639","topMostParentId":"490G00011639"},{"icsId":"1010069","id":"490010069E","lat":51.450727,"lon":-0.246218,"name":"Mount Angelus Road","parentId":"490G00010069","stationId":"490G00010069","stopLetter":"L","topMostParentId":"490G00010069"},{"icsId":"1011641","id":"490011641B","lat":51.449771,"lon":-0.242484,"name":"Roehampton Library","parentId":"490G00011641","stationId":"490G00011641","stopLetter":"B","topMostParentId":"490G00011641"},{"icsId":"1011640","id":"490011640E","lat":51.449768,"lon":-0.239893,"name":"Medfield Street","parentId":"490G00011640","stationId":"490G00011640","stopLetter":"E","topMostParentId":"490G00011640"},{"icsId":"1006150","id":"490006150E","lat":51.451827,"lon":-0.23387,"name":"Dover Park Drive","parentId":"490G00006150","stationId":"490G00006150","stopLetter":"H","topMostParentId":"490G00006150"},{"icsId":"1006685","id":"490006685E","lat":51.452543,"lon":-0.229482,"name":"Exeter House","parentId":"490G00006685","stationId":"490G00006685","stopLetter":"J","topMostParentId":"490G00006685"},{"icsId":"1007965","id":"490007965E","lat":51.453236,"lon":-0.224748,"name":"Hayward Gardens","parentId":"490G00007965","stationId":"490G00007965","stopLetter":"K","topMostParentId":"490G00007965"},{"icsId":"1011285","id":"490011285E2","lat":51.453514,"lon":-0.221168,"name":"Putney Heath / Green Man","parentId":"490G00011285","stationId":"490G00011285","stopLetter":"L","topMostParentId":"490G00011285"},{"icsId":"1011299","id":"490011285R","lat":51.451703,"lon":-0.221497,"name":"Putney Hill / Green Man","parentId":"490G00011299","stationId":"490G00011299","stopLetter":"R","topMostParentId":"490G00011299"},{"icsId":"1015450","id":"490015450E","lat":51.449176,"lon":-0.221481,"name":"Tibbet's Corner","parentId":"490G00015450","stationId":"490G00015450","stopLetter":"PC","topMostParentId":"490G00015450"},{"icsId":"1019015","id":"490003729E","lat":51.451042,"lon":-0.217652,"name":"Beaumont Road","parentId":"490G00019015","stationId":"490G00019015","stopLetter":"PG","topMostParentId":"490G00019015"},{"icsId":"1009493","id":"490009493N","lat":51.453296,"lon":-0.212713,"name":"Lytton Grove","parentId":"490G00009493","stationId":"490G00009493","stopLetter":"EL","topMostParentId":"490G00009493"},{"icsId":"1014475","id":"490014475N","lat":51.454881,"lon":-0.208736,"name":"West Hill Road","parentId":"490G00014475","stationId":"490G00014475","stopLetter":"EJ","topMostParentId":"490G00014475"},{"icsId":"1019844","id":"490012985EG","lat":51.456507,"lon":-0.203347,"name":"Upper Richmond Road","parentId":"490G00019844","stationId":"490G00019844","stopLetter":"EG","topMostParentId":"490G00019844"},{"icsId":"1009836","id":"490009836A","lat":51.456961,"lon":-0.1995,"name":"Merton Road","parentId":"490G00009836","stationId":"490G00009836","stopLetter":"A","topMostParentId":"490G00009836"},{"icsId":"1003383","id":"490003383E","lat":51.45831,"lon":-0.196611,"name":"Armoury Way","parentId":"490G00003383","stationId":"490G00003383","stopLetter":"E","topMostParentId":"490G00003383"},{"icsId":"1014195","id":"490014195N","lat":51.457629,"lon":-0.189743,"name":"Wandsworth Town Hall","parentId":"490G00014195","stationId":"490G00014195","stopLetter":"N","topMostParentId":"490G00014195"},{"icsId":"1003259","id":"490003259E","lat":51.457707,"lon":-0.185523,"name":"East Hill / Alma Road","parentId":"490G00003259","stationId":"490G00003259","stopLetter":"A","topMostParentId":"490G00003259"},{"icsId":"1009638","id":"490015404E","lat":51.459451,"lon":-0.180847,"name":"Marcilly Road","parentId":"490G00009638","stationId":"490G00009638","stopLetter":"B","topMostParentId":"490G00009638"},{"icsId":"1011066","id":"490011066E","lat":51.461337,"lon":-0.174323,"name":"Plough Road","parentId":"490G00011066","stationId":"490G00011066","stopLetter":"C","topMostParentId":"490G00011066"},{"icsId":"1001069","id":"490001069C","lat":51.463013,"lon":-0.170484,"name":"Clapham Junction Station","parentId":"490G01069M","stationId":"490G01069M","stopLetter":"C","topMostParentId":"490G01069M"},{"icsId":"1005331","id":"490005331E","lat":51.464316,"lon":-0.168129,"name":"Clapham Junction Station  / Falcon Road","parentId":"490G000461","stationId":"490G000461","stopLetter":"E","topMostParentId":"HUBCLJ"},{"icsId":"1009849","id":"490009843F","lat":51.466325,"lon":-0.169531,"name":"Clapham Junction Station  / Falcon Road","parentId":"490G00009849","stationId":"490G00009849","stopLetter":"F","topMostParentId":"490G00009849"},{"icsId":"1008486","id":"490008486N","lat":51.467259,"lon":-0.170602,"name":"Ingrave Street","parentId":"490G00008486","stationId":"490G00008486","stopLetter":"N","topMostParentId":"490G00008486"},{"icsId":"1003687","id":"490003687N1","lat":51.469549,"lon":-0.171547,"name":"Battersea High Street","parentId":"490G00003687","stationId":"490G00003687","stopLetter":"LK","topMostParentId":"490G00003687"},{"icsId":"1004568","id":"490004568E","lat":51.471134,"lon":-0.169353,"name":"Bullen Street","parentId":"490G00004568","stationId":"490G00004568","stopLetter":"LQ","topMostParentId":"490G00004568"},{"icsId":"1013443","id":"490013443N","lat":51.472769,"lon":-0.165817,"name":"The Latchmere","parentId":"490G00013443","stationId":"490G00013443","stopLetter":"LU","topMostParentId":"490G00013443"},{"icsId":"1011197","id":"490011197N","lat":51.474378,"lon":-0.166372,"name":"Prince Of Wales Drive","parentId":"490G00011197","stationId":"490G00011197","stopLetter":"LV","topMostParentId":"490G00011197"},{"icsId":"1000807","id":"490000807Z","lat":51.475026,"lon":-0.172164,"name":"St John Bosco College","parentId":"490G000159","stationId":"490G000159","stopLetter":"->W","topMostParentId":"490G000159"}]}]}