{"direction":"outbound","lineId":"681","lineName":"681","mode":"bus","stopPointSequences":[{"stopPoint":[{"icsId":"1008392","id":"490008393W","lat":51.470871,"lon":-0.354873,"name":"Hounslow Bus Station","parentId":"490G000601","stationId":"490G000601","stopLetter":"A","topMostParentId":"490G000601"},{"icsId":"1008397","id":"490007766M","lat":51.468267,"lon":-0.360308,"name":"Douglas Road","parentId":"490G00008397","stationId":"490G00008397","stopLetter":"M","topMostParentId":"490G00008397"},{"icsId":"1007573","id":"490007573N","lat":51.467084,"lon":-0.362482,"name":"Grove Road","parentId":"490G00007573","stationId":"490G00007573","stopLetter":"N","topMostParentId":"490G00007573"},{"icsId":"1011160","id":"490011160S","lat":51.464395,"lon":-0.362492,"name":"Pownall Gardens","parentId":"490G00011160","stationId":"490G00011160","stopLetter":"SA","topMostParentId":"490G00011160"},{"icsId":"1001156","id":"490001156A","lat":51.462643,"lon":-0.362626,"name":"Hounslow Station","parentId":"490G01156A","stationId":"490G01156A","stopLetter":"SC","topMostParentId":"910GHOUNSLW"},{"icsId":"1010808","id":"490010808S","lat":51.459882,"lon":-0.362567,"name":"Park Road","parentId":"490G00010808","stationId":"490G00010808","stopLetter":"SD","topMostParentId":"490G00010808"},{"icsId":"1014634","id":"490014634S","lat":51.45809,"lon":-0.3624,"name":"Whitton Dene","parentId":"490G00014634","stationId":"490G00014634","stopLetter":"SE","topMostParentId":"490G00014634"},{"icsId":"1014632","id":"490014632S","lat":51.45589,"lon":-0.360047,"name":"Whitton Church","parentId":"490G00014632","stationId":"490G00014632","stopLetter":"->S","topMostParentId":"490G00014632"},{"icsId":"1014629","id":"490014629C","lat":51.453466,"lon":-0.35714,"name":"Admiral Nelson / Whitton","parentId":"490G00014629","stationId":"490G00014629","stopLetter":"Q","topMostParentId":"490G00014629"},{"icsId":"1014241","id":"490014241E","lat":51.453911,"lon":-0.352907,"name":"Warren Road","parentId":"490G00014241","stationId":"490G00014241","stopLetter":"T","topMostParentId":"490G00014241"},{"icsId":"1008869","id":"490008869E","lat":51.453815,"lon":-0.348017,"name":"Kneller Hall","parentId":"490G00008869","stationId":"490G00008869","stopLetter":"A","topMostParentId":"490G00008869"},{"icsId":"1013875","id":"490013875E","lat":51.454236,"lon":-0.342158,"name":"Tayben Avenue","parentId":"490G00013875","stationId":"490G00013875","stopLetter":"B","topMostParentId":"490G00013875"},{"icsId":"1013873","id":"490013873W2","lat":51.454977,"lon":-0.339252,"name":"Twickenham Stadium","parentId":"490G00013873","stationId":"490G00013873","stopLetter":"C","topMostParentId":"490G00013873"},{"icsId":"1005244","id":"490005244S","lat":51.453335,"lon":-0.335699,"name":"Chudleigh Road","parentId":"490G00005244","stationId":"490G00005244","stopLetter":"R","topMostParentId":"490G00005244"},{"icsId":"1007982","id":"490007982S","lat":51.451216,"lon":-0.33274,"name":"Heatham House","parentId":"490G00007982","stationId":"490G00007982","stopLetter":"S","topMostParentId":"490G00007982"},{"icsId":"1013871","id":"490013871F","lat":51.448521,"lon":-0.329182,"name":"London Road / Twickenham","parentId":"490G00013871","stationId":"490G00013871","stopLetter":"F","topMostParentId":"490G00013871"},{"icsId":"1020202","id":"490020202W","lat":51.445291,"lon":-0.330955,"name":"Heath Road / Twickenham","parentId":"490G00020202","stationId":"490G00020202","stopLetter":"K","topMostParentId":"490G00020202"},{"icsId":"1008009","id":"490008009W","lat":51.445269,"lon":-0.336324,"name":"Heath Road / Grove Avenue","parentId":"490G00008009","stationId":"490G00008009","stopLetter":"GS","topMostParentId":"490G00008009"},{"icsId":"1013869","id":"490013869S","lat":51.443904,"lon":-0.340892,"name":"Twickenham Green","parentId":"490G00013869","stationId":"490G00013869","stopLetter":"GT","topMostParentId":"490G00013869"},{"icsId":"1013865","id":"490013865S","lat":51.442364,"lon":-0.343278,"name":"The Prince Albert / Twickenham","parentId":"490G00013865","stationId":"490G00013865","stopLetter":"GB","topMostParentId":"490G00013865"},{"icsId":"1013765","id":"490013765S","lat":51.439539,"lon":-0.347668,"name":"Trafalgar Road / Prince Of Wales","parentId":"490G00013765","stationId":"490G00013765","stopLetter":"SC","topMostParentId":"490G00013765"},{"icsId":"1007064","id":"490007064F","lat":51.436849,"lon":-0.350111,"name":"Fulwell / Sixth Cross Road","parentId":"490G00007064","stationId":"490G00007064","stopLetter":"H","topMostParentId":"490G00007064"},{"icsId":"1012333","id":"490012333EB","lat":51.435814,"lon":-0.349429,"name":"South Road / Fulwell","parentId":"490G00012333","stationId":"490G00012333","stopLetter":"G","topMostParentId":"490G00012333"},{"icsId":"1001113","id":"490005445D","lat":51.433881,"lon":-0.34629,"name":"Fulwell Station","parentId":"490G05445D","stationId":"490G05445D","stopLetter":"D","topMostParentId":"910GFULWELL"},{"icsId":"1011215","id":"490011215S2","lat":51.430946,"lon":-0.345403,"name":"Princes Road","parentId":"490G00011215","stationId":"490G00011215","stopLetter":"->S","topMostParentId":"490G00011215"},{"icsId":"1007249","id":"490007249S","lat":51.429185,"lon":-0.342935,"name":"Gloucester Road","parentId":"490G00007249","stationId":"490G00007249","stopLetter":"P","topMostParentId":"490G00007249"},{"icsId":"1013176","id":"490013176S","lat":51.426919,"lon":-0.340414,"name":"Teddington Memorial Hospital","parentId":"490G00013176","stationId":"490G00013176","stopLetter":"Q","topMostParentId":"490G00013176"},{"icsId":"1004377","id":"490004377E","lat":51.426068,"lon":-0.336863,"name":"Broad Street / Teddington","parentId":"490G00004377","stationId":"490G00004377","stopLetter":"E","topMostParentId":"490G00004377"},{"icsId":"1013172","id":"490013172C","lat":51.427108,"lon":-0.333416,"name":"Elmfield Avenue","parentId":"490G00013172","stationId":"490G00013172","stopLetter":"C","topMostParentId":"490G00013172"},{"icsId":"1004709","id":"490004709E","lat":51.427503,"lon":-0.327705,"name":"Cambridge Road","parentId":"490G00004709","stationId":"490G00004709","stopLetter":"L","topMostParentId":"490G00004709"},{"icsId":"1013174","id":"490013174E","lat":51.428645,"lon":-0.325175,"name":"Teddington Lock","parentId":"490G00013174","stationId":"490G00013174","stopLetter":"M","topMostParentId":"490G00013174"},{"icsId":"1013180","id":"490013180S","lat":51.422026,"lon":-0.311997,"name":"Broom Road / Teddington School","parentId":"490G00013180","stationId":"490G00013180","topMostParentId":"490G00013180"}]}]}