{"direction":"outbound","lineId":"692","lineName":"692","mode":"bus","stopPointSequences":[{"stopPoint":[{"icsId":"1005946","id":"210021085060","lat":51.691324,"lon":-0.207447,"name":"Dame Alice Owen's School","parentId":"210G3434","stationId":"210G3434","topMostParentId":"210G3434"},{"icsId":"1019415","id":"210021000931","lat":51.690383,"lon":-0.199426,"name":"Pope Paul Catholic Primary School","parentId":"210G9492","stationId":"210G9492","topMostParentId":"210G9492"},{"icsId":"1019803","id":"210021001060","lat":51.69408,"lon":-0.194823,"name":"Daleside Drive","parentId":"210G690","stationId":"210G690","topMostParentId":"210G690"},{"icsId":"1011145","id":"210021000010","lat":51.697513,"lon":-0.191792,"name":"Potters Bar Station","parentId":"210G697","stationId":"210G697","stopLetter":"D","topMostParentId":"910GPOTRSBR"},{"icsId":"1011143","id":"210021001500","lat":51.692905,"lon":-0.182166,"name":"Potters Bar Tesco","parentId":"210G679","stationId":"210G679","topMostParentId":"210G679"},{"icsId":"1011144","id":"210021001520","lat":51.691634,"lon":-0.177355,"name":"Highview Gardens","parentId":"210G677","stationId":"210G677","topMostParentId":"210G677"},{"icsId":"1012301","id":"210021001540","lat":51.688266,"lon":-0.172947,"name":"Park Avenue","parentId":"210G674","stationId":"210G674","topMostParentId":"210G674"},{"icsId":"1012470","id":"210021001560","lat":51.684513,"lon":-0.169279,"name":"Stagg Hill","parentId":"210G651","stationId":"210G651","topMostParentId":"210G651"},{"icsId":"1012200","id":"490012200S","lat":51.6753,"lon":-0.162622,"name":"Slopers Pond Farm","parentId":"490G00012200","stationId":"490G00012200","stopLetter":"->S","topMostParentId":"490G00012200"},{"icsId":"1014115","id":"490014115S","lat":51.671047,"lon":-0.16035,"name":"Wagon Road","parentId":"490G00014115","stationId":"490G00014115","stopLetter":"->S","topMostParentId":"490G00014115"},{"icsId":"1003814","id":"490003814B","lat":51.667969,"lon":-0.1579,"name":"Beech Hill","parentId":"490G00003814","stationId":"490G00003814","stopLetter":"B","topMostParentId":"490G00003814"},{"icsId":"1006868","id":"490006868S","lat":51.661753,"lon":-0.154335,"name":"Greenoak Place","parentId":"490G00006868","stationId":"490G00006868","stopLetter":"->S","topMostParentId":"490G00006868"},{"icsId":"1005572","id":"490005572S","lat":51.659035,"lon":-0.153622,"name":"Coombehurst Close","parentId":"490G00005572","stationId":"490G00005572","stopLetter":"->S","topMostParentId":"490G00005572"},{"icsId":"1013787","id":"490013787S","lat":51.654522,"lon":-0.151955,"name":"Trent Country Park","parentId":"490G00013787","stationId":"490G00013787","stopLetter":"->S","topMostParentId":"490G00013787"},{"icsId":"1000053","id":"490000053B","lat":51.65152,"lon":-0.149764,"name":"Cockfosters Station","parentId":"490G00053N2","stationId":"490G00053N2","stopLetter":"B","topMostParentId":"940GZZLUCKS","zone":"5"},{"icsId":"1013790","id":"490013790D","lat":51.647279,"lon":-0.147103,"name":"Freston Gardens","parentId":"490G00013790","stationId":"490G00013790","stopLetter":"D","topMostParentId":"490G00013790"},{"icsId":"1004243","id":"490004243S","lat":51.644382,"lon":-0.145877,"name":"Bramley Road","parentId":"490G00004243","stationId":"490G00004243","stopLetter":"J","topMostParentId":"490G00004243"},{"icsId":"1004869","id":"490004869S","lat":51.640628,"lon":-0.143357,"name":"Green Road","parentId":"490G00004869","stationId":"490G00004869","stopLetter":"P","topMostParentId":"490G00004869"},{"icsId":"1009972","id":"490009972S","lat":51.638962,"lon":-0.141503,"name":"Monkfrith Way","parentId":"490G00009972","stationId":"490G00009972","stopLetter":"Q","topMostParentId":"490G00009972"},{"icsId":"1005040","id":"490005040S","lat":51.636181,"lon":-0.137368,"name":"Avenue Road","parentId":"490G00005040","stationId":"490G00005040","stopLetter":"R","topMostParentId":"490G00005040"},{"icsId":"1012298","id":"490012298S","lat":51.634952,"lon":-0.13473,"name":"Southgate Asda","parentId":"490G00012298","stationId":"490G00012298","stopLetter":"K","topMostParentId":"490G00012298"},{"icsId":"1012300","id":"490012300L","lat":51.633239,"lon":-0.130494,"name":"Southgate Police Station","parentId":"490G00012300","stationId":"490G00012300","stopLetter":"L","topMostParentId":"490G00012300"},{"icsId":"1000210","id":"490000210H","lat":51.632409,"lon":-0.128058,"name":"Southgate Station","parentId":"490G00210G","stationId":"490G00210G","stopLetter":"H","topMostParentId":"940GZZLUSGT","zone":"4"}]}]}