{"direction":"outbound","lineId":"71","lineName":"71","mode":"bus","stopPointSequences":[{"stopPoint":[{"icsId":"1005121","id":"490005121Z","lat":51.350993,"lon":-0.313791,"name":"Chessington World Of Adventures","parentId":"490G00005121","stationId":"490G00005121","stopLetter":"Z","topMostParentId":"490G00005121"},{"icsId":"1003663","id":"490003663X","lat":51.35358,"lon":-0.31236,"name":"Barwell Business Park","parentId":"490G00003663","stationId":"490G00003663","stopLetter":"U","topMostParentId":"490G00003663"},{"icsId":"1009048","id":"490009048C","lat":51.355749,"lon":-0.311864,"name":"Garrison Lane","parentId":"490G00009048","stationId":"490G00009048","stopLetter":"C","topMostParentId":"490G00009048"},{"icsId":"1005116","id":"490005116E","lat":51.356184,"lon":-0.309564,"name":"Chessington School","parentId":"490G00005116","stationId":"490G00005116","stopLetter":"E","topMostParentId":"490G00005116"},{"icsId":"1001062","id":"490001062E","lat":51.356473,"lon":-0.307773,"name":"Chessington South Station","parentId":"490G01062W","stationId":"490G01062W","stopLetter":"A","topMostParentId":"910GCHSSS"},{"icsId":"1011540","id":"490011540F","lat":51.357979,"lon":-0.303078,"name":"Reynolds Avenue","parentId":"490G00011540","stationId":"490G00011540","stopLetter":"F","topMostParentId":"490G00011540"},{"icsId":"1005115","id":"490005115E","lat":51.358797,"lon":-0.299342,"name":"Church Lane","parentId":"490G00005115","stationId":"490G00005115","stopLetter":"P","topMostParentId":"490G00005115"},{"icsId":"1005593","id":"490005593N","lat":51.359378,"lon":-0.295399,"name":"Copt Gilders","parentId":"490G00005593","stationId":"490G00005593","stopLetter":"R","topMostParentId":"490G00005593"},{"icsId":"1003562","id":"490003562E","lat":51.36239,"lon":-0.291696,"name":"Moor Lane","parentId":"490G00003562","stationId":"490G00003562","stopLetter":"E","topMostParentId":"490G00003562"},{"icsId":"1013267","id":"490013267W","lat":51.363655,"lon":-0.29705,"name":"Church Rise","parentId":"490G00013267","stationId":"490G00013267","stopLetter":"F","topMostParentId":"490G00013267"},{"icsId":"1001061","id":"490001061T","lat":51.363401,"lon":-0.300579,"name":"Chessington North Station","parentId":"490G01061S","stationId":"490G01061S","stopLetter":"T","topMostParentId":"910GCHSSN"},{"icsId":"1005117","id":"490005117V","lat":51.362952,"lon":-0.304345,"name":"Parbury Rise","parentId":"490G00005117","stationId":"490G00005117","stopLetter":"V","topMostParentId":"490G00005117"},{"icsId":"1009615","id":"490009615P","lat":51.363918,"lon":-0.30836,"name":"Mansfield Road","parentId":"490G00009615","stationId":"490G00009615","stopLetter":"P","topMostParentId":"490G00009615"},{"icsId":"1013597","id":"490013597N","lat":51.36608,"lon":-0.307347,"name":"Holmwood Road","parentId":"490G00013597","stationId":"490G00013597","stopLetter":"W","topMostParentId":"490G00013597"},{"icsId":"1008338","id":"490008338N","lat":51.36803,"lon":-0.306628,"name":"Hook Parade","parentId":"490G00008338","stationId":"490G00008338","stopLetter":"HL","topMostParentId":"490G00008338"},{"icsId":"1013474","id":"490013474N","lat":51.371023,"lon":-0.3059,"name":"The North Star","parentId":"490G00013474","stationId":"490G00013474","stopLetter":"HM","topMostParentId":"490G00013474"},{"icsId":"1006501","id":"490006501N","lat":51.373649,"lon":-0.304711,"name":"Elmcroft Drive","parentId":"490G00006501","stationId":"490G00006501","stopLetter":"HN","topMostParentId":"490G00006501"},{"icsId":"1007205","id":"490007205N","lat":51.376056,"lon":-0.303832,"name":"Southborough High School","parentId":"490G00007205","stationId":"490G00007205","stopLetter":"HP","topMostParentId":"490G00007205"},{"icsId":"1013628","id":"490013628N","lat":51.379305,"lon":-0.302217,"name":"Thornhill Road","parentId":"490G00013628","stationId":"490G00013628","stopLetter":"HQ","topMostParentId":"490G00013628"},{"icsId":"1019714","id":"490013457N","lat":51.382433,"lon":-0.300866,"name":"The Maypole","parentId":"490G00019714","stationId":"490G00019714","stopLetter":"HR","topMostParentId":"490G00019714"},{"icsId":"1008949","id":"490008949N","lat":51.386101,"lon":-0.300773,"name":"Langley Avenue","parentId":"490G00008949","stationId":"490G00008949","stopLetter":"SA","topMostParentId":"490G00008949"},{"icsId":"1010075","id":"490010075N","lat":51.388096,"lon":-0.303186,"name":"Mountcombe Close","parentId":"490G00010075","stationId":"490G00010075","stopLetter":"SB","topMostParentId":"490G00010075"},{"icsId":"1009395","id":"490009395N","lat":51.390426,"lon":-0.307627,"name":"Lovelace Gardens","parentId":"490G00009395","stationId":"490G00009395","stopLetter":"SC","topMostParentId":"490G00009395"},{"icsId":"1013036","id":"490013036H","lat":51.391601,"lon":-0.308647,"name":"Surbiton Sainsbury's","parentId":"490G00013036","stationId":"490G00013036","stopLetter":"NA","topMostParentId":"490G00013036"},{"icsId":"1001285","id":"490001285C","lat":51.392913,"lon":-0.305422,"name":"Surbiton Station","parentId":"490G01285C","stationId":"490G01285C","stopLetter":"NB","topMostParentId":"910GSURBITN"},{"icsId":"1019769","id":"490015165A","lat":51.393908,"lon":-0.304624,"name":"Claremont Road / Surbiton Station","parentId":"490G000949","stationId":"490G000949","stopLetter":"NC","topMostParentId":"490G000949"},{"icsId":"1013315","id":"490013315N","lat":51.396266,"lon":-0.304148,"name":"The Crescent","parentId":"490G00013315","stationId":"490G00013315","stopLetter":"ND","topMostParentId":"490G00013315"},{"icsId":"1009627","id":"490009627N","lat":51.398611,"lon":-0.304579,"name":"Maple Road","parentId":"490G00009627","stationId":"490G00009627","stopLetter":"D","topMostParentId":"490G00009627"},{"icsId":"1013035","id":"490013035N","lat":51.401466,"lon":-0.304272,"name":"Surbiton Road / Penrhyn Road","parentId":"490G00013035","stationId":"490G00013035","stopLetter":"UE","topMostParentId":"490G00013035"},{"icsId":"1008830","id":"490008830N","lat":51.40307,"lon":-0.304529,"name":"Kingston University / County Hall","parentId":"490G00008830","stationId":"490G00008830","stopLetter":"UF","topMostParentId":"490G00008830"},{"icsId":"1005498","id":"490005498N","lat":51.406212,"lon":-0.304169,"name":"Kingston Crown Court / Kingston College","parentId":"490G00005498","stationId":"490G00005498","stopLetter":"UJ","topMostParentId":"490G00005498"},{"icsId":"1004478","id":"490004478G","lat":51.408508,"lon":-0.303739,"name":"Brook Street","parentId":"490G00004478","stationId":"490G00004478","stopLetter":"G","topMostParentId":"490G00004478"},{"icsId":"1006412","id":"490006412E3","lat":51.410457,"lon":-0.302358,"name":"Eden Street","parentId":"490G00006412","stationId":"490G00006412","stopLetter":"E3","topMostParentId":"490G00006412"},{"icsId":"1005800","id":"490005800A2","lat":51.412366,"lon":-0.298807,"name":"Cromwell Road Bus Station","parentId":"490G000476","stationId":"490G000476","stopLetter":"A2","topMostParentId":"490G000476"}]}]}