{"direction":"outbound","lineId":"75","lineName":"75","mode":"bus","stopPointSequences":[{"stopPoint":[{"icsId":"1001177","id":"490001177Z","lat":51.464228,"lon":-0.012547,"name":"Lewisham Station","parentId":"490GA00005","stationId":"490GA00005","stopLetter":"B","topMostParentId":"HUBLEW","zone":"2+3"},{"icsId":"1009105","id":"490009110W","lat":51.460808,"lon":-0.010781,"name":"Lewisham Centre","parentId":"490G00009105","stationId":"490G00009105","stopLetter":"W","topMostParentId":"490G00009105"},{"icsId":"1010038","id":"490010038Y","lat":51.458913,"lon":-0.012015,"name":"Morley Road","parentId":"490G00010038","stationId":"490G00010038","stopLetter":"Y","topMostParentId":"490G00010038"},{"icsId":"1009111","id":"490009111HN","lat":51.456697,"lon":-0.013897,"name":"Lewisham Fire Station","parentId":"490G00009111","stationId":"490G00009111","stopLetter":"HN","topMostParentId":"490G00009111"},{"icsId":"1009113","id":"490009113S","lat":51.454268,"lon":-0.015974,"name":"Lewisham Park","parentId":"490G00009113","stationId":"490G00009113","stopLetter":"HP","topMostParentId":"490G00009113"},{"icsId":"1009109","id":"490009109S","lat":51.452888,"lon":-0.016278,"name":"Lewisham Hospital","parentId":"490G00009109","stationId":"490G00009109","stopLetter":"HR","topMostParentId":"490G00009109"},{"icsId":"1000914","id":"490007163HS","lat":51.451197,"lon":-0.016784,"name":"Mount Pleasant Road","parentId":"490G000231","stationId":"490G000231","stopLetter":"HS","topMostParentId":"490G000231"},{"icsId":"1011703","id":"490011703O","lat":51.44807,"lon":-0.017423,"name":"Rosenthal Road","parentId":"490G00011703","stationId":"490G00011703","stopLetter":"G","topMostParentId":"490G00011703"},{"icsId":"1013282","id":"490013282C","lat":51.445552,"lon":-0.01959,"name":"The Catford Centre","parentId":"490G00013282","stationId":"490G00013282","stopLetter":"C","topMostParentId":"490G00013282"},{"icsId":"1009117","id":"490009117T","lat":51.444758,"lon":-0.02102,"name":"Catford Road / Lewisham Town Hall","parentId":"490G00009117","stationId":"490G00009117","stopLetter":"T","topMostParentId":"490G00009117"},{"icsId":"1004862","id":"490004862R","lat":51.444424,"lon":-0.024114,"name":"Catford & Catford Bridge Stations","parentId":"490G000444","stationId":"490G000444","stopLetter":"R","topMostParentId":"490G000444"},{"icsId":"1003812","id":"490003812W","lat":51.441016,"lon":-0.028952,"name":"Beechfield Road","parentId":"490G00003812","stationId":"490G00003812","stopLetter":"W","topMostParentId":"490G00003812"},{"icsId":"1014006","id":"490014006W","lat":51.438978,"lon":-0.033975,"name":"Vancouver Road","parentId":"490G00014006","stationId":"490G00014006","stopLetter":"U","topMostParentId":"490G00014006"},{"icsId":"1008716","id":"490008716W","lat":51.436808,"lon":-0.039709,"name":"Kilmorie Road","parentId":"490G00008716","stationId":"490G00008716","stopLetter":"V","topMostParentId":"490G00008716"},{"icsId":"1012145","id":"490012145W","lat":51.435184,"lon":-0.044253,"name":"Siddons Road","parentId":"490G00012145","stationId":"490G00012145","stopLetter":"->W","topMostParentId":"490G00012145"},{"icsId":"1008481","id":"490008481S","lat":51.434166,"lon":-0.046267,"name":"Inglemere Road","parentId":"490G00008481","stationId":"490G00008481","stopLetter":"->S","topMostParentId":"490G00008481"},{"icsId":"1005920","id":"490005920S","lat":51.43185,"lon":-0.046021,"name":"Dacres Road","parentId":"490G00005920","stationId":"490G00005920","stopLetter":"X","topMostParentId":"490G00005920"},{"icsId":"1004593","id":"490004593L","lat":51.429062,"lon":-0.046514,"name":"Burghill Road","parentId":"490G00004593","stationId":"490G00004593","stopLetter":"L","topMostParentId":"490G00004593"},{"icsId":"1006308","id":"490006308M","lat":51.42615,"lon":-0.048796,"name":"Earlsthorpe Road","parentId":"490G00006308","stationId":"490G00006308","stopLetter":"M","topMostParentId":"490G00006308"},{"icsId":"1010226","id":"490010226H","lat":51.426154,"lon":-0.052276,"name":"Newlands Park","parentId":"490G000676","stationId":"490G000676","stopLetter":"H","topMostParentId":"490G000676"},{"icsId":"1012963","id":"490012963S","lat":51.42236,"lon":-0.051805,"name":"Studland Road","parentId":"490G00012963","stationId":"490G00012963","stopLetter":"U","topMostParentId":"490G00012963"},{"icsId":"1001224","id":"490001224B","lat":51.419508,"lon":-0.05276,"name":"Penge East Station","parentId":"490G01224A","stationId":"490G01224A","stopLetter":"V","topMostParentId":"910GPNGEE"},{"icsId":"1010908","id":"490010908S","lat":51.418029,"lon":-0.051428,"name":"Penge Lane","parentId":"490G00010908","stationId":"490G00010908","stopLetter":"U","topMostParentId":"490G00010908"},{"icsId":"1010746","id":"490010746W","lat":51.415134,"lon":-0.048819,"name":"Parish Lane","parentId":"490G00010746","stationId":"490G00010746","stopLetter":"N","topMostParentId":"490G00010746"},{"icsId":"1015419","id":"490015419H","lat":51.413323,"lon":-0.052347,"name":"Penge / Pawleyne Arms","parentId":"490G00015419","stationId":"490G00015419","stopLetter":"H","topMostParentId":"490G00015419"},{"icsId":"1003494","id":"490003494W","lat":51.411564,"lon":-0.054766,"name":"Avenue Road","parentId":"490G00003494","stationId":"490G00003494","stopLetter":"J","topMostParentId":"490G00003494"},{"icsId":"1003317","id":"490003317AJ","lat":51.40902,"lon":-0.058627,"name":"Anerley Road / Oak Grove Road","parentId":"490G00003317","stationId":"490G00003317","stopLetter":"K","topMostParentId":"490G00003317"},{"icsId":"1015130","id":"490015130AN","lat":51.408065,"lon":-0.060652,"name":"Anerley Road / Worbeck Road","parentId":"490G00015130","stationId":"490G00015130","stopLetter":"L","topMostParentId":"490G00015130"},{"icsId":"1003318","id":"490003318AV","lat":51.406753,"lon":-0.063425,"name":"Anerley / The Mitre","parentId":"490G00003318","stationId":"490G00003318","stopLetter":"M","topMostParentId":"490G00003318"},{"icsId":"1006061","id":"490006061W","lat":51.405445,"lon":-0.06591,"name":"Derwent Road","parentId":"490G00006061","stationId":"490G00006061","stopLetter":"N","topMostParentId":"490G00006061"},{"icsId":"1011984","id":"490011984W","lat":51.403657,"lon":-0.068732,"name":"Selby Road","parentId":"490G00011984","stationId":"490G00011984","stopLetter":"P","topMostParentId":"490G00011984"},{"icsId":"1013379","id":"490013379S","lat":51.401783,"lon":-0.071269,"name":"Sunnybank","parentId":"490G00013379","stationId":"490G00013379","stopLetter":"->S","topMostParentId":"490G00013379"},{"icsId":"1011128","id":"490011128M","lat":51.40022,"lon":-0.073549,"name":"Portland Road","parentId":"490G000710","stationId":"490G000710","stopLetter":"M","topMostParentId":"490G000710"},{"icsId":"1012320","id":"490012320A","lat":51.397782,"lon":-0.077892,"name":"South Norwood Clock Tower","parentId":"490G00012320","stationId":"490G00012320","stopLetter":"A","topMostParentId":"490G00012320"},{"icsId":"1010805","id":"490010805W","lat":51.396963,"lon":-0.080586,"name":"Selhurst Road / Park Road","parentId":"490G00010805","stationId":"490G00010805","stopLetter":"->W","topMostParentId":"490G00010805"},{"icsId":"1015286","id":"490015286W2","lat":51.395946,"lon":-0.083302,"name":"Clifton Road","parentId":"490G00015286","stationId":"490G00015286","topMostParentId":"490G00015286"},{"icsId":"1008038","id":"490008038W","lat":51.394087,"lon":-0.086197,"name":"Heavers Farm Centre","parentId":"490G00008038","stationId":"490G00008038","stopLetter":"A","topMostParentId":"490G00008038"},{"icsId":"1001245","id":"490001245W","lat":51.391623,"lon":-0.087838,"name":"Selhurst Station","parentId":"490G01245N","stationId":"490G01245N","stopLetter":"B","topMostParentId":"910GSELHRST"},{"icsId":"1013549","id":"490013549S","lat":51.389454,"lon":-0.088834,"name":"Selhurst New Road","parentId":"490G00013549","stationId":"490G00013549","stopLetter":"C","topMostParentId":"490G00013549"},{"icsId":"1003706","id":"490003706W","lat":51.388274,"lon":-0.092563,"name":"Beaconsfield Road","parentId":"490G00003706","stationId":"490G00003706","stopLetter":"D","topMostParentId":"490G00003706"},{"icsId":"1010343","id":"490010343W","lat":51.387517,"lon":-0.095239,"name":"Windmill Road","parentId":"490G00010343","stationId":"490G00010343","stopLetter":"E","topMostParentId":"490G00010343"},{"icsId":"1019785","id":"490013376S","lat":51.385757,"lon":-0.09708,"name":"Cromwell Road","parentId":"490G00019785","stationId":"490G00019785","stopLetter":"H","topMostParentId":"490G00019785"},{"icsId":"1008271","id":"490015451S","lat":51.383277,"lon":-0.09826,"name":"Hogarth Crescent","parentId":"490G00008271","stationId":"490G00008271","stopLetter":"R","topMostParentId":"490G00008271"},{"icsId":"1012794","id":"490012794W10","lat":51.380214,"lon":-0.099609,"name":"St Mary's Church / West Croydon","parentId":"490G00012794","stationId":"490G00012794","stopLetter":"WG","topMostParentId":"490G00012794"},{"icsId":"1014614","id":"490014614E11","lat":51.376969,"lon":-0.098594,"name":"Whitgift Centre","parentId":"490G00014614","stationId":"490G00014614","stopLetter":"WJ","topMostParentId":"490G00014614"},{"icsId":"1006706","id":"490006706C12","lat":51.372778,"lon":-0.096353,"name":"Fairfield Halls","parentId":"490G00006706","stationId":"490G00006706","stopLetter":"Z2","topMostParentId":"490G00006706"}]}]}