{"direction":"outbound","lineId":"8","lineName":"8","mode":"bus","stopPointSequences":[{"stopPoint":[{"icsId":"1004206","id":"490004215M","lat":51.52895,"lon":-0.016881,"name":"Bow Church","parentId":"490G000421","stationId":"490G000421","stopLetter":"M","topMostParentId":"490G000421"},{"icsId":"1011654","id":"490011654N","lat":51.533296,"lon":-0.026107,"name":"Roman Road Market","parentId":"490G00011654","stationId":"490G00011654","stopLetter":"OA","topMostParentId":"490G00011654"},{"icsId":"1010552","id":"490010552N","lat":51.53543,"lon":-0.027861,"name":"Old Ford Road","parentId":"490G00010552","stationId":"490G00010552","stopLetter":"OB","topMostParentId":"490G00010552"},{"icsId":"1010561","id":"490010561W","lat":51.535736,"lon":-0.028943,"name":"Parnell Road","parentId":"490G00010561","stationId":"490G00010561","stopLetter":"OC","topMostParentId":"490G00010561"},{"icsId":"1012461","id":"490012461S","lat":51.53462,"lon":-0.033764,"name":"Alice Lane","parentId":"490G00012461","stationId":"490G00012461","stopLetter":"A","topMostParentId":"490G00012461"},{"icsId":"1006904","id":"490006904W","lat":51.532241,"lon":-0.03293,"name":"Ford Road","parentId":"490G00006904","stationId":"490G00006904","stopLetter":"B","topMostParentId":"490G00006904"},{"icsId":"1009786","id":"490009786W","lat":51.531649,"lon":-0.036228,"name":"Medway Road","parentId":"490G00009786","stationId":"490G00009786","stopLetter":"C","topMostParentId":"490G00009786"},{"icsId":"1007914","id":"490007914W","lat":51.530529,"lon":-0.041294,"name":"Haverfield Green / Grove Road","parentId":"490G00007914","stationId":"490G00007914","stopLetter":"B","topMostParentId":"490G00007914"},{"icsId":"1004144","id":"490012204W","lat":51.529344,"lon":-0.04629,"name":"Bonner Street","parentId":"490G00004144","stationId":"490G00004144","stopLetter":"HD","topMostParentId":"490G00004144"},{"icsId":"1019079","id":"490004144W","lat":51.528645,"lon":-0.048583,"name":"Morpeth Street","parentId":"490G00019079","stationId":"490G00019079","stopLetter":"HE","topMostParentId":"490G00019079"},{"icsId":"1007242","id":"490007242W","lat":51.528122,"lon":-0.050119,"name":"Globe Road","parentId":"490G00007242","stationId":"490G00007242","stopLetter":"HF","topMostParentId":"490G00007242"},{"icsId":"1000022","id":"490000022B","lat":51.527404,"lon":-0.054547,"name":"Bethnal Green Station","parentId":"490G00022B","stationId":"490G00022B","stopLetter":"B","topMostParentId":"940GZZLUBLG","zone":"2"},{"icsId":"1014721","id":"490014721E","lat":51.527049,"lon":-0.058642,"name":"Wilmot Street","parentId":"490G00014721","stationId":"490G00014721","stopLetter":"E","topMostParentId":"490G00014721"},{"icsId":"1003638","id":"490003638W","lat":51.526157,"lon":-0.066695,"name":"Barnet Grove","parentId":"490G00003638","stationId":"490G00003638","stopLetter":"SD","topMostParentId":"490G00003638"},{"icsId":"1004313","id":"490004313SB","lat":51.525148,"lon":-0.070919,"name":"Brick Lane","parentId":"490G00004313","stationId":"490G00004313","stopLetter":"SB","topMostParentId":"490G00004313"},{"icsId":"1001571","id":"490006398K","lat":51.523576,"lon":-0.076002,"name":"Shoreditch High Street Station","parentId":"490G06398K","stationId":"490G06398K","stopLetter":"K","topMostParentId":"910GSHRDHST"},{"icsId":"1005524","id":"490005524D","lat":51.52193,"lon":-0.078147,"name":"Commercial Street / Worship Street","parentId":"490G00005524","stationId":"490G00005524","stopLetter":"D","topMostParentId":"490G00005524"},{"icsId":"1012391","id":"490012391S","lat":51.519785,"lon":-0.078972,"name":"Primrose Street","parentId":"490G00012391","stationId":"490G00012391","stopLetter":"J","topMostParentId":"490G00012391"},{"icsId":"1000138","id":"490000138L","lat":51.517957,"lon":-0.079914,"name":"Liverpool Street Station","parentId":"490G00138G","stationId":"490G00138G","stopLetter":"L","topMostParentId":"HUBLST","zone":"1"},{"icsId":"1004043","id":"490004043S","lat":51.515618,"lon":-0.082016,"name":"Wormwood Street","parentId":"490G00004043","stationId":"490G00004043","stopLetter":"Y","topMostParentId":"490G00004043"},{"icsId":"1010527","id":"490010527W","lat":51.51413,"lon":-0.085624,"name":"Old Broad Street","parentId":"490G00010527","stationId":"490G00010527","stopLetter":"LL","topMostParentId":"490G00010527"},{"icsId":"1007596","id":"490007596L","lat":51.513593,"lon":-0.091296,"name":"Poultry / Bank Station","parentId":"490G00007596","stationId":"490G00007596","stopLetter":"L","topMostParentId":"490G00007596"},{"icsId":"1015124","id":"490015124Z","lat":51.514193,"lon":-0.095047,"name":"Bread Street","parentId":"490G000861","stationId":"490G000861","stopLetter":"SN","topMostParentId":"490G000861"},{"icsId":"1000225","id":"490000225T","lat":51.515257,"lon":-0.098505,"name":"St Paul's Station","parentId":"490G00225S","stationId":"490G00225S","stopLetter":"SQ","topMostParentId":"940GZZLUSPU","zone":"1"},{"icsId":"1001067","id":"490001067R","lat":51.516479,"lon":-0.102907,"name":"City Thameslink Station","parentId":"490G01067Q","stationId":"490G01067Q","stopLetter":"HK","topMostParentId":"910GCTMSLNK"},{"icsId":"1015096","id":"490015096L","lat":51.517535,"lon":-0.10651,"name":"Holborn Circus","parentId":"490G00015096","stationId":"490G00015096","stopLetter":"L","topMostParentId":"490G00015096"},{"icsId":"1008275","id":"490008275G","lat":51.517769,"lon":-0.108749,"name":"Holborn Circus / Fetter Lane","parentId":"490G00008275","stationId":"490G00008275","stopLetter":"G","topMostParentId":"490G00008275"},{"icsId":"1000044","id":"490000044F","lat":51.518166,"lon":-0.112177,"name":"Chancery Lane Station","parentId":"490G00044E","stationId":"490G00044E","stopLetter":"F","topMostParentId":"940GZZLUCHL","zone":"1"},{"icsId":"1004514","id":"490004514W","lat":51.518099,"lon":-0.114731,"name":"Brownlow Street","parentId":"490G00004514","stationId":"490G00004514","stopLetter":"R","topMostParentId":"490G00004514"},{"icsId":"1000112","id":"490015239K","lat":51.517674,"lon":-0.118482,"name":"Holborn Station","parentId":"490G15239K","stationId":"490G15239K","stopLetter":"K","topMostParentId":"940GZZLUHBN","zone":"1"},{"icsId":"1008166","id":"490008166Q","lat":51.517407,"lon":-0.121477,"name":"High Holborn","parentId":"490G000595","stationId":"490G000595","stopLetter":"Q","topMostParentId":"490G000595"},{"icsId":"1006203","id":"490006203RA","lat":51.516366,"lon":-0.12384,"name":"Drury Lane","parentId":"490G00006203","stationId":"490G00006203","stopLetter":"S","topMostParentId":"490G00006203"},{"icsId":"1023076","id":"490023076W","lat":51.515558,"lon":-0.127318,"name":"St Giles High Street","parentId":"490G00023076","stationId":"490G00023076","stopLetter":"->W","topMostParentId":"490G00023076"}]}]}