{"direction":"outbound","lineId":"81","lineName":"81","mode":"bus","stopPointSequences":[{"stopPoint":[{"icsId":"1000952","id":"03700521","lat":51.511188,"lon":-0.592973,"name":"Slough Bus Station","parentId":"037G0521","stationId":"037G0521","stopLetter":"1","topMostParentId":"910GSLOUGH"},{"icsId":"1014779","id":"03700330","lat":51.509171,"lon":-0.594274,"name":"Queensmere Centre","parentId":"037G0330","stationId":"037G0330","stopLetter":"P","topMostParentId":"037G0330"},{"icsId":"1010841","id":"03700347","lat":51.507353,"lon":-0.591174,"name":"Herschel Street","stopLetter":"N","topMostParentId":"03700347"},{"icsId":"1003272","id":"03700344","lat":51.50776,"lon":-0.588338,"name":"Observatory Centre","stopLetter":"M","topMostParentId":"03700344"},{"icsId":"1014541","id":"03700345","lat":51.507477,"lon":-0.586473,"name":"Wexham Road","stopLetter":"L","topMostParentId":"03700345"},{"icsId":"1019657","id":"03700309","lat":51.506755,"lon":-0.578859,"name":"Uxbridge Road Sainsbury's","parentId":"037G0309","stationId":"037G0309","topMostParentId":"037G0309"},{"icsId":"1008957","id":"03700074","lat":51.504971,"lon":-0.573352,"name":"St Bernards Convent","parentId":"037G0139","stationId":"037G0139","topMostParentId":"037G0139"},{"icsId":"1008604","id":"03700077","lat":51.502713,"lon":-0.568149,"name":"Kaywood Close","parentId":"037G0076","stationId":"037G0076","topMostParentId":"037G0076"},{"icsId":"1013954","id":"03700079","lat":51.500557,"lon":-0.56388,"name":"Upton Court Road Junction","parentId":"037G0078","stationId":"037G0078","topMostParentId":"037G0078"},{"icsId":"1006189","id":"03700081","lat":51.499347,"lon":-0.559755,"name":"Drake Avenue","parentId":"037G0080","stationId":"037G0080","topMostParentId":"037G0080"},{"icsId":"1004915","id":"03700082","lat":51.497814,"lon":-0.556504,"name":"Cedar Way","parentId":"037G0082","stationId":"037G0082","topMostParentId":"037G0082"},{"icsId":"1006088","id":"03700085","lat":51.494857,"lon":-0.550101,"name":"Ditton Park Road","parentId":"037G0084","stationId":"037G0084","topMostParentId":"037G0084"},{"icsId":"1008188","id":"03700087","lat":51.493547,"lon":-0.546642,"name":"The Toby","parentId":"037G0086","stationId":"037G0086","topMostParentId":"037G0086"},{"icsId":"1013079","id":"03700089","lat":51.489688,"lon":-0.537114,"name":"Sutton Lane","parentId":"037G0089","stationId":"037G0089","topMostParentId":"037G0089"},{"icsId":"1005837","id":"03700156","lat":51.485604,"lon":-0.529798,"name":"Crown Meadow","parentId":"037G0155","stationId":"037G0155","topMostParentId":"037G0155"},{"icsId":"1008382","id":"03700157","lat":51.484428,"lon":-0.527863,"name":"Red Lion","parentId":"037G0157","stationId":"037G0157","topMostParentId":"037G0157"},{"icsId":"1005508","id":"03700160","lat":51.483604,"lon":-0.522417,"name":"Ye Olde George Inn","parentId":"037G0159","stationId":"037G0159","topMostParentId":"037G0159"},{"icsId":"1005469","id":"03700162","lat":51.480641,"lon":-0.51632,"name":"Coleridge Crescent West","parentId":"037G0162","stationId":"037G0162","topMostParentId":"037G0162"},{"icsId":"1012077","id":"03700165","lat":51.479754,"lon":-0.513051,"name":"Poyle Road Junction","parentId":"037G0164","stationId":"037G0164","topMostParentId":"037G0164"},{"icsId":"1007085","id":"03700167","lat":51.47938,"lon":-0.509809,"name":"Galleymead Road","parentId":"037G0167","stationId":"037G0167","topMostParentId":"037G0167"},{"icsId":"1010009","id":"490010009E","lat":51.479123,"lon":-0.499463,"name":"Moor Bridge","parentId":"490G00010009","stationId":"490G00010009","stopLetter":"D","topMostParentId":"490G00010009"},{"icsId":"1009308","id":"490009308E","lat":51.481422,"lon":-0.489465,"name":"The Square","parentId":"490G00009308","stationId":"490G00009308","stopLetter":"E","topMostParentId":"490G00009308"},{"icsId":"1008019","id":"490008019E","lat":51.481583,"lon":-0.481711,"name":"Heathrow Park Thistle Hotel","parentId":"490G00008019","stationId":"490G00008019","stopLetter":"F","topMostParentId":"490G00008019"},{"icsId":"1007897","id":"490007897E","lat":51.48182,"lon":-0.474373,"name":"Pinglestone Close","parentId":"490G00007897","stationId":"490G00007897","stopLetter":"G","topMostParentId":"490G00007897"},{"icsId":"1005530","id":"490005530E","lat":51.481538,"lon":-0.467873,"name":"Compass Centre","parentId":"490G00005530","stationId":"490G00005530","stopLetter":"BA","topMostParentId":"490G00005530"},{"icsId":"1010245","id":"490010245E","lat":51.481029,"lon":-0.461942,"name":"Newport Road","parentId":"490G00010245","stationId":"490G00010245","stopLetter":"BB","topMostParentId":"490G00010245"},{"icsId":"1012177","id":"490012177E","lat":51.481405,"lon":-0.455017,"name":"Sipson Way / Blunts Avenue","parentId":"490G00012177","stationId":"490G00012177","stopLetter":"BC","topMostParentId":"490G00012177"},{"icsId":"1012176","id":"490012176E","lat":51.481325,"lon":-0.448237,"name":"Nene Road","parentId":"490G00012176","stationId":"490G00012176","stopLetter":"BJ","topMostParentId":"490G00012176"},{"icsId":"1004139","id":"490004139E","lat":51.481172,"lon":-0.444843,"name":"Bolton's Lane","parentId":"490G00004139","stationId":"490G00004139","stopLetter":"BK","topMostParentId":"490G00004139"},{"icsId":"1010251","id":"490010251G","lat":51.480971,"lon":-0.43919,"name":"New Road","parentId":"490G00010251","stationId":"490G00010251","stopLetter":"D","topMostParentId":"490G00010251"},{"icsId":"1007811","id":"490007811C","lat":51.480745,"lon":-0.433092,"name":"Harlington Corner","parentId":"490G00007811","stationId":"490G00007811","stopLetter":"E","topMostParentId":"490G00007811"},{"icsId":"1015397","id":"490015397E","lat":51.480801,"lon":-0.426523,"name":"Nobel Drive","parentId":"490G00015397","stationId":"490G00015397","stopLetter":"F","topMostParentId":"490G00015397"},{"icsId":"1010677","id":"490010677W2","lat":51.481064,"lon":-0.422626,"name":"Oxford Avenue","parentId":"490G00010677","stationId":"490G00010677","stopLetter":"CA","topMostParentId":"490G00010677"},{"icsId":"1013596","id":"490013596E","lat":51.481313,"lon":-0.419737,"name":"Craneswater","parentId":"490G00013596","stationId":"490G00013596","stopLetter":"CB","topMostParentId":"490G00013596"},{"icsId":"1005704","id":"490005704E","lat":51.480085,"lon":-0.412031,"name":"Waye Avenue","parentId":"490G00005704","stationId":"490G00005704","stopLetter":"CC","topMostParentId":"490G00005704"},{"icsId":"1013235","id":"490013235E","lat":51.479535,"lon":-0.409962,"name":"The Avenue","parentId":"490G00013235","stationId":"490G00013235","stopLetter":"CD","topMostParentId":"490G00013235"},{"icsId":"1013495","id":"490013495E","lat":51.478195,"lon":-0.405314,"name":"The Parkway","parentId":"490G00013495","stationId":"490G00013495","stopLetter":"CE","topMostParentId":"490G00013495"},{"icsId":"1011470","id":"490011470E","lat":51.477032,"lon":-0.401136,"name":"Rectory Road","parentId":"490G00011470","stationId":"490G00011470","stopLetter":"CF","topMostParentId":"490G00011470"},{"icsId":"1015462","id":"490013776E1","lat":51.475914,"lon":-0.396956,"name":"Henlys Roundabout","parentId":"490G00015462","stationId":"490G00015462","stopLetter":"CH","topMostParentId":"490G00015462"},{"icsId":"1000391","id":"490007425E","lat":51.474448,"lon":-0.39106,"name":"Great West Road / Renfrew Road","parentId":"490G000040","stationId":"490G000040","stopLetter":"M","topMostParentId":"490G000040"},{"icsId":"1000118","id":"490000118A","lat":51.472944,"lon":-0.385656,"name":"Hounslow West Station","parentId":"490G00118B","stationId":"490G00118B","stopLetter":"A","topMostParentId":"940GZZLUHWT","zone":"5"},{"icsId":"1012458","id":"490014357E","lat":51.471179,"lon":-0.380895,"name":"St Paul's Church","parentId":"490G00012458","stationId":"490G00012458","stopLetter":"E","topMostParentId":"490G00012458"},{"icsId":"1006406","id":"490006406E","lat":51.469717,"lon":-0.376584,"name":"Wellington Road North","parentId":"490G00006406","stationId":"490G00006406","stopLetter":"F","topMostParentId":"490G00006406"},{"icsId":"1012454","id":"490005431E","lat":51.468967,"lon":-0.373126,"name":"St Michael & St Martin Church","parentId":"490G00012454","stationId":"490G00012454","stopLetter":"G","topMostParentId":"490G00012454"},{"icsId":"1013259","id":"490013259V","lat":51.467293,"lon":-0.366505,"name":"The Bell","parentId":"490G00013259","stationId":"490G00013259","stopLetter":"V","topMostParentId":"490G00013259"},{"icsId":"1013777","id":"490013777P","lat":51.467281,"lon":-0.363065,"name":"Treaty Centre","parentId":"490G00013777","stationId":"490G00013777","stopLetter":"P","topMostParentId":"490G00013777"},{"icsId":"1008399","id":"490008399K","lat":51.469449,"lon":-0.358006,"name":"Hounslow High Street","parentId":"490G00008399","stationId":"490G00008399","stopLetter":"K","topMostParentId":"490G00008399"},{"icsId":"1008392","id":"490008392Z1","lat":51.470928,"lon":-0.354454,"name":"Hounslow Bus Station","parentId":"490G000601","stationId":"490G000601","stopLetter":"Z1","topMostParentId":"490G000601"}]}]}