{"direction":"outbound","lineId":"83","lineName":"83","mode":"bus","stopPointSequences":[{"stopPoint":[{"icsId":"1000087","id":"490000087GH","lat":51.571917,"lon":-0.194053,"name":"Golders Green Station","parentId":"490G00087GB","stationId":"490G00087GB","stopLetter":"GH","topMostParentId":"940GZZLUGGN","zone":"3"},{"icsId":"1006838","id":"490006838GN","lat":51.571887,"lon":-0.196161,"name":"Finchley Road","parentId":"490G00006838","stationId":"490G00006838","stopLetter":"GN","topMostParentId":"490G00006838"},{"icsId":"1015322","id":"490015322GQ","lat":51.573784,"lon":-0.200877,"name":"Hoop Lane","parentId":"490G00015322","stationId":"490G00015322","stopLetter":"A","topMostParentId":"490G00015322"},{"icsId":"1014904","id":"490014904W","lat":51.575383,"lon":-0.203671,"name":"Woodstock Avenue","parentId":"490G00014904","stationId":"490G00014904","stopLetter":"B","topMostParentId":"490G00014904"},{"icsId":"1008157","id":"490008152W","lat":51.577372,"lon":-0.206696,"name":"Limes Avenue","parentId":"490G00008157","stationId":"490G00008157","stopLetter":"C","topMostParentId":"490G00008157"},{"icsId":"1007270","id":"490007270W","lat":51.580008,"lon":-0.209753,"name":"Golders Manor Drive","parentId":"490G00007270","stationId":"490G00007270","stopLetter":"D","topMostParentId":"490G00007270"},{"icsId":"1010331","id":"490010331W","lat":51.581626,"lon":-0.213225,"name":"North Circular Road","parentId":"490G00010331","stationId":"490G00010331","stopLetter":"E","topMostParentId":"490G00010331"},{"icsId":"1007464","id":"490007464N","lat":51.583427,"lon":-0.216402,"name":"Brent Street / Green Lane","parentId":"490G00007464","stationId":"490G00007464","stopLetter":"F","topMostParentId":"490G00007464"},{"icsId":"1004295","id":"490004295Z","lat":51.584165,"lon":-0.219996,"name":"Brent Green","parentId":"490G00004295","stationId":"490G00004295","stopLetter":"Z","topMostParentId":"490G00004295"},{"icsId":"1000106","id":"490000106B","lat":51.582841,"lon":-0.225172,"name":"Hendon Central Station","parentId":"490G00106A","stationId":"490G00106A","stopLetter":"B","topMostParentId":"940GZZLUHCL","zone":"3+4"},{"icsId":"1008060","id":"490008060C","lat":51.5826,"lon":-0.22827,"name":"Hendon Way","parentId":"490G000591","stationId":"490G000591","stopLetter":"C","topMostParentId":"490G000591"},{"icsId":"1003476","id":"490003476W","lat":51.582217,"lon":-0.233886,"name":"Audley Road","parentId":"490G00003476","stationId":"490G00003476","topMostParentId":"490G00003476"},{"icsId":"1001148","id":"490001148B","lat":51.580022,"lon":-0.237983,"name":"Hendon Station","parentId":"490G01148B","stationId":"490G01148B","stopLetter":"HE","topMostParentId":"910GHDON"},{"icsId":"1014470","id":"490014470N2","lat":51.578179,"lon":-0.24045,"name":"West Hendon Broadway","parentId":"490G00014470","stationId":"490G00014470","stopLetter":"HL","topMostParentId":"490G00014470"},{"icsId":"1014561","id":"490014561D","lat":51.579601,"lon":-0.242344,"name":"West Hendon Broadway / Herbert Road","parentId":"490G00014561","stationId":"490G00014561","stopLetter":"HM","topMostParentId":"490G00014561"},{"icsId":"1014471","id":"490014471N","lat":51.581993,"lon":-0.245355,"name":"Hendon Magistrates Court","parentId":"490G00014471","stationId":"490G00014471","stopLetter":"HP","topMostParentId":"490G00014471"},{"icsId":"1014469","id":"490014469W","lat":51.584103,"lon":-0.248723,"name":"Edgware Road / The Hyde","parentId":"490G00014469","stationId":"490G00014469","stopLetter":"HS","topMostParentId":"490G00014469"},{"icsId":"1012395","id":"490012395W","lat":51.582593,"lon":-0.252996,"name":"Springfield Gardens","parentId":"490G00012395","stationId":"490G00012395","stopLetter":"E","topMostParentId":"490G00012395"},{"icsId":"1013758","id":"490013758W","lat":51.582212,"lon":-0.257615,"name":"Townsend Lane","parentId":"490G00013758","stationId":"490G00013758","stopLetter":"F","topMostParentId":"490G00013758"},{"icsId":"1008761","id":"490008761S","lat":51.58204,"lon":-0.262413,"name":"Kingsbury Green","parentId":"490G00008761","stationId":"490G00008761","stopLetter":"K","topMostParentId":"490G00008761"},{"icsId":"1012201","id":"490012201S","lat":51.578097,"lon":-0.262694,"name":"Slough Lane","parentId":"490G00012201","stationId":"490G00012201","stopLetter":"L","topMostParentId":"490G00012201"},{"icsId":"1011327","id":"490011327S","lat":51.574719,"lon":-0.262317,"name":"Queensbury Road","parentId":"490G00011327","stationId":"490G00011327","stopLetter":"M","topMostParentId":"490G00011327"},{"icsId":"1009002","id":"490009002S","lat":51.57205,"lon":-0.262405,"name":"Lavender Avenue","parentId":"490G00009002","stationId":"490G00009002","stopLetter":"BL","topMostParentId":"490G00009002"},{"icsId":"1006005","id":"490006005S","lat":51.569082,"lon":-0.262951,"name":"Deanscroft Avenue","parentId":"490G00006005","stationId":"490G00006005","stopLetter":"BM","topMostParentId":"490G00006005"},{"icsId":"1015261","id":"490015261S","lat":51.566842,"lon":-0.263512,"name":"Tudor Gardens","parentId":"490G00015261","stationId":"490G00015261","stopLetter":"BN","topMostParentId":"490G00015261"},{"icsId":"1004051","id":"490004051W","lat":51.565654,"lon":-0.26653,"name":"Blackbird Cross","parentId":"490G00004051","stationId":"490G00004051","stopLetter":"BS","topMostParentId":"490G00004051"},{"icsId":"1004301","id":"490004331S","lat":51.565322,"lon":-0.275704,"name":"Lycee International / Kings Drive","parentId":"490G00004301","stationId":"490G00004301","stopLetter":"S","topMostParentId":"490G00004301"},{"icsId":"1000257","id":"490000257O","lat":51.563461,"lon":-0.27879,"name":"Wembley Park Station","parentId":"490G00257M","stationId":"490G00257M","stopLetter":"O","topMostParentId":"940GZZLUWYP","zone":"4"},{"icsId":"1007063","id":"490007063H","lat":51.560551,"lon":-0.283329,"name":"Fulton Road","parentId":"490G00007063","stationId":"490G00007063","stopLetter":"H","topMostParentId":"490G00007063"},{"icsId":"1014376","id":"490014376C","lat":51.557911,"lon":-0.285448,"name":"Lakeside Way","parentId":"490G00014376","stationId":"490G00014376","stopLetter":"C","topMostParentId":"490G00014376"},{"icsId":"1001320","id":"490001320A","lat":51.555592,"lon":-0.286098,"name":"Wembley Stadium Station","parentId":"490G01320B","stationId":"490G01320B","stopLetter":"SA","topMostParentId":"910GWEMBLSM"},{"icsId":"1005584","id":"490005584W1","lat":51.553646,"lon":-0.289575,"name":"Cecil Avenue","parentId":"490G00005584","stationId":"490G00005584","stopLetter":"SE","topMostParentId":"490G00005584"},{"icsId":"1014378","id":"490014378M","lat":51.553508,"lon":-0.291802,"name":"Arkelvin Academy / Park Lane","parentId":"490G00014378","stationId":"490G00014378","stopLetter":"ST","topMostParentId":"490G00014378"},{"icsId":"1000256","id":"490000256E","lat":51.552052,"lon":-0.298058,"name":"Wembley Central Station","parentId":"490G00256G","stationId":"490G00256G","stopLetter":"CT","topMostParentId":"HUBWMB","zone":"4"},{"icsId":"1006295","id":"490006295D","lat":51.550726,"lon":-0.298411,"name":"Chaplin Road","parentId":"490G00006295","stationId":"490G00006295","stopLetter":"CQ","topMostParentId":"490G00006295"},{"icsId":"1009488","id":"490009488S","lat":51.549161,"lon":-0.297748,"name":"Lyon Park Avenue","parentId":"490G00009488","stationId":"490G00009488","stopLetter":"->S","topMostParentId":"490G00009488"},{"icsId":"1006286","id":"490006286S","lat":51.54654,"lon":-0.297428,"name":"Eagle Road","parentId":"490G00006286","stationId":"490G00006286","stopLetter":"->S","topMostParentId":"490G00006286"},{"icsId":"1012548","id":"490012548S","lat":51.543541,"lon":-0.297136,"name":"Stanley Avenue","parentId":"490G00012548","stationId":"490G00012548","stopLetter":"T","topMostParentId":"490G00012548"},{"icsId":"1000005","id":"490000005A","lat":51.540546,"lon":-0.298935,"name":"Alperton Station","parentId":"490G00005N2","stationId":"490G00005N2","stopLetter":"A","topMostParentId":"940GZZLUALP","zone":"4"}]}]}