{"direction":"outbound","lineId":"85","lineName":"85","mode":"bus","stopPointSequences":[{"stopPoint":[{"icsId":"1000184","id":"490000184Z","lat":51.46792,"lon":-0.209306,"name":"Putney Bridge Station","parentId":"490G00184X","stationId":"490G00184X","stopLetter":"FC","topMostParentId":"940GZZLUPYB","zone":"2"},{"icsId":"1007281","id":"490015157T","lat":51.467814,"lon":-0.211786,"name":"Putney Bridge Stn  / Gonville Street","parentId":"490G000536","stationId":"490G000536","stopLetter":"FE","topMostParentId":"490G000536"},{"icsId":"1011278","id":"490011278R","lat":51.465334,"lon":-0.214302,"name":"St Mary's Church / Putney Pier","parentId":"490G00011278","stationId":"490G00011278","stopLetter":"R","topMostParentId":"490G00011278"},{"icsId":"1011289","id":"490011286L","lat":51.462718,"lon":-0.216117,"name":"Putney Exchange","parentId":"490G00011289","stationId":"490G00011289","stopLetter":"L","topMostParentId":"490G00011289"},{"icsId":"1001231","id":"490001231E","lat":51.461143,"lon":-0.216625,"name":"Putney Station","parentId":"490G01231E1","stationId":"490G01231E1","stopLetter":"E","topMostParentId":"910GPUTNEY"},{"icsId":"1009494","id":"490009494S","lat":51.455984,"lon":-0.219186,"name":"Lytton Grove","parentId":"490G00009494","stationId":"490G00009494","stopLetter":"P","topMostParentId":"490G00009494"},{"icsId":"1011285","id":"490011285W","lat":51.453303,"lon":-0.221421,"name":"Putney Heath / Green Man","parentId":"490G00011285","stationId":"490G00011285","stopLetter":"C","topMostParentId":"490G00011285"},{"icsId":"1007965","id":"490007965W","lat":51.452938,"lon":-0.226444,"name":"Hayward Gardens","parentId":"490G00007965","stationId":"490G00007965","stopLetter":"D","topMostParentId":"490G00007965"},{"icsId":"1006685","id":"490006685W","lat":51.452552,"lon":-0.228848,"name":"Exeter House","parentId":"490G00006685","stationId":"490G00006685","stopLetter":"E","topMostParentId":"490G00006685"},{"icsId":"1006150","id":"490006150W","lat":51.451418,"lon":-0.23475,"name":"Dover Park Drive","parentId":"490G00006150","stationId":"490G00006150","stopLetter":"J","topMostParentId":"490G00006150"},{"icsId":"1011640","id":"490011640K","lat":51.449763,"lon":-0.238944,"name":"Medfield Street","parentId":"490G00011640","stationId":"490G00011640","stopLetter":"K","topMostParentId":"490G00011640"},{"icsId":"1003134","id":"490003134M","lat":51.449349,"lon":-0.238931,"name":"Roehampton Lane / Danebury Avenue","parentId":"490G00003134","stationId":"490G00003134","stopLetter":"M","topMostParentId":"490G00003134"},{"icsId":"1009745","id":"490009745S","lat":51.448362,"lon":-0.236666,"name":"Mayfield Surgery","parentId":"490G00009745","stationId":"490G00009745","stopLetter":"Q","topMostParentId":"490G00009745"},{"icsId":"1014181","id":"490014181S","lat":51.445752,"lon":-0.234723,"name":"Wanborough Drive","parentId":"490G00014181","stationId":"490G00014181","stopLetter":"RS","topMostParentId":"490G00014181"},{"icsId":"1011292","id":"490011292W","lat":51.441808,"lon":-0.241566,"name":"Putney Vale Cemetery","parentId":"490G00011292","stationId":"490G00011292","stopLetter":"PT","topMostParentId":"490G00011292"},{"icsId":"1014489","id":"490014489W","lat":51.440821,"lon":-0.244065,"name":"West Lodge","parentId":"490G00014489","stationId":"490G00014489","stopLetter":"PU","topMostParentId":"490G00014489"},{"icsId":"1008832","id":"490008832S1","lat":51.438667,"lon":-0.247975,"name":"Roehampton Vale / Asda","parentId":"490G00008832","stationId":"490G00008832","stopLetter":"PC","topMostParentId":"490G00008832"},{"icsId":"1011644","id":"490011644W","lat":51.438149,"lon":-0.250628,"name":"Roehampton Vale Campus","parentId":"490G00011644","stationId":"490G00011644","topMostParentId":"490G00011644"},{"icsId":"1013535","id":"490013535S","lat":51.434378,"lon":-0.259505,"name":"Robin Hood Lane","parentId":"490G00013535","stationId":"490G00013535","stopLetter":"P","topMostParentId":"490G00013535"},{"icsId":"1014914","id":"490014914S","lat":51.432633,"lon":-0.263053,"name":"Woodview Close","parentId":"490G00014914","stationId":"490G00014914","stopLetter":"Q","topMostParentId":"490G00014914"},{"icsId":"1008831","id":"490008831S","lat":51.42935,"lon":-0.2685,"name":"Kingston University","parentId":"490G00008831","stationId":"490G00008831","stopLetter":"R","topMostParentId":"490G00008831"},{"icsId":"1007101","id":"490007101W","lat":51.427116,"lon":-0.272525,"name":"Galsworthy House","parentId":"490G00007101","stationId":"490G00007101","stopLetter":"S","topMostParentId":"490G00007101"},{"icsId":"1014239","id":"490014239S","lat":51.42456,"lon":-0.274837,"name":"Warren Road","parentId":"490G00014239","stationId":"490G00014239","stopLetter":"T","topMostParentId":"490G00014239"},{"icsId":"1011445","id":"490011445S","lat":51.421458,"lon":-0.277284,"name":"Ravenswood Court","parentId":"490G00011445","stationId":"490G00011445","stopLetter":"->S","topMostParentId":"490G00011445"},{"icsId":"1008825","id":"490008825S","lat":51.418807,"lon":-0.279253,"name":"George Road","parentId":"490G00008825","stationId":"490G00008825","stopLetter":"->S","topMostParentId":"490G00008825"},{"icsId":"1011351","id":"490011351NL","lat":51.416287,"lon":-0.283389,"name":"Queens Road / Kingston Hospital","parentId":"490G00011351","stationId":"490G00011351","stopLetter":"NL","topMostParentId":"490G00011351"},{"icsId":"1009558","id":"490009558S","lat":51.413178,"lon":-0.287819,"name":"Manor Gate Road","parentId":"490G00009558","stationId":"490G00009558","stopLetter":"NS","topMostParentId":"490G00009558"},{"icsId":"1018701","id":"4900018701W","lat":51.411747,"lon":-0.290246,"name":"Gordon Road","parentId":"490G00018701","stationId":"490G00018701","stopLetter":"NW","topMostParentId":"490G00018701"},{"icsId":"1010295","id":"490010295W","lat":51.410656,"lon":-0.29309,"name":"Norbiton Church","parentId":"490G00010295","stationId":"490G00010295","topMostParentId":"490G00010295"},{"icsId":"1013664","id":"490013664C2","lat":51.410548,"lon":-0.295568,"name":"Tiffin School / London Road","parentId":"490G00013664","stationId":"490G00013664","stopLetter":"C","topMostParentId":"490G00013664"},{"icsId":"1006412","id":"490006412D1","lat":51.410255,"lon":-0.302006,"name":"Eden Street","parentId":"490G00006412","stationId":"490G00006412","stopLetter":"D1","topMostParentId":"490G00006412"},{"icsId":"1006416","id":"490006412H","lat":51.408883,"lon":-0.304789,"name":"St James's Road","parentId":"490G00006416","stationId":"490G00006416","stopLetter":"H","topMostParentId":"490G00006416"},{"icsId":"1007595","id":"490007595J","lat":51.408842,"lon":-0.306329,"name":"Guildhall / Rose Theatre","parentId":"490G00007595","stationId":"490G00007595","stopLetter":"J","topMostParentId":"490G00007595"},{"icsId":"1008821","id":"490008821E","lat":51.40761,"lon":-0.306288,"name":"Kingston Hall Road","parentId":"490G00008821","stationId":"490G00008821","topMostParentId":"490G00008821"}]}]}