{"direction":"outbound","lineId":"9","lineName":"9","mode":"bus","stopPointSequences":[{"stopPoint":[{"icsId":"1003193","id":"490003193R","lat":51.5121,"lon":-0.116291,"name":"Aldwych / Somerset House","parentId":"490G000386","stationId":"490G000386","stopLetter":"R","topMostParentId":"490G000386"},{"icsId":"1011938","id":"490011938U","lat":51.510773,"lon":-0.120481,"name":"Savoy Street","parentId":"490G000737","stationId":"490G000737","stopLetter":"U","topMostParentId":"490G000737"},{"icsId":"1003112","id":"490003112J","lat":51.509674,"lon":-0.123193,"name":"Bedford Street","parentId":"490G00003112","stationId":"490G00003112","stopLetter":"J","topMostParentId":"490G00003112"},{"icsId":"1000045","id":"490013766H","lat":51.508435,"lon":-0.12552,"name":"Charing Cross Station","parentId":"490G00045","stationId":"490G00045","stopLetter":"H","topMostParentId":"HUBCHX","zone":"1"},{"icsId":"1013767","id":"490013767S","lat":51.507454,"lon":-0.129451,"name":"Trafalgar Square","parentId":"490G000804","stationId":"490G000804","stopLetter":"S","topMostParentId":"490G000804"},{"icsId":"1011516","id":"490011515Z","lat":51.508733,"lon":-0.134068,"name":"Regent Street / St James's","parentId":"490G00011516","stationId":"490G00011516","stopLetter":"Z","topMostParentId":"490G00011516"},{"icsId":"1000179","id":"490000179S","lat":51.509154,"lon":-0.13627,"name":"Piccadilly Circus","parentId":"490G00179B","stationId":"490G00179B","stopLetter":"S","topMostParentId":"940GZZLUPCC","zone":"1"},{"icsId":"1010526","id":"490010526G","lat":51.508095,"lon":-0.139801,"name":"Old Bond Street / Royal Academy","parentId":"490G00010526","stationId":"490G00010526","stopLetter":"G","topMostParentId":"490G00010526"},{"icsId":"1000093","id":"490000093PE","lat":51.506678,"lon":-0.142841,"name":"Green Park Station","parentId":"490G00093PE","stationId":"490G00093PE","stopLetter":"H","topMostParentId":"940GZZLUGPK","zone":"1"},{"icsId":"1007492","id":"490007492E","lat":51.503995,"lon":-0.147792,"name":"Green Park / Constitution Hill","parentId":"490G00007492","stationId":"490G00007492","stopLetter":"E","topMostParentId":"490G00007492"},{"icsId":"1000119","id":"490000119M","lat":51.502751,"lon":-0.153274,"name":"Hyde Park Corner Station","parentId":"490G00119A","stationId":"490G00119A","stopLetter":"M","topMostParentId":"940GZZLUHPC","zone":"1"},{"icsId":"1007853","id":"490000130KE","lat":51.501628,"lon":-0.161907,"name":"Knightsbridge Station  / Harrods","parentId":"490G000575","stationId":"490G000575","stopLetter":"KE","topMostParentId":"490G000575"},{"icsId":"1008875","id":"490011822W","lat":51.501701,"lon":-0.166039,"name":"Knightsbridge Barracks","parentId":"490G00008875","stationId":"490G00008875","stopLetter":"KF","topMostParentId":"490G00008875"},{"icsId":"1011198","id":"490011198W","lat":51.501842,"lon":-0.169304,"name":"Prince Of Wales Gate","parentId":"490G00011198","stationId":"490G00011198","stopLetter":"RA","topMostParentId":"490G00011198"},{"icsId":"1006691","id":"490006691W","lat":51.501761,"lon":-0.173313,"name":"Exhibition Road","parentId":"490G00006691","stationId":"490G00006691","stopLetter":"RB","topMostParentId":"490G00006691"},{"icsId":"1011750","id":"490011750W","lat":51.50146,"lon":-0.178843,"name":"Royal Albert Hall","parentId":"490G00011750","stationId":"490G00011750","stopLetter":"RC","topMostParentId":"490G00011750"},{"icsId":"1010728","id":"490010728W","lat":51.50147,"lon":-0.182949,"name":"Palace Gate","parentId":"490G00010728","stationId":"490G00010728","stopLetter":"RE","topMostParentId":"490G00010728"},{"icsId":"1011761","id":"490011761N","lat":51.502246,"lon":-0.18776,"name":"Kensington Palace","parentId":"490G00011761","stationId":"490G00011761","stopLetter":"N","topMostParentId":"490G00011761"},{"icsId":"1000110","id":"490000110F","lat":51.501349,"lon":-0.192003,"name":"High Street Kensington Station","parentId":"490G00110R","stationId":"490G00110R","stopLetter":"F","topMostParentId":"940GZZLUHSK","zone":"1"},{"icsId":"1010984","id":"490010984T","lat":51.499808,"lon":-0.196487,"name":"Phillimore Gardens","parentId":"490G00010984","stationId":"490G00010984","stopLetter":"T","topMostParentId":"490G00010984"},{"icsId":"1005528","id":"490005528X","lat":51.498772,"lon":-0.199279,"name":"The Design Museum","parentId":"490G00005528","stationId":"490G00005528","stopLetter":"X","topMostParentId":"490G00005528"},{"icsId":"1003106","id":"490003106W","lat":51.497528,"lon":-0.203175,"name":"Warwick Gardens","parentId":"490G00003106","stationId":"490G00003106","stopLetter":"Z","topMostParentId":"490G00003106"},{"icsId":"1000170","id":"490008652C","lat":51.496238,"lon":-0.20641,"name":"Kensington Olympia Station","parentId":"490G08652C","stationId":"490G08652C","stopLetter":"C","topMostParentId":"HUBKPA","zone":"2"},{"icsId":"1010357","id":"490010357B","lat":51.495227,"lon":-0.210901,"name":"North End Road","parentId":"490G00010357","stationId":"490G00010357","stopLetter":"E","topMostParentId":"490G00010357"},{"icsId":"1004455","id":"490004455BA","lat":51.493515,"lon":-0.215952,"name":"Brook Green","parentId":"490G00004455","stationId":"490G00004455","stopLetter":"F","topMostParentId":"490G00004455"},{"icsId":"1008997","id":"490008990Q","lat":51.493121,"lon":-0.219007,"name":"Latymer Court","parentId":"490G00008997","stationId":"490G00008997","stopLetter":"X","topMostParentId":"490G00008997"},{"icsId":"1007702","id":"490007704QA","lat":51.492983,"lon":-0.221793,"name":"Hammersmith Broadway","parentId":"490G000563","stationId":"490G000563","stopLetter":"Z4","topMostParentId":"490G000563"},{"icsId":"1007705","id":"490007705F","lat":51.492164,"lon":-0.223525,"name":"Hammersmith Bus Station","parentId":"490G000565","stationId":"490G000565","stopLetter":"E","topMostParentId":"HUBHMS"}]}]}