{"direction":"outbound","lineId":"92","lineName":"92","mode":"bus","stopPointSequences":[{"stopPoint":[{"icsId":"1006292","id":"490006292S","lat":51.507907,"lon":-0.347012,"name":"Ealing Hospital","parentId":"490G00006292","stationId":"490G00006292","stopLetter":"S","topMostParentId":"490G00006292"},{"icsId":"1012638","id":"490012638W","lat":51.508864,"lon":-0.349802,"name":"St Bernard's Gatehouse / Windmill Park","parentId":"490G00012638","stationId":"490G00012638","stopLetter":"UJ","topMostParentId":"490G00012638"},{"icsId":"1008498","id":"490008498E2","lat":51.509874,"lon":-0.357677,"name":"Iron Bridge","parentId":"490G00008498","stationId":"490G00008498","stopLetter":"UD","topMostParentId":"490G00008498"},{"icsId":"1014492","id":"490014492N","lat":51.512401,"lon":-0.35515,"name":"West Middlesex Golf Course","parentId":"490G00014492","stationId":"490G00014492","stopLetter":"UP","topMostParentId":"490G00014492"},{"icsId":"1007278","id":"490007278N","lat":51.517004,"lon":-0.355042,"name":"Golf Links Estate","parentId":"490G00007278","stationId":"490G00007278","stopLetter":"D","topMostParentId":"490G00007278"},{"icsId":"1014766","id":"490014766N","lat":51.519967,"lon":-0.354762,"name":"Windmill Lane","parentId":"490G00014766","stationId":"490G00014766","stopLetter":"E","topMostParentId":"490G00014766"},{"icsId":"1007447","id":"490007447N","lat":51.524517,"lon":-0.35346,"name":"Greenford Depot","parentId":"490G00007447","stationId":"490G00007447","stopLetter":"U","topMostParentId":"490G00007447"},{"icsId":"1007442","id":"490007441F","lat":51.528328,"lon":-0.352025,"name":"Ruislip Road East","parentId":"490G00007442","stationId":"490G00007442","stopLetter":"W","topMostParentId":"490G00007442"},{"icsId":"1005626","id":"490005626N","lat":51.531375,"lon":-0.350069,"name":"Costons Lane","parentId":"490G00005626","stationId":"490G00005626","stopLetter":"X","topMostParentId":"490G00005626"},{"icsId":"1005687","id":"490005687N","lat":51.535166,"lon":-0.347222,"name":"Cowgate Road","parentId":"490G00005687","stationId":"490G00005687","stopLetter":"EE","topMostParentId":"490G00005687"},{"icsId":"1008485","id":"490008485N","lat":51.537784,"lon":-0.345411,"name":"Ingram Way / Bridge Hotel","parentId":"490G00008485","stationId":"490G00008485","stopLetter":"GG","topMostParentId":"490G00008485"},{"icsId":"1013906","id":"490013906N","lat":51.539936,"lon":-0.344309,"name":"Uneeda Drive","parentId":"490G00013906","stationId":"490G00013906","stopLetter":"HH","topMostParentId":"490G00013906"},{"icsId":"1013518","id":"490000092W2","lat":51.5428,"lon":-0.345301,"name":"Rockware Avenue / Greenford Station","parentId":"490G000791","stationId":"490G000791","stopLetter":"JJ","topMostParentId":"490G000791"},{"icsId":"1013569","id":"490013569N","lat":51.545156,"lon":-0.345244,"name":"Auriol Drive","parentId":"490G00013569","stationId":"490G00013569","topMostParentId":"490G00013569"},{"icsId":"1005362","id":"490005362N","lat":51.548872,"lon":-0.344186,"name":"Clare Road","parentId":"490G00005362","stationId":"490G00005362","topMostParentId":"490G00005362"},{"icsId":"1010542","id":"490010542N","lat":51.55185,"lon":-0.339794,"name":"Oldfield Close","parentId":"490G00010542","stationId":"490G00010542","stopLetter":"B","topMostParentId":"490G00010542"},{"icsId":"1007078","id":"490007078N","lat":51.554839,"lon":-0.337551,"name":"Gainsboro Gardens","parentId":"490G00007078","stationId":"490G00007078","stopLetter":"C","topMostParentId":"490G00007078"},{"icsId":"1007079","id":"490000227A","lat":51.556054,"lon":-0.336338,"name":"Sudbury Hill Stn  / Horsenden Ave","parentId":"490G00007079","stationId":"490G00007079","stopLetter":"D","topMostParentId":"490G00007079"},{"icsId":"1001283","id":"490001283N","lat":51.557315,"lon":-0.335874,"name":"Sudbury Hill Station","parentId":"490G01283B","stationId":"490G01283B","stopLetter":"V","topMostParentId":"910GSDBRYHH"},{"icsId":"1013534","id":"490013534N","lat":51.559494,"lon":-0.334784,"name":"South Vale","parentId":"490G000792","stationId":"490G000792","stopLetter":"E","topMostParentId":"490G000792"},{"icsId":"1007863","id":"490007863N","lat":51.561146,"lon":-0.332675,"name":"Harrow Road","parentId":"490G00007863","stationId":"490G00007863","stopLetter":"F","topMostParentId":"490G00007863"},{"icsId":"1012977","id":"490012977E","lat":51.56096,"lon":-0.330345,"name":"Sudbury Court Drive","parentId":"490G00012977","stationId":"490G00012977","stopLetter":"J","topMostParentId":"490G00012977"},{"icsId":"1011234","id":"490011234E","lat":51.559178,"lon":-0.327092,"name":"Priory Avenue","parentId":"490G00011234","stationId":"490G00011234","stopLetter":"K","topMostParentId":"490G00011234"},{"icsId":"1009729","id":"490009729E","lat":51.557761,"lon":-0.322961,"name":"Maybank Avenue","parentId":"490G00009729","stationId":"490G00009729","stopLetter":"->E","topMostParentId":"490G00009729"},{"icsId":"1000440","id":"490005143E","lat":51.556512,"lon":-0.318636,"name":"Butler's Green / Chestnut Avenue","parentId":"490G000089","stationId":"490G000089","stopLetter":"->E","topMostParentId":"490G000089"},{"icsId":"1012984","id":"490012984L","lat":51.555439,"lon":-0.315949,"name":"Rugby Avenue","parentId":"490G000774","stationId":"490G000774","stopLetter":"L","topMostParentId":"490G000774"},{"icsId":"1001282","id":"490003597G","lat":51.553843,"lon":-0.314364,"name":"Sudbury & Harrow Road Station","parentId":"490G01282J","stationId":"490G01282J","stopLetter":"G","topMostParentId":"910GSDBRYHR"},{"icsId":"1013363","id":"490013363E","lat":51.551894,"lon":-0.310166,"name":"Chaplin Road","parentId":"490G00013363","stationId":"490G00013363","stopLetter":"HA","topMostParentId":"490G00013363"},{"icsId":"1005583","id":"490005583E","lat":51.552096,"lon":-0.305442,"name":"Copland Avenue","parentId":"490G00005583","stationId":"490G00005583","stopLetter":"HB","topMostParentId":"490G00005583"},{"icsId":"1006299","id":"490006299A","lat":51.552226,"lon":-0.300764,"name":"Ealing Road","parentId":"490G00006299","stationId":"490G00006299","stopLetter":"CX","topMostParentId":"490G00006299"},{"icsId":"1000256","id":"490000256G","lat":51.552841,"lon":-0.296038,"name":"Wembley Central Station","parentId":"490G00256G","stationId":"490G00256G","stopLetter":"CM","topMostParentId":"HUBWMB","zone":"4"},{"icsId":"1005588","id":"490005584K","lat":51.553657,"lon":-0.292142,"name":"Arkelvin Academy / Park Lane","parentId":"490G00005588","stationId":"490G00005588","stopLetter":"SG","topMostParentId":"490G00005588"},{"icsId":"1014387","id":"490014387E1","lat":51.553649,"lon":-0.288565,"name":"Wembley Triangle","parentId":"490G00014387","stationId":"490G00014387","stopLetter":"SM","topMostParentId":"490G00014387"},{"icsId":"1001320","id":"490001320B","lat":51.555212,"lon":-0.286545,"name":"Wembley Stadium Station","parentId":"490G01320B","stationId":"490G01320B","stopLetter":"SD","topMostParentId":"910GWEMBLSM"},{"icsId":"1014376","id":"490014376D","lat":51.557807,"lon":-0.285668,"name":"Lakeside Way","parentId":"490G00014376","stationId":"490G00014376","stopLetter":"D","topMostParentId":"490G00014376"},{"icsId":"1014375","id":"490014375E","lat":51.558658,"lon":-0.283025,"name":"Brent Civic Centre","parentId":"490G00014375","stationId":"490G00014375","stopLetter":"E","topMostParentId":"490G00014375"},{"icsId":"1010593","id":"490010593E","lat":51.558636,"lon":-0.277818,"name":"Olympic Way","parentId":"490G00010593","stationId":"490G00010593","stopLetter":"->E","topMostParentId":"490G00010593"},{"icsId":"1004759","id":"490004759E","lat":51.559309,"lon":-0.274056,"name":"Fifth Way","parentId":"490G00004759","stationId":"490G00004759","topMostParentId":"490G00004759"},{"icsId":"1007677","id":"490007677S","lat":51.557959,"lon":-0.269736,"name":"Atlas Road","parentId":"490G00007677","stationId":"490G00007677","topMostParentId":"490G00007677"},{"icsId":"1004780","id":"490004780S","lat":51.556952,"lon":-0.269731,"name":"Carey Way","parentId":"490G00004780","stationId":"490G00004780","topMostParentId":"490G00004780"},{"icsId":"1007753","id":"490007753E","lat":51.555728,"lon":-0.264195,"name":"Hannah Close","parentId":"490G00007753","stationId":"490G00007753","stopLetter":"->N","topMostParentId":"490G00007753"},{"icsId":"1004297","id":"490004297W","lat":51.553437,"lon":-0.257604,"name":"Brent Park Tesco","parentId":"490G00004297","stationId":"490G00004297","stopLetter":"T","topMostParentId":"490G00004297"},{"icsId":"1008456","id":"490008456S","lat":51.553442,"lon":-0.261585,"name":"Ikea Brent Park","parentId":"490G00008456","stationId":"490G00008456","stopLetter":"C","topMostParentId":"490G00008456"}]}]}