{"direction":"outbound","lineId":"93","lineName":"93","mode":"bus","stopPointSequences":[{"stopPoint":[{"icsId":"1003048","id":"490011236Q","lat":51.367594,"lon":-0.218997,"name":"Priory Road","parentId":"490G00003048","stationId":"490G00003048","stopLetter":"Q","topMostParentId":"490G00003048"},{"icsId":"1009524","id":"490009524S","lat":51.36644,"lon":-0.224156,"name":"Malden Road / Priory Road","parentId":"490G00009524","stationId":"490G00009524","stopLetter":"S","topMostParentId":"490G00009524"},{"icsId":"1010335","id":"490010323H","lat":51.370374,"lon":-0.227438,"name":"Church Hill Road","parentId":"490G00010335","stationId":"490G00010335","stopLetter":"H","topMostParentId":"490G00010335"},{"icsId":"1010323","id":"490010323C","lat":51.371651,"lon":-0.227403,"name":"North Cheam / Queen Victoria","parentId":"490G00010323","stationId":"490G00010323","stopLetter":"C","topMostParentId":"490G00010323"},{"icsId":"1010325","id":"490010325N","lat":51.374876,"lon":-0.224218,"name":"North Cheam Sports Club","parentId":"490G00010325","stationId":"490G00010325","stopLetter":"HJ","topMostParentId":"490G00010325"},{"icsId":"1008948","id":"490008948N1","lat":51.376447,"lon":-0.222246,"name":"Langley Avenue","parentId":"490G00008948","stationId":"490G00008948","stopLetter":"HK","topMostParentId":"490G00008948"},{"icsId":"1012580","id":"490012580N","lat":51.377934,"lon":-0.220708,"name":"St Anthony's Hospital","parentId":"490G00012580","stationId":"490G00012580","stopLetter":"HL","topMostParentId":"490G00012580"},{"icsId":"1019848","id":"490007130N","lat":51.380957,"lon":-0.217257,"name":"Stonecot Hill / Garth Road","parentId":"490G00019848","stationId":"490G00019848","stopLetter":"HM","topMostParentId":"490G00019848"},{"icsId":"1004596","id":"490004596N","lat":51.383344,"lon":-0.214534,"name":"Burleigh Road","parentId":"490G00004596","stationId":"490G00004596","stopLetter":"SK","topMostParentId":"490G00004596"},{"icsId":"1013625","id":"490013608N2","lat":51.38518,"lon":-0.212264,"name":"Sutton Common Road","parentId":"490G00013625","stationId":"490G00013625","stopLetter":"SL","topMostParentId":"490G00013625"},{"icsId":"1009426","id":"490009426N","lat":51.386981,"lon":-0.210081,"name":"Lower Morden Lane","parentId":"490G00009426","stationId":"490G00009426","stopLetter":"ME","topMostParentId":"490G00009426"},{"icsId":"1011821","id":"490011821S2","lat":51.390309,"lon":-0.206042,"name":"Rutland Drive","parentId":"490G00011821","stationId":"490G00011821","stopLetter":"MF","topMostParentId":"490G00011821"},{"icsId":"1020191","id":"490010017N","lat":51.392503,"lon":-0.203671,"name":"South Thames College","parentId":"490G00020191","stationId":"490G00020191","stopLetter":"MH","topMostParentId":"490G00020191"},{"icsId":"1004960","id":"490004960N","lat":51.395264,"lon":-0.201924,"name":"Chalgrove Avenue","parentId":"490G00004960","stationId":"490G00004960","stopLetter":"MJ","topMostParentId":"490G00004960"},{"icsId":"1001197","id":"490001197A","lat":51.396753,"lon":-0.2005,"name":"Morden South Station","parentId":"490G01197B","stationId":"490G01197B","stopLetter":"MK","topMostParentId":"910GMORDENS"},{"icsId":"1010019","id":"490010019N","lat":51.399722,"lon":-0.19712,"name":"Morden Court","parentId":"490G00010019","stationId":"490G00010019","stopLetter":"L","topMostParentId":"490G00010019"},{"icsId":"1000151","id":"490000151A","lat":51.402078,"lon":-0.19477,"name":"Morden Station","parentId":"490G00151H","stationId":"490G00151H","stopLetter":"A","topMostParentId":"940GZZLUMDN","zone":"4"},{"icsId":"1006133","id":"490006133N","lat":51.407211,"lon":-0.192296,"name":"Dorset Road","parentId":"490G000486","stationId":"490G000486","topMostParentId":"490G000486"},{"icsId":"1002060","id":"490002060A","lat":51.409417,"lon":-0.192482,"name":"Morden Road Tram Stop","parentId":"490G02060A","stationId":"490G02060A","stopLetter":"SL","topMostParentId":"940GZZCRMDN"},{"icsId":"1015174","id":"490015174A","lat":51.414862,"lon":-0.192814,"name":"Morden Road / South Wimbledon Station","parentId":"490G000867","stationId":"490G000867","stopLetter":"SM","topMostParentId":"490G000867"},{"icsId":"1009835","id":"490009835I","lat":51.417027,"lon":-0.192613,"name":"Merton Road","parentId":"490G00009835","stationId":"490G00009835","stopLetter":"ST","topMostParentId":"490G00009835"},{"icsId":"1013807","id":"490013807W","lat":51.419379,"lon":-0.195268,"name":"The Polka Theatre","parentId":"490G00013807","stationId":"490G00013807","stopLetter":"SW","topMostParentId":"490G00013807"},{"icsId":"1014742","id":"490014742Y","lat":51.419296,"lon":-0.200995,"name":"Wimbledon Theatre","parentId":"490G00014742","stationId":"490G00014742","stopLetter":"Y","topMostParentId":"490G00014742"},{"icsId":"1014731","id":"490014731G","lat":51.418801,"lon":-0.20333,"name":"Wimbledon Bus Station","parentId":"490G00014731","stationId":"490G00014731","stopLetter":"G","topMostParentId":"490G00014731"},{"icsId":"1000272","id":"490015472L","lat":51.42029,"lon":-0.206594,"name":"Wimbledon Station","parentId":"490G00272P","stationId":"490G00272P","stopLetter":"L","topMostParentId":"HUBWIM","zone":"3"},{"icsId":"1014734","id":"490014734R","lat":51.422517,"lon":-0.209369,"name":"Wimbledon Hill Road","parentId":"490G00014734","stationId":"490G00014734","stopLetter":"R","topMostParentId":"HUBWIM"},{"icsId":"1008184","id":"490008184W","lat":51.424796,"lon":-0.216659,"name":"High Street / Wimbledon Village","parentId":"490G00008184","stationId":"490G00008184","stopLetter":"P","topMostParentId":"490G00008184"},{"icsId":"1014743","id":"490014743N","lat":51.425657,"lon":-0.220653,"name":"Marryat Road","parentId":"490G00014743","stationId":"490G00014743","stopLetter":"Q","topMostParentId":"490G00014743"},{"icsId":"1014745","id":"490014745N","lat":51.42693,"lon":-0.22338,"name":"Wimbledon War Memorial","parentId":"490G00014745","stationId":"490G00014745","stopLetter":"R","topMostParentId":"490G00014745"},{"icsId":"1010827","id":"490010827N","lat":51.428871,"lon":-0.223866,"name":"Parkside Avenue","parentId":"490G00010827","stationId":"490G00010827","stopLetter":"S","topMostParentId":"490G00010827"},{"icsId":"1004682","id":"490004682N","lat":51.43351,"lon":-0.224391,"name":"Calonne Road","parentId":"490G00004682","stationId":"490G00004682","stopLetter":"T","topMostParentId":"490G00004682"},{"icsId":"1010835","id":"490010835N","lat":51.436247,"lon":-0.22463,"name":"Parkside Hospital","parentId":"490G00010835","stationId":"490G00010835","stopLetter":"->N","topMostParentId":"490G00010835"},{"icsId":"1011341","id":"490011341N","lat":51.439454,"lon":-0.224391,"name":"Queensmere Road","parentId":"490G00011341","stationId":"490G00011341","stopLetter":"->N","topMostParentId":"490G00011341"},{"icsId":"1003146","id":"490003146N","lat":51.44274,"lon":-0.223429,"name":"Albemarle","parentId":"490G00003146","stationId":"490G00003146","stopLetter":"PX","topMostParentId":"490G00003146"},{"icsId":"1013662","id":"490013662N1","lat":51.445963,"lon":-0.222512,"name":"Tibbet's Corner","parentId":"490G00013662","stationId":"490G00013662","stopLetter":"PK","topMostParentId":"490G00013662"},{"icsId":"1015450","id":"490015450N","lat":51.449237,"lon":-0.223133,"name":"Tibbet's Ride","parentId":"490G00015450","stationId":"490G00015450","stopLetter":"PW","topMostParentId":"490G00015450"},{"icsId":"1011299","id":"490011285N","lat":51.454184,"lon":-0.220264,"name":"Putney Hill / Green Man","parentId":"490G00011299","stationId":"490G00011299","stopLetter":"M","topMostParentId":"490G00011299"},{"icsId":"1009494","id":"490012340N","lat":51.457291,"lon":-0.218747,"name":"Lytton Grove","parentId":"490G00009494","stationId":"490G00009494","stopLetter":"PJ","topMostParentId":"490G00009494"},{"icsId":"1004634","id":"490001231N","lat":51.460006,"lon":-0.217518,"name":"St John's Avenue","parentId":"490G00004634","stationId":"490G00004634","stopLetter":"C","topMostParentId":"490G00004634"},{"icsId":"1001231","id":"490001231B","lat":51.461475,"lon":-0.217144,"name":"Putney Station","parentId":"490G01231E1","stationId":"490G01231E1","stopLetter":"B","topMostParentId":"910GPUTNEY"},{"icsId":"1011289","id":"490011286M","lat":51.464431,"lon":-0.21523,"name":"Putney Exchange","parentId":"490G00011289","stationId":"490G00011289","stopLetter":"M","topMostParentId":"490G00011289"},{"icsId":"1011278","id":"490011278N","lat":51.466492,"lon":-0.213594,"name":"St Mary's Church / Putney Pier","parentId":"490G00011278","stationId":"490G00011278","stopLetter":"T","topMostParentId":"490G00011278"},{"icsId":"1000184","id":"490007281E","lat":51.468455,"lon":-0.210782,"name":"Putney Bridge Station","parentId":"490G07281E","stationId":"490G07281E","stopLetter":"AP","topMostParentId":"940GZZLUPYB","zone":"2"}]}]}