{"direction":"outbound","lineId":"94","lineName":"94","mode":"bus","stopPointSequences":[{"stopPoint":[{"icsId":"1003076","id":"490003076C","lat":51.49638,"lon":-0.264246,"name":"Acton Green","parentId":"490G00003076","stationId":"490G00003076","stopLetter":"CC","topMostParentId":"490G00003076"},{"icsId":"1013487","id":"490013487E","lat":51.495741,"lon":-0.258148,"name":"The Orchard","parentId":"490G00013487","stationId":"490G00013487","stopLetter":"L","topMostParentId":"490G00013487"},{"icsId":"1000240","id":"490000240LL","lat":51.49597,"lon":-0.254221,"name":"Turnham Green Station","parentId":"490G00240LL","stationId":"490G00240LL","stopLetter":"LL","topMostParentId":"940GZZLUTNG","zone":"2"},{"icsId":"1003060","id":"490003060E","lat":51.496972,"lon":-0.249673,"name":"Abinger Road","parentId":"490G00003060","stationId":"490G00003060","stopLetter":"->E","topMostParentId":"490G00003060"},{"icsId":"1006872","id":"490006872E","lat":51.498656,"lon":-0.244422,"name":"Flanchford Road","parentId":"490G00006872","stationId":"490G00006872","stopLetter":"SA","topMostParentId":"490G00006872"},{"icsId":"1015455","id":"490015455E","lat":51.499563,"lon":-0.240094,"name":"Askew Road","parentId":"490G00015455","stationId":"490G00015455","stopLetter":"SB","topMostParentId":"490G00015455"},{"icsId":"1010710","id":"490010710E","lat":51.500341,"lon":-0.237427,"name":"Paddenswick Road","parentId":"490G00010710","stationId":"490G00010710","stopLetter":"SC","topMostParentId":"490G00010710"},{"icsId":"1004871","id":"490004871E","lat":51.500812,"lon":-0.234066,"name":"Cathnor Road","parentId":"490G00004871","stationId":"490G00004871","stopLetter":"SD","topMostParentId":"490G00004871"},{"icsId":"1012946","id":"490012946E","lat":51.501735,"lon":-0.231452,"name":"St Stephen's Avenue","parentId":"490G00012946","stationId":"490G00012946","stopLetter":"SE","topMostParentId":"490G00012946"},{"icsId":"1000088","id":"490000088Y","lat":51.502509,"lon":-0.227315,"name":"Goldhawk Road Station","parentId":"490G00088Y","stationId":"490G00088Y","stopLetter":"L","topMostParentId":"940GZZLUGHK","zone":"2"},{"icsId":"1010913","id":"490010913W","lat":51.503081,"lon":-0.224137,"name":"Shepherd's Bush Road","parentId":"490G00010913","stationId":"490G00010913","stopLetter":"M","topMostParentId":"490G00010913"},{"icsId":"1012068","id":"490012068S","lat":51.503874,"lon":-0.224236,"name":"Shepherd's Bush Green","parentId":"490G000742","stationId":"490G000742","stopLetter":"N","topMostParentId":"490G000742"},{"icsId":"1000203","id":"490015059G","lat":51.504522,"lon":-0.220148,"name":"Shepherd's Bush Station","parentId":"490G00203A","stationId":"490G00203A","stopLetter":"X","topMostParentId":"HUBSPB","zone":"2"},{"icsId":"1008651","id":"490008651E","lat":51.505258,"lon":-0.214125,"name":"Royal Crescent","parentId":"490G00008651","stationId":"490G00008651","stopLetter":"HJ","topMostParentId":"490G00008651"},{"icsId":"1010305","id":"490010305E","lat":51.506112,"lon":-0.20997,"name":"Norland Square","parentId":"490G00010305","stationId":"490G00010305","stopLetter":"HK","topMostParentId":"490G00010305"},{"icsId":"1000113","id":"490000113T","lat":51.507607,"lon":-0.204839,"name":"Holland Park Station","parentId":"490G00113G","stationId":"490G00113G","stopLetter":"HL","topMostParentId":"940GZZLUHPK","zone":"2"},{"icsId":"1019162","id":"490015465D","lat":51.508839,"lon":-0.198378,"name":"Notting Hill Gate Stn  / Hillgate St","parentId":"490G00019162","stationId":"490G00019162","stopLetter":"D","topMostParentId":"490G00019162"},{"icsId":"1015463","id":"490015463M","lat":51.509716,"lon":-0.193429,"name":"Palace Gardens Terrace","parentId":"490G000897","stationId":"490G000897","stopLetter":"M","topMostParentId":"490G000897"},{"icsId":"1010632","id":"490010632T","lat":51.510183,"lon":-0.189275,"name":"Orme Square","parentId":"490G00010632","stationId":"490G00010632","stopLetter":"T","topMostParentId":"490G00010632"},{"icsId":"1000187","id":"490000187C","lat":51.510466,"lon":-0.18667,"name":"Queensway Station","parentId":"490G00187B","stationId":"490G00187B","stopLetter":"C","topMostParentId":"940GZZLUQWY","zone":"1"},{"icsId":"1009081","id":"49009081LF","lat":51.510728,"lon":-0.182077,"name":"Leinster Terrace","parentId":"490G00009081","stationId":"490G00009081","stopLetter":"LF","topMostParentId":"490G00009081"},{"icsId":"1003121","id":"49003121LE","lat":51.511144,"lon":-0.179336,"name":"Lancaster Gate","parentId":"490G00003121","stationId":"490G00003121","stopLetter":"LE","topMostParentId":"490G00003121"},{"icsId":"1000133","id":"490000133Z","lat":51.5118,"lon":-0.175261,"name":"Lancaster Gate Station","parentId":"490G00133B","stationId":"490G00133B","stopLetter":"LK","topMostParentId":"940GZZLULGT","zone":"1"},{"icsId":"1014055","id":"490014055E","lat":51.512236,"lon":-0.171525,"name":"Victoria Gate","parentId":"490G00014055","stationId":"490G00014055","stopLetter":"LB","topMostParentId":"490G00014055"},{"icsId":"1008446","id":"490008446E","lat":51.512571,"lon":-0.16703,"name":"Hyde Park Street","parentId":"490G00008446","stationId":"490G00008446","stopLetter":"D","topMostParentId":"490G00008446"},{"icsId":"1008447","id":"490000144C","lat":51.513125,"lon":-0.162237,"name":"Marble Arch / Bayswater Road","parentId":"490G00008447","stationId":"490G00008447","stopLetter":"C","topMostParentId":"490G00008447"},{"icsId":"1000144","id":"490000144L","lat":51.513737,"lon":-0.156505,"name":"Marble Arch Station","parentId":"490G00144L","stationId":"490G00144L","stopLetter":"L","topMostParentId":"940GZZLUMBA","zone":"1"},{"icsId":"1011985","id":"490011985BB","lat":51.514132,"lon":-0.152482,"name":"Selfridges","parentId":"490G000738","stationId":"490G000738","stopLetter":"BB","topMostParentId":"490G000738"},{"icsId":"1000433","id":"490010531W","lat":51.514814,"lon":-0.146142,"name":"New Bond Street","parentId":"490G000082","stationId":"490G000082","stopLetter":"OE","topMostParentId":"490G000082"},{"icsId":"1000173","id":"490000173RG","lat":51.514591,"lon":-0.141669,"name":"Oxford Circus Station","parentId":"490G00173RG","stationId":"490G00173RG","stopLetter":"RG","topMostParentId":"940GZZLUOXC","zone":"1"},{"icsId":"1004810","id":"490004810RJ","lat":51.512341,"lon":-0.139858,"name":"Conduit Street / Hamleys Toy Store","parentId":"490G00004810","stationId":"490G00004810","stopLetter":"T","topMostParentId":"490G00004810"},{"icsId":"1000179","id":"490000179F","lat":51.509894,"lon":-0.136427,"name":"Piccadilly Circus","parentId":"490G00179D","stationId":"490G00179D","stopLetter":"F","topMostParentId":"940GZZLUPCC","zone":"1"},{"icsId":"1004996","id":"490004996U","lat":51.507944,"lon":-0.133077,"name":"Charles I I Street","parentId":"490G00004996","stationId":"490G00004996","stopLetter":"U","topMostParentId":"490G00004996"}]}]}