{"direction":"outbound","lineId":"b13","lineName":"B13","mode":"bus","stopPointSequences":[{"stopPoint":[{"icsId":"1003975","id":"490003975M","lat":51.456488,"lon":0.146435,"name":"Market Place / Bexleyheath Clock Tower","parentId":"490G00003975","stationId":"490G00003975","stopLetter":"M","topMostParentId":"490G00003975"},{"icsId":"1019057","id":"490003976F","lat":51.455824,"lon":0.143899,"name":"Bexleyheath Library","parentId":"490G00019057","stationId":"490G00019057","stopLetter":"F","topMostParentId":"490G00019057"},{"icsId":"1008989","id":"490008989S","lat":51.452831,"lon":0.14278,"name":"Latham Road","parentId":"490G00008989","stationId":"490G00008989","topMostParentId":"490G00008989"},{"icsId":"1013754","id":"490013754S","lat":51.450073,"lon":0.139183,"name":"Townley Grammar School","parentId":"490G00013754","stationId":"490G00013754","stopLetter":"Y","topMostParentId":"490G00013754"}]},{"stopPoint":[{"icsId":"1013754","id":"490013754S","lat":51.450073,"lon":0.139183,"name":"Townley Grammar School","parentId":"490G00013754","stationId":"490G00013754","stopLetter":"Y","topMostParentId":"490G00013754"},{"icsId":"1011904","id":"490011904W","lat":51.451199,"lon":0.123273,"name":"Danson Road / Sandhurst Road","parentId":"490G00011904","stationId":"490G00011904","topMostParentId":"490G00011904"},{"icsId":"1005956","id":"490005956S","lat":51.44911,"lon":0.119434,"name":"Danson Underpass","parentId":"490G00005956","stationId":"490G00005956","stopLetter":"T","topMostParentId":"490G00005956"}]},{"stopPoint":[{"icsId":"1005956","id":"490005956S","lat":51.44911,"lon":0.119434,"name":"Danson Underpass","parentId":"490G00005956","stationId":"490G00005956","stopLetter":"T","topMostParentId":"490G00005956"},{"icsId":"1004097","id":"490004097W","lat":51.447873,"lon":0.117736,"name":"Blendon / Penhill Road","parentId":"490G00004097","stationId":"490G00004097","stopLetter":"N","topMostParentId":"490G00004097"},{"icsId":"1004060","id":"490004060W","lat":51.449069,"lon":0.113273,"name":"Blackfen School For Girls","parentId":"490G00004060","stationId":"490G00004060","stopLetter":"P","topMostParentId":"490G00004060"}]},{"stopPoint":[{"icsId":"1004060","id":"490004060W","lat":51.449069,"lon":0.113273,"name":"Blackfen School For Girls","parentId":"490G00004060","stationId":"490G00004060","stopLetter":"P","topMostParentId":"490G00004060"},{"icsId":"1019328","id":"49000HC84S","lat":51.442313,"lon":0.087274,"name":"Arlington Close","parentId":"490G00019328","stationId":"490G00019328","topMostParentId":"490G00019328"},{"icsId":"1007667","id":"490007667N","lat":51.44181,"lon":0.085726,"name":"Halfway Street / Days Lane","parentId":"490G00007667","stationId":"490G00007667","stopLetter":"AS","topMostParentId":"490G00007667"}]},{"stopPoint":[{"icsId":"1007667","id":"490007667N","lat":51.44181,"lon":0.085726,"name":"Halfway Street / Days Lane","parentId":"490G00007667","stationId":"490G00007667","stopLetter":"AS","topMostParentId":"490G00007667"},{"icsId":"1011535","id":"490011535N","lat":51.444663,"lon":0.082042,"name":"Restons Crescent","parentId":"490G00011535","stationId":"490G00011535","stopLetter":"AT","topMostParentId":"490G00011535"},{"icsId":"1003507","id":"490003507S","lat":51.444654,"lon":0.081538,"name":"Avery Hill Road / Halfway Street","parentId":"490G00003507","stationId":"490G00003507","stopLetter":"AU","topMostParentId":"490G00003507"},{"icsId":"1012146","id":"490012146S1","lat":51.441327,"lon":0.079488,"name":"Sidewood Road","parentId":"490G00012146","stationId":"490G00012146","stopLetter":"AV","topMostParentId":"490G00012146"},{"icsId":"1009809","id":"490009809S","lat":51.439071,"lon":0.074853,"name":"Merchland Road","parentId":"490G00009809","stationId":"490G00009809","stopLetter":"K","topMostParentId":"490G00009809"},{"icsId":"1010209","id":"490001205A","lat":51.438717,"lon":0.070995,"name":"New Eltham Station  / Footscray Road","parentId":"490G000674","stationId":"490G000674","stopLetter":"F","topMostParentId":"490G000674"},{"icsId":"1006892","id":"490006892P","lat":51.441011,"lon":0.068897,"name":"Footscray Rugby Club","parentId":"490G00006892","stationId":"490G00006892","stopLetter":"G","topMostParentId":"490G00006892"},{"icsId":"1007463","id":"490007463N","lat":51.443138,"lon":0.064561,"name":"Green Lane","parentId":"490G00007463","stationId":"490G00007463","stopLetter":"FE","topMostParentId":"490G00007463"}]},{"stopPoint":[{"icsId":"1007463","id":"490007463N","lat":51.443138,"lon":0.064561,"name":"Green Lane","parentId":"490G00007463","stationId":"490G00007463","stopLetter":"FE","topMostParentId":"490G00007463"},{"icsId":"1018786","id":"490018786S","lat":51.435714,"lon":0.063305,"name":"Sidcup Road  Green Lane","parentId":"490G00018786","stationId":"490G00018786","stopLetter":"M","topMostParentId":"490G00018786"},{"icsId":"1013318","id":"490013318E","lat":51.435069,"lon":0.064211,"name":"Fiveways","parentId":"490G00013318","stationId":"490G00013318","stopLetter":"C","topMostParentId":"490G00013318"}]},{"stopPoint":[{"icsId":"1013318","id":"490013318E","lat":51.435069,"lon":0.064211,"name":"Fiveways","parentId":"490G00013318","stationId":"490G00013318","stopLetter":"C","topMostParentId":"490G00013318"},{"icsId":"1001205","id":"490001205D","lat":51.437312,"lon":0.071133,"name":"New Eltham Station  / Southwood Road","parentId":"490G01205E","stationId":"490G01205E","stopLetter":"D","topMostParentId":"910GNWELTHM"}]}]}