{"direction":"outbound","lineId":"c10","lineName":"C10","mode":"bus","stopPointSequences":[{"stopPoint":[{"icsId":"1004733","id":"490004733B","lat":51.49815,"lon":-0.050145,"name":"Canada Water Bus Station","parentId":"490G000438","stationId":"490G000438","stopLetter":"B1","topMostParentId":"HUBZCW"},{"icsId":"1015602","id":"490015602S","lat":51.498466,"lon":-0.046458,"name":"Canada Street","parentId":"490G000912","stationId":"490G000912","stopLetter":"W","topMostParentId":"490G000912"},{"icsId":"1013040","id":"490013040G","lat":51.495614,"lon":-0.045802,"name":"Surrey Quays Leisure Park","parentId":"490G00013040","stationId":"490G00013040","stopLetter":"G","topMostParentId":"490G00013040"},{"icsId":"1004531","id":"490004531E","lat":51.495934,"lon":-0.042359,"name":"Brunswick Quay","parentId":"490G00004531","stationId":"490G00004531","stopLetter":"->E","topMostParentId":"490G00004531"},{"icsId":"1010596","id":"490010596E","lat":51.496711,"lon":-0.039329,"name":"Onega Gate","parentId":"490G00010596","stationId":"490G00010596","stopLetter":"->E","topMostParentId":"490G00010596"},{"icsId":"1000980","id":"490008899N","lat":51.498788,"lon":-0.036085,"name":"Shipwright Road","parentId":"490G000260","stationId":"490G000260","stopLetter":"->N","topMostParentId":"490G000260"},{"icsId":"1004539","id":"490004539E","lat":51.500116,"lon":-0.034342,"name":"Bryan Road / Surrey Docks Farm","parentId":"490G00004539","stationId":"490G00004539","stopLetter":"->E","topMostParentId":"490G00004539"},{"icsId":"1012165","id":"490012165N","lat":51.504052,"lon":-0.034129,"name":"Doubletree Docklands / Nelson Dock Pier","parentId":"490G000746","stationId":"490G000746","stopLetter":"->N","topMostParentId":"490G000746"},{"icsId":"1010720","id":"490010720W","lat":51.506342,"lon":-0.035558,"name":"Pageant Steps","parentId":"490G00010720","stationId":"490G00010720","stopLetter":"->W","topMostParentId":"490G00010720"},{"icsId":"1006641","id":"490006641W","lat":51.506752,"lon":-0.038596,"name":"Essex House","parentId":"490G00006641","stationId":"490G00006641","topMostParentId":"490G00006641"},{"icsId":"1006433","id":"490006433W","lat":51.505918,"lon":-0.044626,"name":"Edinburgh Court","parentId":"490G00006433","stationId":"490G00006433","topMostParentId":"490G00006433"},{"icsId":"1012208","id":"490012208W","lat":51.504135,"lon":-0.046086,"name":"Smith Close","parentId":"490G00012208","stationId":"490G00012208","stopLetter":"->W","topMostParentId":"490G00012208"},{"icsId":"1000195","id":"490000195W","lat":51.500618,"lon":-0.052014,"name":"Rotherhithe Station","parentId":"490G00195V","stationId":"490G00195V","stopLetter":"W","topMostParentId":"910GRTHERHI"},{"icsId":"1011724","id":"490011724W","lat":51.499489,"lon":-0.054425,"name":"Rotherhithe Tunnel","parentId":"490G000729","stationId":"490G000729","stopLetter":"X","topMostParentId":"490G000729"},{"icsId":"1012349","id":"490012349C","lat":51.498799,"lon":-0.057264,"name":"Southwark Park","parentId":"490G00012349","stationId":"490G00012349","stopLetter":"C","topMostParentId":"490G00012349"},{"icsId":"1006202","id":"490006202B","lat":51.498396,"lon":-0.061733,"name":"Drummond Road","parentId":"490G00006202","stationId":"490G00006202","stopLetter":"B","topMostParentId":"490G00006202"},{"icsId":"1000021","id":"490000021W","lat":51.498051,"lon":-0.064773,"name":"Bermondsey Station","parentId":"490G00021W","stationId":"490G00021W","stopLetter":"A","topMostParentId":"940GZZLUBMY","zone":"2"},{"icsId":"1012729","id":"490012729W","lat":51.497981,"lon":-0.067643,"name":"St James's Road","parentId":"490G000765","stationId":"490G000765","stopLetter":"C","topMostParentId":"490G000765"},{"icsId":"1017367","id":"490017367W","lat":51.498185,"lon":-0.071856,"name":"Old Jamaica Road","parentId":"490G00017367","stationId":"490G00017367","stopLetter":"A","topMostParentId":"490G00017367"},{"icsId":"1018248","id":"490018248W","lat":51.497824,"lon":-0.075026,"name":"Maltby Street","parentId":"490G00018248","stationId":"490G00018248","stopLetter":"D","topMostParentId":"490G00018248"},{"icsId":"1017366","id":"490017366W","lat":51.497509,"lon":-0.078324,"name":"The Grange","parentId":"490G00017366","stationId":"490G00017366","stopLetter":"E","topMostParentId":"490G00017366"},{"icsId":"1017363","id":"490017363W","lat":51.498061,"lon":-0.082378,"name":"Bermondsey Street","parentId":"490G00017363","stationId":"490G00017363","stopLetter":"F","topMostParentId":"490G00017363"},{"icsId":"1017362","id":"490017362W","lat":51.499963,"lon":-0.087601,"name":"Staple Street","parentId":"490G00017362","stationId":"490G00017362","topMostParentId":"490G00017362"},{"icsId":"1017361","id":"490017361W","lat":51.501033,"lon":-0.091446,"name":"Tennis Street","parentId":"490G00017361","stationId":"490G00017361","stopLetter":"J","topMostParentId":"490G00017361"},{"icsId":"1000026","id":"490000026A","lat":51.500641,"lon":-0.093926,"name":"Borough Station","parentId":"490G00026B","stationId":"490G00026B","stopLetter":"A","topMostParentId":"940GZZLUBOR","zone":"1"},{"icsId":"1003548","id":"490003548B","lat":51.498402,"lon":-0.097794,"name":"Inner London Crown Court","parentId":"490G00003548","stationId":"490G00003548","stopLetter":"B","topMostParentId":"490G00003548"},{"icsId":"1009297","id":"490000073G","lat":51.496934,"lon":-0.099325,"name":"Elephant & Castle / Newington Causeway","parentId":"490G000644","stationId":"490G000644","stopLetter":"G","topMostParentId":"490G000644"},{"icsId":"1009270","id":"490009270Z","lat":51.495252,"lon":-0.10206,"name":"London College Of Communication","parentId":"490G000641","stationId":"490G000641","stopLetter":"Z","topMostParentId":"490G000641"},{"icsId":"1008479","id":"490008473N","lat":51.496456,"lon":-0.1059,"name":"St George's Road / Imperial War Museum","parentId":"490G000609","stationId":"490G000609","stopLetter":"N","topMostParentId":"490G000609"},{"icsId":"1000132","id":"490000132B","lat":51.498557,"lon":-0.111821,"name":"Lambeth North Station","parentId":"490G00132G","stationId":"490G00132G","stopLetter":"B","topMostParentId":"940GZZLULBN","zone":"1"},{"icsId":"1009420","id":"490009420W","lat":51.499398,"lon":-0.113774,"name":"Lower Marsh","parentId":"490G00009420","stationId":"490G00009420","stopLetter":"A","topMostParentId":"490G00009420"},{"icsId":"1012954","id":"490012954B","lat":51.498491,"lon":-0.117255,"name":"St Thomas' Hospital","parentId":"490G00012954","stationId":"490G00012954","stopLetter":"B","topMostParentId":"490G00012954"},{"icsId":"1008917","id":"490008917S","lat":51.495291,"lon":-0.120715,"name":"Lambeth Palace","parentId":"490G00008917","stationId":"490G00008917","stopLetter":"SA","topMostParentId":"490G00008917"},{"icsId":"1009881","id":"490009881W","lat":51.494692,"lon":-0.126516,"name":"Millbank","parentId":"490G00009881","stationId":"490G00009881","stopLetter":"NE","topMostParentId":"490G00009881"},{"icsId":"1010723","id":"490010723S","lat":51.494174,"lon":-0.128972,"name":"Page Street","parentId":"490G00010723","stationId":"490G00010723","stopLetter":"NM","topMostParentId":"490G00010723"},{"icsId":"1013160","id":"490013160M","lat":51.49202,"lon":-0.128138,"name":"Tate Britain","parentId":"490G000779","stationId":"490G000779","stopLetter":"M","topMostParentId":"490G000779"},{"icsId":"1005067","id":"490011094U","lat":51.490158,"lon":-0.129814,"name":"Chelsea College Of Arts","parentId":"490G00005067","stationId":"490G00005067","stopLetter":"U","topMostParentId":"490G00005067"},{"icsId":"1000180","id":"490000180J","lat":51.488955,"lon":-0.13332,"name":"Pimlico Station","parentId":"490G00180H","stationId":"490G00180H","stopLetter":"J","topMostParentId":"940GZZLUPCO","zone":"1"},{"icsId":"1011004","id":"490011004W","lat":51.488289,"lon":-0.137251,"name":"Pimlico Academy & Library","parentId":"490G00011004","stationId":"490G00011004","stopLetter":"L","topMostParentId":"490G00011004"},{"icsId":"1003179","id":"490003179S","lat":51.487922,"lon":-0.139613,"name":"Alderney Street","parentId":"490G00003179","stationId":"490G00003179","stopLetter":"M","topMostParentId":"490G00003179"},{"icsId":"1016309","id":"490014504W","lat":51.487585,"lon":-0.142177,"name":"Winchester Street","parentId":"490G00016309","stationId":"490G00016309","stopLetter":"N","topMostParentId":"490G00016309"},{"icsId":"1013855","id":"4900013855N1","lat":51.489086,"lon":-0.146653,"name":"Westmoreland Terrace","parentId":"490G00013855","stationId":"490G00013855","stopLetter":"K","topMostParentId":"490G00013855"},{"icsId":"1014051","id":"490014051W","lat":51.492019,"lon":-0.148436,"name":"Victoria Coach Station","parentId":"490G000813","stationId":"490G000813","stopLetter":"W","topMostParentId":"490G000813"},{"icsId":"1006404","id":"490006404W","lat":51.493512,"lon":-0.147352,"name":"Eccleston Bridge","parentId":"490G00006404","stationId":"490G00006404","stopLetter":"T","topMostParentId":"490G00006404"},{"icsId":"1007548","id":"490000248N2","lat":51.496445,"lon":-0.14513,"name":"Victoria Station  / Grosvenor Gardens","parentId":"490G000552","stationId":"490G000552","stopLetter":"S","topMostParentId":"490G000552"}]}]}