{"direction":"outbound","lineId":"c2","lineName":"C2","mode":"bus","stopPointSequences":[{"stopPoint":[{"icsId":"1010852","id":"490010852S2","lat":51.561003,"lon":-0.150353,"name":"Parliament Hill Fields","parentId":"490G00010852","stationId":"490G00010852","stopLetter":"GK","topMostParentId":"490G00010852"},{"icsId":"1014697","id":"490014697S","lat":51.55955,"lon":-0.149431,"name":"William Ellis School","parentId":"490G00014697","stationId":"490G00014697","stopLetter":"GM","topMostParentId":"490G00014697"},{"icsId":"1007308","id":"490005974S","lat":51.557265,"lon":-0.1471,"name":"Gordon House Road","parentId":"490G00007308","stationId":"490G00007308","stopLetter":"GN","topMostParentId":"490G00007308"},{"icsId":"1015367","id":"490015367S","lat":51.5553,"lon":-0.145102,"name":"Lady Somerset Road","parentId":"490G00015367","stationId":"490G00015367","stopLetter":"GW","topMostParentId":"490G00015367"},{"icsId":"1008660","id":"490008660S","lat":51.553526,"lon":-0.143256,"name":"Kentish Town Fire Station","parentId":"490G00008660","stationId":"490G00008660","topMostParentId":"490G00008660"},{"icsId":"1006943","id":"490006943E","lat":51.552068,"lon":-0.141469,"name":"Fortess Road","parentId":"490G00006943","stationId":"490G00006943","stopLetter":"KJ","topMostParentId":"490G00006943"},{"icsId":"1000123","id":"490000123A","lat":51.550213,"lon":-0.140708,"name":"Kentish Town Station","parentId":"490G00123B","stationId":"490G00123B","stopLetter":"KB","topMostParentId":"HUBKTN","zone":"2"},{"icsId":"1004894","id":"490007082K","lat":51.548196,"lon":-0.141151,"name":"Kentish Town Post Office","parentId":"490G00004894","stationId":"490G00004894","stopLetter":"KC","topMostParentId":"490G00004894"},{"icsId":"1011199","id":"490011199S","lat":51.545929,"lon":-0.141662,"name":"Kentish Town Road / Prince Of Wales Road","parentId":"490G00011199","stationId":"490G00011199","stopLetter":"KD","topMostParentId":"490G00011199"},{"icsId":"1011755","id":"490011755S","lat":51.544199,"lon":-0.141429,"name":"Royal College Street","parentId":"490G00011755","stationId":"490G00011755","stopLetter":"KL","topMostParentId":"490G00011755"},{"icsId":"1004713","id":"490004713D","lat":51.541972,"lon":-0.14103,"name":"Camden Gardens","parentId":"490G00004713","stationId":"490G00004713","stopLetter":"D","topMostParentId":"490G00004713"},{"icsId":"1019167","id":"490000036R","lat":51.540005,"lon":-0.140634,"name":"Camden Town Station / Camden Street","parentId":"490G00019167","stationId":"490G00019167","stopLetter":"R","topMostParentId":"490G00019167"},{"icsId":"1000036","id":"490015531T","lat":51.53875,"lon":-0.140916,"name":"Camden Town Station  / Bayham Street","parentId":"490G00036N","stationId":"490G00036N","stopLetter":"T","topMostParentId":"940GZZLUCTN","zone":"2"},{"icsId":"1011168","id":"490015384V","lat":51.537131,"lon":-0.140838,"name":"Pratt Street","parentId":"490G00011168","stationId":"490G00011168","stopLetter":"CS","topMostParentId":"490G00011168"},{"icsId":"1003380","id":"490003380N","lat":51.536656,"lon":-0.142659,"name":"Arlington Road","parentId":"490G000393","stationId":"490G000393","stopLetter":"CT","topMostParentId":"490G000393"},{"icsId":"1010847","id":"490010040N","lat":51.536336,"lon":-0.144605,"name":"Parkway","parentId":"490G00010847","stationId":"490G00010847","stopLetter":"CU","topMostParentId":"490G00010847"},{"icsId":"1011513","id":"490010846S","lat":51.534458,"lon":-0.146411,"name":"Regent's Park Barracks","parentId":"490G00011513","stationId":"490G00011513","stopLetter":"->S","topMostParentId":"490G00011513"},{"icsId":"1005903","id":"490005903S","lat":51.531623,"lon":-0.145142,"name":"Cumberland Terrace","parentId":"490G00005903","stationId":"490G00005903","stopLetter":"->S","topMostParentId":"490G00005903"},{"icsId":"1005126","id":"490011720S","lat":51.529632,"lon":-0.144329,"name":"Robert Street","parentId":"490G00005126","stationId":"490G00005126","stopLetter":"->S","topMostParentId":"490G00005126"},{"icsId":"1005131","id":"490005131S","lat":51.528173,"lon":-0.144201,"name":"Chester Gate","parentId":"490G00005131","stationId":"490G00005131","stopLetter":"Q","topMostParentId":"490G00005131"},{"icsId":"1019675","id":"490019675D","lat":51.525204,"lon":-0.144106,"name":"Euston Road","parentId":"490G00019675","stationId":"490G00019675","stopLetter":"D","topMostParentId":"490G00019675"},{"icsId":"1000091","id":"490000091E","lat":51.522971,"lon":-0.143923,"name":"Great Portland Street Station","parentId":"490G00091G","stationId":"490G00091G","stopLetter":"E","topMostParentId":"940GZZLUGPS","zone":"1"},{"icsId":"1010198","id":"490010198W","lat":51.519877,"lon":-0.143861,"name":"New Cavendish Street","parentId":"490G00010198","stationId":"490G00010198","topMostParentId":"490G00010198"},{"icsId":"1010697","id":"490000173RF","lat":51.515939,"lon":-0.142219,"name":"Oxford Circus Stn  / Margaret Street","parentId":"490G000694","stationId":"490G000694","stopLetter":"RF","topMostParentId":"490G000694"},{"icsId":"1000173","id":"490000173RG","lat":51.514591,"lon":-0.141669,"name":"Oxford Circus Station","parentId":"490G00173RG","stationId":"490G00173RG","stopLetter":"RG","topMostParentId":"940GZZLUOXC","zone":"1"},{"icsId":"1004817","id":"490005537AP","lat":51.512581,"lon":-0.141376,"name":"Conduit Street","parentId":"490G00004817","stationId":"490G00004817","stopLetter":"N","topMostParentId":"490G00004817"}]}]}