{"direction":"outbound","lineId":"c2c","lineName":"c2c","mode":"national-rail","orderedLineRoutes":[{"$type":"Tfl.Api.Presentation.Entities.OrderedRoute, Tfl.Api.Presentation.Entities","name":"London Fenchurch Street  &harr;  Shoeburyness ","naptanIds":["910GFENCHRS","910GLIMHSE","910GWHAMHL","910GBARKING","910GDGNHMDC","910GRNHAME","910GPURFLET","910GGRAYS","910GTLBYTWN","910GETILBRY","910GSLEHOPE","0000PITSEA3","0000BENFLET1","910GLHONSEA","910GCHLKWEL","910GWCLIFF","910GSTHCENT","910GSTHNDE","910GTHOPBAY","910GSHBRYNS"],"serviceType":"Regular"},{"$type":"Tfl.Api.Presentation.Entities.OrderedRoute, Tfl.Api.Presentation.Entities","name":"London Liverpool Street  &harr;  Shoeburyness ","naptanIds":["910GLIVST","910GSTFD","910GBARKING","910GDGNHMDC","910GRNHAME","910GPURFLET","910GGRAYS","910GTLBYTWN","910GETILBRY","910GSLEHOPE","0000PITSEA3","0000BENFLET1","910GLHONSEA","910GCHLKWEL","910GWCLIFF","910GSTHCENT","910GSTHNDE","910GTHOPBAY","910GSHBRYNS"],"serviceType":"Regular"}],"stopPointSequences":[{"stopPoint":[{"icsId":"1001108","id":"910GFENCHRS","lat":51.511646,"lon":-0.078897,"name":"London Fenchurch Street Rail Station","stationId":"910GFENCHRS","topMostParentId":"910GFENCHRS","zone":"1"},{"icsId":"1001180","id":"910GLIMHSE","lat":51.512537,"lon":-0.039803,"name":"Limehouse Rail Station","parentId":"HUBLHS","stationId":"910GLIMHSE","topMostParentId":"HUBLHS","zone":"2"},{"icsId":"1000262","id":"910GWHAMHL","lat":51.528489,"lon":0.005431,"name":"West Ham Rail Station","parentId":"HUBWEH","stationId":"910GWHAMHL","topMostParentId":"HUBWEH","zone":"2/3"},{"icsId":"1000015","id":"910GBARKING","lat":51.539495,"lon":0.080903,"name":"Barking Rail Station","parentId":"HUBBKG","stationId":"910GBARKING","topMostParentId":"HUBBKG","zone":"4"}]},{"stopPoint":[{"id":"0000BENFLET1","lat":51.544063,"lon":0.561648,"name":"Benfleet Rail Station","topMostParentId":"0000BENFLET1"},{"icsId":"90004384","id":"910GLHONSEA","lat":51.541273,"lon":0.640411,"name":"Leigh-on-Sea Rail Station","stationId":"910GLHONSEA","topMostParentId":"910GLHONSEA"},{"icsId":"90001408","id":"910GCHLKWEL","lat":51.538719,"lon":0.670593,"name":"Chalkwell Rail Station","stationId":"910GCHLKWEL","topMostParentId":"910GCHLKWEL"},{"icsId":"90007630","id":"910GWCLIFF","lat":51.537334,"lon":0.691466,"name":"Westcliff-on-Sea Rail Station","stationId":"910GWCLIFF","topMostParentId":"910GWCLIFF"},{"icsId":"90006846","id":"910GSTHCENT","lat":51.537065,"lon":0.711727,"name":"Southend Central Rail Station","stationId":"910GSTHCENT","topMostParentId":"910GSTHCENT"},{"icsId":"90006854","id":"910GSTHNDE","lat":51.538973,"lon":0.731815,"name":"Southend East Rail Station","stationId":"910GSTHNDE","topMostParentId":"910GSTHNDE"},{"icsId":"90007207","id":"910GTHOPBAY","lat":51.53757,"lon":0.761728,"name":"Thorpe Bay Rail Station","stationId":"910GTHOPBAY","topMostParentId":"910GTHOPBAY"},{"icsId":"90006434","id":"910GSHBRYNS","lat":51.530973,"lon":0.795345,"name":"Shoeburyness Rail Station","stationId":"910GSHBRYNS","topMostParentId":"910GSHBRYNS"}]},{"stopPoint":[{"icsId":"1001563","id":"910GGRAYS","lat":51.476248,"lon":0.321832,"name":"Grays Rail Station","stationId":"910GGRAYS","topMostParentId":"910GGRAYS"},{"icsId":"1000757","id":"910GTLBYTWN","lat":51.462359,"lon":0.354039,"name":"Tilbury Town Rail Station","stationId":"910GTLBYTWN","topMostParentId":"910GTLBYTWN"},{"icsId":"1000733","id":"910GETILBRY","lat":51.484831,"lon":0.412928,"name":"East Tilbury Rail Station","stationId":"910GETILBRY","topMostParentId":"910GETILBRY"},{"icsId":"1000750","id":"910GSLEHOPE","lat":51.514364,"lon":0.423036,"name":"Stanford-le-Hope Rail Station","stationId":"910GSLEHOPE","topMostParentId":"910GSLEHOPE"},{"id":"0000PITSEA3","lat":51.560142,"lon":0.506757,"name":"Pitsea Rail Station","topMostParentId":"0000PITSEA3"},{"id":"0000BENFLET1","lat":51.544063,"lon":0.561648,"name":"Benfleet Rail Station","topMostParentId":"0000BENFLET1"}]},{"stopPoint":[{"icsId":"1000015","id":"910GBARKING","lat":51.539495,"lon":0.080903,"name":"Barking Rail Station","parentId":"HUBBKG","stationId":"910GBARKING","topMostParentId":"HUBBKG","zone":"4"},{"icsId":"1001080","id":"910GDGNHMDC","lat":51.526156,"lon":0.145904,"name":"Dagenham Dock Rail Station","stationId":"910GDGNHMDC","topMostParentId":"910GDGNHMDC","zone":"5"},{"icsId":"1001235","id":"910GRNHAME","lat":51.516723,"lon":0.190634,"name":"Rainham (London) Rail Station","stationId":"910GRNHAME","topMostParentId":"910GRNHAME","zone":"6"},{"icsId":"1001566","id":"910GPURFLET","lat":51.481013,"lon":0.236767,"name":"Purfleet Rail Station","stationId":"910GPURFLET","topMostParentId":"910GPURFLET"},{"icsId":"1001563","id":"910GGRAYS","lat":51.476248,"lon":0.321832,"name":"Grays Rail Station","stationId":"910GGRAYS","topMostParentId":"910GGRAYS"}]},{"stopPoint":[{"icsId":"1000138","id":"910GLIVST","lat":51.517991,"lon":-0.081426,"name":"London Liverpool Street Rail Station","parentId":"HUBLST","stationId":"910GLIVST","topMostParentId":"HUBLST","zone":"1"},{"icsId":"1000226","id":"910GSTFD","lat":51.541895,"lon":-0.003397,"name":"Stratford (London) Rail Station","parentId":"HUBSRA","stationId":"910GSTFD","topMostParentId":"HUBSRA","zone":"2/3"},{"icsId":"1000015","id":"910GBARKING","lat":51.539495,"lon":0.080903,"name":"Barking Rail Station","parentId":"HUBBKG","stationId":"910GBARKING","topMostParentId":"HUBBKG","zone":"4"}]}]}