{"direction":"outbound","lineId":"e3","lineName":"E3","mode":"bus","stopPointSequences":[{"stopPoint":[{"icsId":"1007441","id":"490007441H","lat":51.527437,"lon":-0.351394,"name":"Clifton Road","parentId":"490G00007441","stationId":"490G00007441","stopLetter":"K","topMostParentId":"490G00007441"},{"icsId":"1004300","id":"490004300S","lat":51.52662,"lon":-0.341894,"name":"Brentside High School","parentId":"490G00004300","stationId":"490G00004300","stopLetter":"GP","topMostParentId":"490G00004300"},{"icsId":"1008639","id":"490008639S","lat":51.525048,"lon":-0.341375,"name":"Kennedy Road","parentId":"490G00008639","stationId":"490G00008639","stopLetter":"GQ","topMostParentId":"490G00008639"},{"icsId":"1013595","id":"490013595S","lat":51.52209,"lon":-0.340099,"name":"Bordars Road","parentId":"490G00013595","stationId":"490G00013595","stopLetter":"GR","topMostParentId":"490G00013595"},{"icsId":"1007672","id":"490007672S","lat":51.519395,"lon":-0.338424,"name":"Hall Drive","parentId":"490G00007672","stationId":"490G00007672","stopLetter":"DA","topMostParentId":"490G00007672"},{"icsId":"1006192","id":"490006192S","lat":51.51543,"lon":-0.337213,"name":"Drayton Bridge Road","parentId":"490G00006192","stationId":"490G00006192","stopLetter":"DB","topMostParentId":"490G00006192"},{"icsId":"1001135","id":"490001135A","lat":51.5129,"lon":-0.336931,"name":"Hanwell Station","parentId":"490G01135A","stationId":"490G01135A","stopLetter":"A","topMostParentId":"910GHANWELL"},{"icsId":"1007762","id":"490007762C","lat":51.509936,"lon":-0.334675,"name":"Nightingale Road","parentId":"490G00007762","stationId":"490G00007762","stopLetter":"C","topMostParentId":"490G00007762"},{"icsId":"1007549","id":"490007549E","lat":51.509632,"lon":-0.329095,"name":"Grosvenor Road","parentId":"490G00007549","stationId":"490G00007549","stopLetter":"->E","topMostParentId":"490G00007549"},{"icsId":"1014430","id":"490014430W","lat":51.510054,"lon":-0.325275,"name":"West Ealing Broadway","parentId":"490G00014430","stationId":"490G00014430","stopLetter":"W","topMostParentId":"490G00014430"},{"icsId":"1013447","id":"490013447H","lat":51.510254,"lon":-0.319129,"name":"Dean Gardens / Mattock Lane","parentId":"490G00013447","stationId":"490G00013447","stopLetter":"H","topMostParentId":"490G00013447"},{"icsId":"1015589","id":"490015589S","lat":51.507779,"lon":-0.319609,"name":"Sherwood Close","parentId":"490G00015589","stationId":"490G00015589","stopLetter":"->S","topMostParentId":"490G00015589"},{"icsId":"1008110","id":"490008110S","lat":51.505202,"lon":-0.319271,"name":"Hessel Road","parentId":"490G00008110","stationId":"490G00008110","stopLetter":"->S","topMostParentId":"490G00008110"},{"icsId":"1007333","id":"490007333S","lat":51.5031,"lon":-0.316914,"name":"Graham Avenue","parentId":"490G00007333","stationId":"490G00007333","stopLetter":"A","topMostParentId":"490G00007333"},{"icsId":"1000159","id":"490000159A","lat":51.49879,"lon":-0.31422,"name":"Northfields Station","parentId":"490G00159X","stationId":"490G00159X","stopLetter":"B","topMostParentId":"940GZZLUNFD","zone":"3"},{"icsId":"1008591","id":"490008591S","lat":51.497769,"lon":-0.31322,"name":"Julien Road","parentId":"490G00008591","stationId":"490G00008591","stopLetter":"C","topMostParentId":"490G00008591"},{"icsId":"1012276","id":"490012276E","lat":51.49816,"lon":-0.306651,"name":"South Ealing Road","parentId":"490G00012276","stationId":"490G00012276","stopLetter":"N","topMostParentId":"490G00012276"},{"icsId":"1009201","id":"490009201E","lat":51.499949,"lon":-0.299222,"name":"Lionel Road North","parentId":"490G00009201","stationId":"490G00009201","stopLetter":"P","topMostParentId":"490G00009201"},{"icsId":"1008874","id":"490008874E","lat":51.501656,"lon":-0.294116,"name":"Knights Avenue","parentId":"490G00008874","stationId":"490G00008874","stopLetter":"R","topMostParentId":"490G00008874"},{"icsId":"1010522","id":"490010522E","lat":51.500911,"lon":-0.288035,"name":"Gunnersbury Park","parentId":"490G00010522","stationId":"490G00010522","stopLetter":"->E","topMostParentId":"490G00010522"},{"icsId":"1007602","id":"490007602E","lat":51.501645,"lon":-0.283541,"name":"Gunnersbury Avenue","parentId":"490G000555","stationId":"490G000555","stopLetter":"->E","topMostParentId":"490G000555"},{"icsId":"1000002","id":"490000002B","lat":51.504019,"lon":-0.279864,"name":"Acton Town Station","parentId":"490G0000S","stationId":"490G0000S","stopLetter":"S","topMostParentId":"940GZZLUACT","zone":"3"},{"icsId":"1003080","id":"490003077T","lat":51.50628,"lon":-0.278294,"name":"Hillcrest Road","parentId":"490G00003080","stationId":"490G00003080","stopLetter":"T","topMostParentId":"490G00003080"},{"icsId":"1003075","id":"490003075Q","lat":51.507744,"lon":-0.276899,"name":"Acton Fire Station","parentId":"490G00003075","stationId":"490G00003075","stopLetter":"Q","topMostParentId":"490G00003075"},{"icsId":"1008835","id":"490008835D","lat":51.507895,"lon":-0.273103,"name":"King Street","parentId":"490G00008835","stationId":"490G00008835","stopLetter":"D","topMostParentId":"490G00008835"},{"icsId":"1003083","id":"490003083F","lat":51.506747,"lon":-0.267253,"name":"Acton Old Town Hall","parentId":"490G00003083","stationId":"490G00003083","stopLetter":"F","topMostParentId":"490G00003083"},{"icsId":"1010972","id":"490010968V","lat":51.503988,"lon":-0.266738,"name":"Petersfield Road","parentId":"490G00010972","stationId":"490G00010972","stopLetter":"V","topMostParentId":"490G00010972"},{"icsId":"1019207","id":"490001254B","lat":51.502549,"lon":-0.2643,"name":"Wilkinson Way","parentId":"490G00019207","stationId":"490G00019207","stopLetter":"A","topMostParentId":"490G00019207"},{"icsId":"1012889","id":"490012889E","lat":51.50265,"lon":-0.260781,"name":"St Peter's Church","parentId":"490G00012889","stationId":"490G00012889","stopLetter":"B","topMostParentId":"490G00012889"},{"icsId":"1011777","id":"490011777S","lat":51.502335,"lon":-0.257752,"name":"Rugby Road","parentId":"490G00011777","stationId":"490G00011777","stopLetter":"C","topMostParentId":"490G00011777"},{"icsId":"1004095","id":"490004095S","lat":51.500042,"lon":-0.256529,"name":"Blandford Road","parentId":"490G00004095","stationId":"490G00004095","stopLetter":"D","topMostParentId":"490G00004095"},{"icsId":"1003797","id":"490003797S","lat":51.496865,"lon":-0.255742,"name":"Bedford Road","parentId":"490G00003797","stationId":"490G00003797","stopLetter":"K","topMostParentId":"490G00003797"},{"icsId":"1000240","id":"490000240KK","lat":51.495176,"lon":-0.255231,"name":"Turnham Green Station","parentId":"490G00240KK","stationId":"490G00240KK","stopLetter":"KK","topMostParentId":"940GZZLUTNG","zone":"2"},{"icsId":"1015065","id":"490015065NM","lat":51.493285,"lon":-0.255101,"name":"Chardin Road","parentId":"490G00015065","stationId":"490G00015065","stopLetter":"NN","topMostParentId":"490G00015065"},{"icsId":"1005210","id":"490005210SS","lat":51.492411,"lon":-0.259773,"name":"Chiswick Police Station","parentId":"490G00005210","stationId":"490G00005210","stopLetter":"SS","topMostParentId":"490G00005210"},{"icsId":"1013848","id":"490013848UU","lat":51.492502,"lon":-0.264696,"name":"Turnham Green Church","parentId":"490G000807","stationId":"490G000807","stopLetter":"UU","topMostParentId":"490G000807"},{"icsId":"1005213","id":"490005213WW","lat":51.490878,"lon":-0.265565,"name":"Chiswick Town Hall","parentId":"490G00005213","stationId":"490G00005213","stopLetter":"WW","topMostParentId":"490G00005213"},{"icsId":"1003654","id":"490003654S","lat":51.488197,"lon":-0.266718,"name":"Barrowgate Road","parentId":"490G00003654","stationId":"490G00003654","stopLetter":"H","topMostParentId":"490G00003654"},{"icsId":"1005128","id":"490005128S","lat":51.48541,"lon":-0.268566,"name":"Chesterfield Road","parentId":"490G00005128","stationId":"490G00005128","stopLetter":"J","topMostParentId":"490G00005128"},{"icsId":"1009012","id":"490009012S","lat":51.483706,"lon":-0.269466,"name":"Lawford Road","parentId":"490G00009012","stationId":"490G00009012","stopLetter":"K","topMostParentId":"490G00009012"},{"icsId":"1001065","id":"490001065A","lat":51.481473,"lon":-0.267491,"name":"Chiswick Station","parentId":"490G01065B","stationId":"490G01065B","stopLetter":"A","topMostParentId":"910GCHISWCK"},{"icsId":"1015031","id":"490015031E","lat":51.481505,"lon":-0.264178,"name":"Chiswick House","parentId":"490G00015031","stationId":"490G00015031","stopLetter":"L","topMostParentId":"490G00015031"},{"icsId":"1007402","id":"490007402S","lat":51.480772,"lon":-0.26144,"name":"Staveley Road","parentId":"490G00007402","stationId":"490G00007402","stopLetter":"M","topMostParentId":"490G00007402"},{"icsId":"1004891","id":"490004891E","lat":51.481857,"lon":-0.256949,"name":"Cavendish School","parentId":"490G00004891","stationId":"490G00004891","stopLetter":"V","topMostParentId":"490G00004891"},{"icsId":"1006410","id":"490006410W","lat":51.482323,"lon":-0.254454,"name":"Edensor Road / New Chiswick Pool","parentId":"490G00006410","stationId":"490G00006410","stopLetter":"W","topMostParentId":"490G00006410"}]}]}