{"direction":"outbound","lineId":"e8","lineName":"E8","mode":"bus","stopPointSequences":[{"stopPoint":[{"icsId":"1013259","id":"490013259U","lat":51.467075,"lon":-0.366412,"name":"The Bell","parentId":"490G00013259","stationId":"490G00013259","stopLetter":"U","topMostParentId":"490G00013259"},{"icsId":"1013777","id":"490013777O","lat":51.467519,"lon":-0.362121,"name":"Treaty Centre","parentId":"490G00013777","stationId":"490G00013777","stopLetter":"O","topMostParentId":"490G00013777"},{"icsId":"1008399","id":"490008399K","lat":51.469449,"lon":-0.358006,"name":"Hounslow High Street","parentId":"490G00008399","stationId":"490G00008399","stopLetter":"K","topMostParentId":"490G00008399"},{"icsId":"1008392","id":"490008392F","lat":51.471015,"lon":-0.353616,"name":"Hounslow Bus Station","parentId":"490G000601","stationId":"490G000601","stopLetter":"F","topMostParentId":"490G000601"},{"icsId":"1004327","id":"490004327W2","lat":51.472017,"lon":-0.349389,"name":"Bridge Road","parentId":"490G00004327","stationId":"490G00004327","stopLetter":"->E","topMostParentId":"490G00004327"},{"icsId":"1012599","id":"490012599E","lat":51.47296,"lon":-0.346749,"name":"Star Road","parentId":"490G00012599","stationId":"490G00012599","stopLetter":"J","topMostParentId":"490G00012599"},{"icsId":"1013620","id":"490013620E","lat":51.474027,"lon":-0.344652,"name":"Thornbury Road","parentId":"490G00013620","stationId":"490G00013620","stopLetter":"K","topMostParentId":"490G00013620"},{"icsId":"1008510","id":"490008510E","lat":51.474963,"lon":-0.342155,"name":"West Thames College","parentId":"490G00008510","stationId":"490G00008510","stopLetter":"L","topMostParentId":"490G00008510"},{"icsId":"1001158","id":"490001158B","lat":51.475209,"lon":-0.337308,"name":"Isleworth Station","parentId":"490G01158B","stationId":"490G01158B","stopLetter":"N","topMostParentId":"910GISLEWTH"},{"icsId":"1009185","id":"490009185E","lat":51.475364,"lon":-0.334941,"name":"Linkfield Road","parentId":"490G00009185","stationId":"490G00009185","stopLetter":"P","topMostParentId":"490G00009185"},{"icsId":"1014874","id":"490014874J","lat":51.475966,"lon":-0.332341,"name":"Wood Lane","parentId":"490G00014874","stationId":"490G00014874","stopLetter":"Q","topMostParentId":"490G00014874"},{"icsId":"1007873","id":"490007873E","lat":51.477133,"lon":-0.328396,"name":"Turnpike Way","parentId":"490G00007873","stationId":"490G00007873","stopLetter":"R","topMostParentId":"490G00007873"},{"icsId":"1004635","id":"490015029P","lat":51.477977,"lon":-0.325183,"name":"The Green School","parentId":"490G00004635","stationId":"490G00004635","stopLetter":"P","topMostParentId":"490G00004635"},{"icsId":"1015029","id":"490015029E","lat":51.479212,"lon":-0.321638,"name":"Busch Corner","parentId":"490G00015029","stationId":"490G00015029","stopLetter":"T","topMostParentId":"490G00015029"},{"icsId":"1013141","id":"490013141E","lat":51.479994,"lon":-0.319104,"name":"Syon Lane","parentId":"490G00013141","stationId":"490G00013141","stopLetter":"X","topMostParentId":"490G00013141"},{"icsId":"1003804","id":"490003804E","lat":51.481039,"lon":-0.316099,"name":"Beech Avenue","parentId":"490G00003804","stationId":"490G00003804","topMostParentId":"490G00003804"},{"icsId":"1004296","id":"490004296E","lat":51.482046,"lon":-0.31357,"name":"Brent Lea","parentId":"490G00004296","stationId":"490G00004296","stopLetter":"->E","topMostParentId":"490G00004296"},{"icsId":"1004292","id":"490004292F","lat":51.483395,"lon":-0.307327,"name":"Market Place","parentId":"490G00004292","stationId":"490G00004292","stopLetter":"BN","topMostParentId":"490G00004292"},{"icsId":"1004294","id":"490004294H","lat":51.484787,"lon":-0.307204,"name":"Half Acre","parentId":"490G00004294","stationId":"490G00004294","stopLetter":"SH","topMostParentId":"490G00004294"},{"icsId":"1014768","id":"490014768K","lat":51.486392,"lon":-0.308138,"name":"Windmill Road","parentId":"490G000839","stationId":"490G000839","stopLetter":"SJ","topMostParentId":"490G000839"},{"icsId":"1001032","id":"490005314S","lat":51.487701,"lon":-0.311619,"name":"Brentford Station","parentId":"490G05314T","stationId":"490G05314T","stopLetter":"SK","topMostParentId":"910GBNTFORD"},{"icsId":"1007424","id":"490007424N","lat":51.488739,"lon":-0.314375,"name":"Great West Road","parentId":"490G00007424","stationId":"490G00007424","stopLetter":"SY","topMostParentId":"490G00007424"},{"icsId":"1013524","id":"490013524N","lat":51.491614,"lon":-0.317322,"name":"The Ride","parentId":"490G00013524","stationId":"490G00013524","stopLetter":"S","topMostParentId":"490G00013524"},{"icsId":"1004167","id":"490004167N","lat":51.494316,"lon":-0.320767,"name":"Swyncombe Avenue","parentId":"490G00004167","stationId":"490G00004167","stopLetter":"T","topMostParentId":"490G00004167"},{"icsId":"1000027","id":"490000027A","lat":51.495923,"lon":-0.324972,"name":"Boston Manor Station","parentId":"490G00027A","stationId":"490G00027A","stopLetter":"U","topMostParentId":"940GZZLUBOS","zone":"4"},{"icsId":"1004168","id":"490004168N","lat":51.498829,"lon":-0.327617,"name":"Haslemere Avenue","parentId":"490G00004168","stationId":"490G00004168","stopLetter":"V","topMostParentId":"490G00004168"},{"icsId":"1005242","id":"490005242N","lat":51.500723,"lon":-0.329277,"name":"Christopher Avenue","parentId":"490G00005242","stationId":"490G00005242","stopLetter":"W","topMostParentId":"490G00005242"},{"icsId":"1006549","id":"490006549N","lat":51.50269,"lon":-0.33164,"name":"Elthorne Park Road","parentId":"490G00006549","stationId":"490G00006549","stopLetter":"X","topMostParentId":"490G00006549"},{"icsId":"1005899","id":"490005899N","lat":51.504945,"lon":-0.335304,"name":"Studley Grange Road","parentId":"490G00005899","stationId":"490G00005899","stopLetter":"Y","topMostParentId":"490G00005899"},{"icsId":"1009408","id":"490009408Y","lat":51.50638,"lon":-0.338191,"name":"Lower Boston Road","parentId":"490G00009408","stationId":"490G00009408","stopLetter":"Y","topMostParentId":"490G00009408"},{"icsId":"1013580","id":"490013580M","lat":51.508547,"lon":-0.340101,"name":"Half Acre Road","parentId":"490G00013580","stationId":"490G00013580","stopLetter":"M","topMostParentId":"490G00013580"},{"icsId":"1007760","id":"490007760E1","lat":51.508828,"lon":-0.335177,"name":"Hanwell Broadway","parentId":"490G00007760","stationId":"490G00007760","stopLetter":"G","topMostParentId":"490G00007760"},{"icsId":"1007549","id":"490007549E","lat":51.509632,"lon":-0.329095,"name":"Grosvenor Road","parentId":"490G00007549","stationId":"490G00007549","stopLetter":"->E","topMostParentId":"490G00007549"},{"icsId":"1014430","id":"490014430W","lat":51.510054,"lon":-0.325275,"name":"West Ealing Broadway","parentId":"490G00014430","stationId":"490G00014430","stopLetter":"W","topMostParentId":"490G00014430"},{"icsId":"1010367","id":"490010362R","lat":51.510689,"lon":-0.321246,"name":"Dean Gardens / Bedford Road","parentId":"490G00010367","stationId":"490G00010367","stopLetter":"R","topMostParentId":"490G00010367"},{"icsId":"1015251","id":"490004500N","lat":51.511421,"lon":-0.316463,"name":"Dane Road","parentId":"490G00015251","stationId":"490G00015251","stopLetter":"N","topMostParentId":"490G00015251"},{"icsId":"1012763","id":"490012763E","lat":51.512083,"lon":-0.312519,"name":"St Leonards Road","parentId":"490G00012763","stationId":"490G00012763","stopLetter":"U","topMostParentId":"490G00012763"},{"icsId":"1004143","id":"490019653E","lat":51.513013,"lon":-0.306547,"name":"Bond Street","parentId":"490G00004143","stationId":"490G00004143","topMostParentId":"490G00004143"},{"icsId":"1007939","id":"490000062A","lat":51.515603,"lon":-0.302185,"name":"Ealing Broadway Station   / Haven Green","parentId":"490G00007939","stationId":"490G00007939","stopLetter":"A","topMostParentId":"490G00007939"}]}]}