{"direction":"outbound","lineId":"e9","lineName":"E9","mode":"bus","stopPointSequences":[{"stopPoint":[{"icsId":"1014337","id":"490014337S1","lat":51.53012,"lon":-0.40562,"name":"Welbeck Avenue","parentId":"490G00014337","stationId":"490G00014337","stopLetter":"->S","topMostParentId":"490G00014337"},{"icsId":"1003528","id":"490003528Z","lat":51.531741,"lon":-0.406443,"name":"Ayles Road","parentId":"490G00003528","stationId":"490G00003528","stopLetter":"->N","topMostParentId":"490G00003528"},{"icsId":"1007610","id":"490007610E","lat":51.53335,"lon":-0.403056,"name":"Gurney Road","parentId":"490G00007610","stationId":"490G00007610","stopLetter":"->E","topMostParentId":"490G00007610"},{"icsId":"1008784","id":"490008784N","lat":51.533602,"lon":-0.396487,"name":"Kingshill Avenue","parentId":"490G00008784","stationId":"490G00008784","stopLetter":"K","topMostParentId":"490G00008784"},{"icsId":"1015478","id":"490015478N","lat":51.535884,"lon":-0.392427,"name":"Tangmere Gardens","parentId":"490G00015478","stationId":"490G00015478","stopLetter":"N","topMostParentId":"490G00015478"},{"icsId":"1015479","id":"490015479E","lat":51.535019,"lon":-0.389041,"name":"Church Road","parentId":"490G00015479","stationId":"490G00015479","stopLetter":"Y","topMostParentId":"490G00015479"},{"icsId":"1008596","id":"490008596E","lat":51.533244,"lon":-0.384836,"name":"Wayfarer Road","parentId":"490G00008596","stationId":"490G00008596","stopLetter":"->E","topMostParentId":"490G00008596"},{"icsId":"1004373","id":"490004373E","lat":51.532929,"lon":-0.378272,"name":"Broadmead Road","parentId":"490G00004373","stationId":"490G00004373","stopLetter":"WE","topMostParentId":"490G00004373"},{"icsId":"1003116","id":"490003116E","lat":51.532755,"lon":-0.372872,"name":"Adrienne Avenue","parentId":"490G00003116","stationId":"490G00003116","stopLetter":"WF","topMostParentId":"490G00003116"},{"icsId":"1007782","id":"490007782E","lat":51.532368,"lon":-0.368286,"name":"Greenford High School","parentId":"490G00007782","stationId":"490G00007782","stopLetter":"EG","topMostParentId":"490G00007782"},{"icsId":"1006369","id":"490006369E","lat":51.529938,"lon":-0.363616,"name":"Eastmead Avenue","parentId":"490G00006369","stationId":"490G00006369","stopLetter":"EH","topMostParentId":"490G00006369"},{"icsId":"1010897","id":"490010897E1","lat":51.528681,"lon":-0.359278,"name":"Pembroke Road","parentId":"490G00010897","stationId":"490G00010897","stopLetter":"H","topMostParentId":"490G00010897"},{"icsId":"1007446","id":"490007446C","lat":51.528033,"lon":-0.354097,"name":"Greenford Broadway","parentId":"490G00007446","stationId":"490G00007446","stopLetter":"J","topMostParentId":"490G00007446"},{"icsId":"1007441","id":"490007441J","lat":51.527402,"lon":-0.350761,"name":"Clifton Road","parentId":"490G00007441","stationId":"490G00007441","stopLetter":"L","topMostParentId":"490G00007441"},{"icsId":"1007443","id":"490007443E","lat":51.527384,"lon":-0.341852,"name":"Greenford Avenue","parentId":"490G00007443","stationId":"490G00007443","stopLetter":"RS","topMostParentId":"490G00007443"},{"icsId":"1005880","id":"490005880E","lat":51.527724,"lon":-0.338596,"name":"Cuckoo Avenue","parentId":"490G00005880","stationId":"490G00005880","stopLetter":"RT","topMostParentId":"490G00005880"},{"icsId":"1007609","id":"490007609E","lat":51.528649,"lon":-0.331542,"name":"Gurnell Leisure Centre","parentId":"490G00007609","stationId":"490G00007609","stopLetter":"RW","topMostParentId":"490G00007609"},{"icsId":"1011787","id":"490011787S","lat":51.528,"lon":-0.326375,"name":"Ruislip Road East","parentId":"490G00011787","stationId":"490G00011787","stopLetter":"AA","topMostParentId":"490G00011787"},{"icsId":"1011949","id":"490011949S","lat":51.525046,"lon":-0.32412,"name":"Scotch Common","parentId":"490G00011949","stationId":"490G00011949","stopLetter":"AB","topMostParentId":"490G00011949"},{"icsId":"1008654","id":"490008654E","lat":51.525092,"lon":-0.319159,"name":"Kent Gardens","parentId":"490G00008654","stationId":"490G00008654","stopLetter":"SC","topMostParentId":"490G00008654"},{"icsId":"1011029","id":"490011029E","lat":51.526131,"lon":-0.313859,"name":"Pitshanger Library","parentId":"490G00011029","stationId":"490G00011029","stopLetter":"SM","topMostParentId":"490G00011029"},{"icsId":"1012634","id":"490012634E","lat":51.526922,"lon":-0.309462,"name":"St Barnabas Church","parentId":"490G00012634","stationId":"490G00012634","stopLetter":"SN","topMostParentId":"490G00012634"},{"icsId":"1005149","id":"490005149S","lat":51.523604,"lon":-0.308273,"name":"Fairlea Place","parentId":"490G00005149","stationId":"490G00005149","stopLetter":"SP","topMostParentId":"490G00005149"},{"icsId":"1010001","id":"490010001S","lat":51.521548,"lon":-0.306605,"name":"Montpelier Road","parentId":"490G00010001","stationId":"490G00010001","stopLetter":"SQ","topMostParentId":"490G00010001"},{"icsId":"1009636","id":"490009637S","lat":51.520255,"lon":-0.306105,"name":"Marchwood Crescent","parentId":"490G00009636","stationId":"490G00009636","stopLetter":"SR","topMostParentId":"490G00009636"},{"icsId":"1006279","id":"490006279S","lat":51.516769,"lon":-0.30635,"name":"Castlebar Road","parentId":"490G00006279","stationId":"490G00006279","stopLetter":"ST","topMostParentId":"490G00006279"},{"icsId":"1007939","id":"490000062A","lat":51.515603,"lon":-0.302185,"name":"Ealing Broadway Station   / Haven Green","parentId":"490G00007939","stationId":"490G00007939","stopLetter":"A","topMostParentId":"490G00007939"}]}]}