{"direction":"outbound","lineId":"el1","lineName":"EL1","mode":"bus","stopPointSequences":[{"stopPoint":[{"icsId":"1008467","id":"490008467F","lat":51.55816,"lon":0.068915,"name":"Ilford Hill","parentId":"490G000605","stationId":"490G000605","stopLetter":"F","topMostParentId":"490G000605"},{"icsId":"1004985","id":"490004986P","lat":51.557696,"lon":0.070235,"name":"Chapel Road","parentId":"490G00004985","stationId":"490G00004985","stopLetter":"P","topMostParentId":"490G00004985"},{"icsId":"1006219","id":"490006219S","lat":51.554043,"lon":0.072911,"name":"Dudley Road","parentId":"490G00006219","stationId":"490G00006219","stopLetter":"D","topMostParentId":"490G00006219"},{"icsId":"1009510","id":"490009510S","lat":51.5516,"lon":0.074214,"name":"Kingston Road","parentId":"490G00009510","stationId":"490G00009510","stopLetter":"E","topMostParentId":"490G00009510"},{"icsId":"1014781","id":"490014781S","lat":51.548623,"lon":0.075795,"name":"Wingate Road","parentId":"490G00014781","stationId":"490G00014781","stopLetter":"F","topMostParentId":"490G00014781"},{"icsId":"1010310","id":"490011652S","lat":51.545444,"lon":0.077049,"name":"Loxford Polyclinic","parentId":"490G00010310","stationId":"490G00010310","stopLetter":"H","topMostParentId":"490G00010310"},{"icsId":"1009433","id":"490009432S","lat":51.543588,"lon":0.078767,"name":"Park Avenue","parentId":"490G00009433","stationId":"490G00009433","topMostParentId":"490G00009433"},{"icsId":"1009294","id":"490009294S","lat":51.541683,"lon":0.082257,"name":"Longbridge Road","parentId":"490G00009294","stationId":"490G00009294","stopLetter":"R","topMostParentId":"490G00009294"},{"icsId":"1000015","id":"490000015H","lat":51.539235,"lon":0.081367,"name":"Barking Station","parentId":"490G00015G","stationId":"490G00015G","stopLetter":"H","topMostParentId":"HUBBKG","zone":"4"},{"icsId":"1018828","id":"490018828S","lat":51.537342,"lon":0.080574,"name":"Vicarage Field Shopping Centre","parentId":"490G00018828","stationId":"490G00018828","stopLetter":"EL","topMostParentId":"490G00018828"},{"icsId":"1013015","id":"490013015U","lat":51.536052,"lon":0.081813,"name":"Sunningdale Avenue","parentId":"490G00013015","stationId":"490G00013015","stopLetter":"U","topMostParentId":"490G00013015"},{"icsId":"1008741","id":"490008741E","lat":51.534239,"lon":0.08519,"name":"King Edwards Road","parentId":"490G00008741","stationId":"490G00008741","stopLetter":"V","topMostParentId":"490G00008741"},{"icsId":"1008638","id":"490008638S","lat":51.531943,"lon":0.091415,"name":"Greatfields Park","parentId":"490G00008638","stationId":"490G00008638","stopLetter":"P","topMostParentId":"490G00008638"},{"icsId":"1003223","id":"490003223S","lat":51.528112,"lon":0.093921,"name":"Waverley Gardens","parentId":"490G00003223","stationId":"490G00003223","stopLetter":"Q","topMostParentId":"490G00003223"},{"icsId":"1005911","id":"490005911E","lat":51.527612,"lon":0.095729,"name":"Curzon Crescent","parentId":"490G00005911","stationId":"490G00005911","stopLetter":"S","topMostParentId":"490G00005911"},{"icsId":"1013221","id":"490013221E","lat":51.528284,"lon":0.099883,"name":"Thames View / Christ Church","parentId":"490G00013221","stationId":"490G00013221","stopLetter":"->E","topMostParentId":"490G00013221"},{"icsId":"1013223","id":"490013223E","lat":51.528288,"lon":0.10467,"name":"Thames View Health Centre","parentId":"490G00013223","stationId":"490G00013223","stopLetter":"A","topMostParentId":"490G00013223"},{"icsId":"1007235","id":"490007235E","lat":51.527811,"lon":0.109233,"name":"Glenmore Way","parentId":"490G00007235","stationId":"490G00007235","stopLetter":"B","topMostParentId":"490G00007235"},{"icsId":"1003177","id":"490003177E","lat":51.526971,"lon":0.112913,"name":"Alderman Avenue","parentId":"490G00003177","stationId":"490G00003177","stopLetter":"C","topMostParentId":"490G00003177"},{"icsId":"1013222","id":"490013222W","lat":51.526526,"lon":0.115632,"name":"Renwick Road","parentId":"490G00013222","stationId":"490G00013222","topMostParentId":"490G00013222"},{"icsId":"1090108","id":"490000288E","lat":51.524748,"lon":0.115031,"name":"Estuary Close","parentId":"490G00090108","stationId":"490G00090108","stopLetter":"S","topMostParentId":"490G00090108"},{"icsId":"1009654","id":"490009651S","lat":51.52391,"lon":0.112109,"name":"Anchor Close","parentId":"490G00009654","stationId":"490G00009654","stopLetter":"T","topMostParentId":"490G00009654"},{"icsId":"1016747","id":"490016747W","lat":51.522856,"lon":0.108701,"name":"Shearwater Close","parentId":"490G00016747","stationId":"490G00016747","stopLetter":"U","topMostParentId":"490G00016747"},{"icsId":"1000289","id":"490000289S","lat":51.521786,"lon":0.109228,"name":"Rivergate Centre","parentId":"490G00000289","stationId":"490G00000289","stopLetter":"V","topMostParentId":"490G00000289"},{"icsId":"1000888","id":"490000888Y","lat":51.520455,"lon":0.110219,"name":"Minter Road","parentId":"490G000207","stationId":"490G000207","topMostParentId":"490G000207"},{"icsId":"1000865","id":"490000865Z","lat":51.518506,"lon":0.112594,"name":"River Road","parentId":"490G000186","stationId":"490G000186","topMostParentId":"490G000186"},{"icsId":"1000985","id":"490000985Y","lat":51.519451,"lon":0.118028,"name":"Fielders Crescent / Brl Project Office","parentId":"490G000265","stationId":"490G000265","topMostParentId":"490G000265"},{"icsId":"1000719","id":"490000719Y","lat":51.521706,"lon":0.119618,"name":"Riverside Campus","parentId":"490G000129","stationId":"490G000129","topMostParentId":"490G000129"},{"id":"490001987Z","lat":51.525528,"lon":0.123601,"name":"Northgate Road","parentId":"490G000311","stationId":"490G000311","topMostParentId":"490G000311"}]}]}