{"direction":"outbound","lineId":"g1","lineName":"G1","mode":"bus","stopPointSequences":[{"stopPoint":[{"icsId":"1008080","id":"490008080S","lat":51.414847,"lon":-0.123153,"name":"Hermitage Lane","parentId":"490G00008080","stationId":"490G00008080","stopLetter":"S","topMostParentId":"490G00008080"},{"icsId":"1003389","id":"490003389N","lat":51.416691,"lon":-0.125982,"name":"Arragon Gardens","parentId":"490G00003389","stationId":"490G00003389","stopLetter":"CK","topMostParentId":"490G00003389"},{"icsId":"1008618","id":"490008618N","lat":51.419033,"lon":-0.127972,"name":"Kempshott Road","parentId":"490G00008618","stationId":"490G00008618","stopLetter":"CL","topMostParentId":"490G00008618"},{"icsId":"1012924","id":"490012924N","lat":51.42116,"lon":-0.12882,"name":"Streatham Common / Greyhound Lane","parentId":"490G00012924","stationId":"490G00012924","stopLetter":"CM","topMostParentId":"490G00012924"},{"icsId":"1001279","id":"490012929S4","lat":51.424968,"lon":-0.130736,"name":"Streatham Station","parentId":"490G01279S3","stationId":"490G01279S3","stopLetter":"SH","topMostParentId":"910GSTRETHM"},{"icsId":"1012761","id":"490012761SQ","lat":51.428385,"lon":-0.13133,"name":"St Leonard's Church","parentId":"490G00012761","stationId":"490G00012761","stopLetter":"SK","topMostParentId":"490G00012761"},{"icsId":"1012933","id":"490012761ST","lat":51.42842,"lon":-0.131832,"name":"Streatham / St Leonard's Church","parentId":"490G00012933","stationId":"490G00012933","stopLetter":"SL","topMostParentId":"490G00012933"},{"icsId":"1007121","id":"490007121W","lat":51.430258,"lon":-0.136519,"name":"Garrad's Road","parentId":"490G00007121","stationId":"490G00007121","stopLetter":"S","topMostParentId":"490G00007121"},{"icsId":"1011220","id":"490011220W","lat":51.428626,"lon":-0.144195,"name":"Ullathorne Road","parentId":"490G00011220","stationId":"490G00011220","stopLetter":"M","topMostParentId":"490G00011220"},{"icsId":"1003990","id":"490003990P","lat":51.425981,"lon":-0.165836,"name":"Bickley Street","parentId":"490G00003990","stationId":"490G00003990","stopLetter":"P","topMostParentId":"490G00003990"},{"icsId":"1000234","id":"490000234H","lat":51.427158,"lon":-0.166911,"name":"Tooting Broadway Station","parentId":"490G00234G","stationId":"490G00234G","stopLetter":"H","topMostParentId":"940GZZLUTBY","zone":"3"},{"icsId":"1015513","id":"490015513K","lat":51.427232,"lon":-0.168792,"name":"Tooting Broadway  / Sth Thames College","parentId":"490G000906","stationId":"490G000906","stopLetter":"K","topMostParentId":"490G000906"},{"icsId":"1010468","id":"490010468H10","lat":51.425874,"lon":-0.169925,"name":"Nutwell Street","parentId":"490G00010468","stationId":"490G00010468","stopLetter":"HF","topMostParentId":"490G00010468"},{"icsId":"1009332","id":"490009332H9","lat":51.423981,"lon":-0.171972,"name":"Longley Road","parentId":"490G00009332","stationId":"490G00009332","stopLetter":"HG","topMostParentId":"490G00009332"},{"icsId":"1012696","id":"490012696N","lat":51.424301,"lon":-0.175138,"name":"St George's Hospital","parentId":"490G00012696","stationId":"490G00012696","stopLetter":"HH","topMostParentId":"490G00012696"},{"icsId":"1019074","id":"490012701H4","lat":51.427602,"lon":-0.175208,"name":"St George's / University Of London","parentId":"490G00019074","stationId":"490G00019074","stopLetter":"HA","topMostParentId":"490G00019074"},{"icsId":"1019075","id":"490012701H7","lat":51.427668,"lon":-0.171925,"name":"St George's Hospital / Lanesborough Wing","parentId":"490G00019075","stationId":"490G00019075","stopLetter":"HC","topMostParentId":"490G00019075"},{"icsId":"1012701","id":"490012701S","lat":51.426332,"lon":-0.17277,"name":"St George's Hospital / Main Entrance","parentId":"490G00012701","stationId":"490G00012701","stopLetter":"HV","topMostParentId":"490G00012701"},{"icsId":"1019076","id":"490012701H6","lat":51.425615,"lon":-0.174093,"name":"St George's Hospital / St James Wing","parentId":"490G00019076","stationId":"490G00019076","stopLetter":"HD","topMostParentId":"490G00019076"},{"icsId":"1019073","id":"490012701E","lat":51.425306,"lon":-0.176781,"name":"St George's Hosp / Knightsbridge Wing","parentId":"490G00019073","stationId":"490G00019073","stopLetter":"HE","topMostParentId":"490G00019073"},{"icsId":"1003149","id":"490003149N","lat":51.428067,"lon":-0.176225,"name":"Cranmer Terrace","parentId":"490G00003149","stationId":"490G00003149","topMostParentId":"490G00003149"},{"icsId":"1006718","id":"490006718H2","lat":51.430208,"lon":-0.174485,"name":"Fairlight Road","parentId":"490G00006718","stationId":"490G00006718","stopLetter":"HR","topMostParentId":"490G00006718"},{"icsId":"1012920","id":"490012920W","lat":51.431876,"lon":-0.177138,"name":"Streatham Cemetery","parentId":"490G00012920","stationId":"490G00012920","stopLetter":"SA","topMostParentId":"490G00012920"},{"icsId":"1007123","id":"490007123W","lat":51.43248,"lon":-0.18012,"name":"Wimbledon Road","parentId":"490G00007123","stationId":"490G00007123","stopLetter":"SB","topMostParentId":"490G00007123"},{"icsId":"1012694","id":"490018848E","lat":51.436246,"lon":-0.178805,"name":"St George's Grove","parentId":"490G00012694","stationId":"490G00012694","topMostParentId":"490G00012694"},{"icsId":"1019502","id":"490012694E","lat":51.434462,"lon":-0.176272,"name":"Grosvenor Way","parentId":"490G00019502","stationId":"490G00019502","topMostParentId":"490G00019502"},{"icsId":"1004622","id":"490004622E","lat":51.438418,"lon":-0.180259,"name":"Burntwood School","parentId":"490G00004622","stationId":"490G00004622","stopLetter":"SU","topMostParentId":"490G00004622"},{"icsId":"1010604","id":"490010604E","lat":51.439597,"lon":-0.178025,"name":"Openview","parentId":"490G00010604","stationId":"490G00010604","stopLetter":"->E","topMostParentId":"490G00010604"},{"icsId":"1016695","id":"490016695N","lat":51.438656,"lon":-0.173055,"name":"Springfield University Hospital","parentId":"490G00016695","stationId":"490G00016695","topMostParentId":"490G00016695"},{"icsId":"1013669","id":"490013669E","lat":51.440829,"lon":-0.17458,"name":"Tilehurst Road","parentId":"490G00013669","stationId":"490G00013669","stopLetter":"->E","topMostParentId":"490G00013669"},{"icsId":"1009649","id":"490009649E","lat":51.441852,"lon":-0.171517,"name":"Marham Gardens","parentId":"490G00009649","stationId":"490G00009649","stopLetter":"M","topMostParentId":"490G00009649"},{"icsId":"1019728","id":"490013044G","lat":51.443543,"lon":-0.168701,"name":"Trinity Road","parentId":"490G00019728","stationId":"490G00019728","stopLetter":"G","topMostParentId":"490G00019728"},{"icsId":"1001309","id":"490001309A","lat":51.44593,"lon":-0.166044,"name":"Wandsworth Common Station","parentId":"490G01309A","stationId":"490G01309A","stopLetter":"A","topMostParentId":"910GWANDCMN"},{"icsId":"1004132","id":"490004132E","lat":51.448614,"lon":-0.1629,"name":"Bolingbroke Grove","parentId":"490G00004132","stationId":"490G00004132","stopLetter":"K","topMostParentId":"490G00004132"},{"icsId":"1011792","id":"490011792E","lat":51.450161,"lon":-0.158333,"name":"Oak Lodge School","parentId":"490G00011792","stationId":"490G00011792","stopLetter":"->E","topMostParentId":"490G00011792"},{"icsId":"1011411","id":"490011411E","lat":51.45096,"lon":-0.155394,"name":"Ramsden Road","parentId":"490G00011411","stationId":"490G00011411","stopLetter":"->E","topMostParentId":"490G00011411"},{"icsId":"1013652","id":"490013652E","lat":51.452717,"lon":-0.152156,"name":"Thurleigh Avenue","parentId":"490G00013652","stationId":"490G00013652","stopLetter":"SU","topMostParentId":"490G00013652"},{"icsId":"1000052","id":"490000052SB","lat":51.453009,"lon":-0.148431,"name":"Clapham South Station","parentId":"490G00052SD","stationId":"490G00052SD","stopLetter":"SB","topMostParentId":"940GZZLUCPS","zone":"2+3"},{"icsId":"1015965","id":"490015965W","lat":51.456657,"lon":-0.153955,"name":"Broomwood Road","parentId":"490G00015965","stationId":"490G00015965","stopLetter":"->W","topMostParentId":"490G00015965"},{"icsId":"1005964","id":"490005964N","lat":51.454182,"lon":-0.164144,"name":"Darley Road","parentId":"490G00005964","stationId":"490G00005964","stopLetter":"->N","topMostParentId":"490G00005964"},{"icsId":"1011862","id":"490011862N","lat":51.457844,"lon":-0.16597,"name":"Salcott Road","parentId":"490G00011862","stationId":"490G00011862","stopLetter":"->N","topMostParentId":"490G00011862"},{"icsId":"1005333","id":"490005333V","lat":51.461764,"lon":-0.167641,"name":"Clapham Junction / The Northcote","parentId":"490G00005333","stationId":"490G00005333","stopLetter":"V","topMostParentId":"HUBCLJ"},{"icsId":"1005332","id":"490005332P","lat":51.463223,"lon":-0.167827,"name":"Clapham Junction Station  / The Falcon","parentId":"490G000462","stationId":"490G000462","stopLetter":"P","topMostParentId":"HUBCLJ"},{"icsId":"1009007","id":"490009008K","lat":51.464216,"lon":-0.164591,"name":"Lavender Hill Police Station","parentId":"490G00009007","stationId":"490G00009007","stopLetter":"K","topMostParentId":"490G00009007"},{"icsId":"1014649","id":"490014649S","lat":51.46951,"lon":-0.154127,"name":"Shaftesbury Estate / Wickersley Road","parentId":"490G00014649","stationId":"490G00014649","stopLetter":"Z","topMostParentId":"490G00014649"}]}]}