{"direction":"outbound","lineId":"h17","lineName":"H17","mode":"bus","stopPointSequences":[{"stopPoint":[{"icsId":"1007845","id":"490007845C","lat":51.579973,"lon":-0.337586,"name":"Harrow Bus Station","parentId":"490G000574","stationId":"490G000574","stopLetter":"C","topMostParentId":"490G000574"},{"icsId":"1015347","id":"490015347M","lat":51.57957,"lon":-0.333921,"name":"Harrow Town Centre","parentId":"490G00015347","stationId":"490G00015347","stopLetter":"M","topMostParentId":"490G00015347"},{"icsId":"1010958","id":"490010958S","lat":51.577587,"lon":-0.333546,"name":"Tyburn Lane","parentId":"490G000702","stationId":"490G000702","stopLetter":"F","topMostParentId":"490G000702"},{"icsId":"1008672","id":"490008672S","lat":51.575328,"lon":-0.333398,"name":"Kenton Road","parentId":"490G00008672","stationId":"490G00008672","topMostParentId":"490G00008672"},{"icsId":"1007866","id":"490007866S","lat":51.572348,"lon":-0.33759,"name":"Harrow School","parentId":"490G00007866","stationId":"490G00007866","stopLetter":"->S","topMostParentId":"490G00007866"},{"icsId":"1007854","id":"490007854S","lat":51.569618,"lon":-0.339753,"name":"Harrow Park","parentId":"490G00007854","stationId":"490G00007854","stopLetter":"RM","topMostParentId":"490G00007854"},{"icsId":"1011746","id":"490011747S","lat":51.567501,"lon":-0.33947,"name":"Roxeth Hill","parentId":"490G00011746","stationId":"490G00011746","stopLetter":"RK","topMostParentId":"490G00011746"},{"icsId":"1005388","id":"490005388E","lat":51.563472,"lon":-0.334408,"name":"Clementine Churchill Hospital","parentId":"490G00005388","stationId":"490G00005388","stopLetter":"H","topMostParentId":"490G00005388"},{"icsId":"1007863","id":"490007863S","lat":51.561166,"lon":-0.332848,"name":"Harrow Road","parentId":"490G00007863","stationId":"490G00007863","stopLetter":"N","topMostParentId":"490G00007863"},{"icsId":"1001283","id":"490001283B","lat":51.557481,"lon":-0.335521,"name":"Sudbury Hill Station","parentId":"490G01283B","stationId":"490G01283B","stopLetter":"P","topMostParentId":"910GSDBRYHH"},{"icsId":"1007078","id":"490007078S","lat":51.554521,"lon":-0.337274,"name":"Gainsboro Gardens","parentId":"490G00007078","stationId":"490G00007078","stopLetter":"Q","topMostParentId":"490G00007078"},{"icsId":"1011567","id":"490011567E","lat":51.553529,"lon":-0.333329,"name":"Ridding Lane","parentId":"490G00011567","stationId":"490G00011567","stopLetter":"S","topMostParentId":"490G00011567"},{"icsId":"1011706","id":"490011706E","lat":51.552756,"lon":-0.326376,"name":"Rosewood Avenue","parentId":"490G00011706","stationId":"490G00011706","topMostParentId":"490G00011706"},{"icsId":"1003231","id":"490003231E","lat":51.550795,"lon":-0.32065,"name":"Allendale Road","parentId":"490G00003231","stationId":"490G00003231","stopLetter":"->E","topMostParentId":"490G00003231"},{"icsId":"1000228","id":"490000228D","lat":51.549685,"lon":-0.317243,"name":"Sudbury Town Station","parentId":"490G00228E","stationId":"490G00228E","stopLetter":"D","topMostParentId":"940GZZLUSUT","zone":"4"},{"icsId":"1012981","id":"490012981E","lat":51.548265,"lon":-0.312911,"name":"Sudbury Golf Club","parentId":"490G00012981","stationId":"490G00012981","stopLetter":"->E","topMostParentId":"490G00012981"},{"icsId":"1005519","id":"490005519N","lat":51.550935,"lon":-0.313519,"name":"Colyton Close","parentId":"490G000466","stationId":"490G000466","stopLetter":"H","topMostParentId":"490G000466"},{"icsId":"1013365","id":"490013363S","lat":51.551527,"lon":-0.311521,"name":"Barham Park","parentId":"490G00013365","stationId":"490G00013365","stopLetter":"HJ","topMostParentId":"490G00013365"},{"icsId":"1016091","id":"490016091E","lat":51.549778,"lon":-0.309942,"name":"Farm Avenue","parentId":"490G00016091","stationId":"490G00016091","stopLetter":"HK","topMostParentId":"490G00016091"},{"icsId":"1014382","id":"490014382E","lat":51.549844,"lon":-0.305194,"name":"Wembley Hospital","parentId":"490G00014382","stationId":"490G00014382","stopLetter":"HL","topMostParentId":"490G00014382"},{"icsId":"1016092","id":"490016092E","lat":51.550531,"lon":-0.299211,"name":"Ealing Road","parentId":"490G00016092","stationId":"490G00016092","stopLetter":"CY","topMostParentId":"490G00016092"},{"icsId":"1000256","id":"490000256","lat":51.551589,"lon":-0.297167,"name":"Wembley Central Station","parentId":"490G00256X","stationId":"490G00256X","stopLetter":"CP","topMostParentId":"HUBWMB","zone":"4"}]}]}