{"direction":"outbound","lineId":"h20","lineName":"H20","mode":"bus","stopPointSequences":[{"stopPoint":[{"icsId":"1008426","id":"490008394N2","lat":51.474359,"lon":-0.365735,"name":"Hounslow Civic Centre","parentId":"490G00008426","stationId":"490G00008426","stopLetter":"->N","topMostParentId":"490G00008426"},{"icsId":"1008394","id":"490008394S","lat":51.473785,"lon":-0.365842,"name":"Lampton Road / Hounslow Civic Centre","parentId":"490G00008394","stationId":"490G00008394","stopLetter":"->S","topMostParentId":"490G00008394"},{"icsId":"1000116","id":"4900001162","lat":51.470897,"lon":-0.367039,"name":"Hounslow Central Station","parentId":"490G001161","stationId":"490G001161","stopLetter":"YY","topMostParentId":"940GZZLUHWC","zone":"4"},{"icsId":"1008391","id":"490008391Y","lat":51.468593,"lon":-0.36692,"name":"Bell Corner","parentId":"490G000600","stationId":"490G000600","stopLetter":"Y","topMostParentId":"490G000600"},{"icsId":"1013259","id":"490013259U","lat":51.467075,"lon":-0.366412,"name":"The Bell","parentId":"490G00013259","stationId":"490G00013259","stopLetter":"U","topMostParentId":"490G00013259"},{"icsId":"1003854","id":"490003854S","lat":51.465831,"lon":-0.364197,"name":"Bell Road","parentId":"490G00003854","stationId":"490G00003854","stopLetter":"Z","topMostParentId":"490G00003854"},{"icsId":"1011160","id":"490011160S","lat":51.464395,"lon":-0.362492,"name":"Pownall Gardens","parentId":"490G00011160","stationId":"490G00011160","stopLetter":"SA","topMostParentId":"490G00011160"},{"icsId":"1008496","id":"490008496E","lat":51.463821,"lon":-0.360655,"name":"Heath Road","parentId":"490G000611","stationId":"490G000611","stopLetter":"SB","topMostParentId":"490G000611"},{"icsId":"1008010","id":"490008010S","lat":51.463496,"lon":-0.356103,"name":"Lyncroft Gardens","parentId":"490G00008010","stationId":"490G00008010","topMostParentId":"490G00008010"},{"icsId":"1010298","id":"490010298S","lat":51.461908,"lon":-0.351842,"name":"Norbury Avenue","parentId":"490G00010298","stationId":"490G00010298","stopLetter":"->S","topMostParentId":"490G00010298"},{"icsId":"1004919","id":"490004919N","lat":51.461216,"lon":-0.349333,"name":"Reapers Way","parentId":"490G00004919","stationId":"490G00004919","stopLetter":"->N","topMostParentId":"490G00004919"},{"icsId":"1006392","id":"490006392W","lat":51.463442,"lon":-0.347784,"name":"Eaton Road","parentId":"490G00006392","stationId":"490G00006392","stopLetter":"->N","topMostParentId":"490G00006392"},{"icsId":"1008005","id":"490008005N","lat":51.465715,"lon":-0.346982,"name":"Heath Road","parentId":"490G00008005","stationId":"490G00008005","stopLetter":"->N","topMostParentId":"490G00008005"},{"icsId":"1005384","id":"490005384E","lat":51.466868,"lon":-0.342002,"name":"Clayton Road","parentId":"490G00005384","stationId":"490G00005384","stopLetter":"->E","topMostParentId":"490G00005384"},{"icsId":"1011805","id":"490011805E","lat":51.467179,"lon":-0.337283,"name":"Ruskin Road","parentId":"490G00011805","stationId":"490G00011805","stopLetter":"->E","topMostParentId":"490G00011805"},{"icsId":"1005440","id":"490005440E","lat":51.467578,"lon":-0.334375,"name":"Clock Tower Industrial Estate","parentId":"490G00005440","stationId":"490G00005440","stopLetter":"TS","topMostParentId":"490G00005440"},{"icsId":"1008511","id":"490014954TM","lat":51.466943,"lon":-0.329589,"name":"Isleworth Library","parentId":"490G00008511","stationId":"490G00008511","stopLetter":"TM","topMostParentId":"490G00008511"},{"icsId":"1004260","id":"490004260S","lat":51.465229,"lon":-0.330473,"name":"Brantwood Avenue","parentId":"490G00004260","stationId":"490G00004260","topMostParentId":"490G00004260"},{"icsId":"1003580","id":"490003580S","lat":51.462918,"lon":-0.331694,"name":"Lynton Close","parentId":"490G00003580","stationId":"490G00003580","stopLetter":"A","topMostParentId":"490G00003580"},{"icsId":"1013872","id":"490013872W","lat":51.460248,"lon":-0.332411,"name":"Briar Close","parentId":"490G00013872","stationId":"490G00013872","stopLetter":"H","topMostParentId":"490G00013872"},{"icsId":"1012998","id":"490012999S","lat":51.459918,"lon":-0.333229,"name":"Thirlmere House","parentId":"490G00012998","stationId":"490G00012998","stopLetter":"T","topMostParentId":"490G00012998"},{"icsId":"1008856","id":"490008856W","lat":51.457535,"lon":-0.33261,"name":"Kirkstone Lodge","parentId":"490G00008856","stationId":"490G00008856","stopLetter":"U","topMostParentId":"490G00008856"},{"icsId":"1006310","id":"490015377N","lat":51.458191,"lon":-0.336329,"name":"Easedale House","parentId":"490G00006310","stationId":"490G00006310","stopLetter":"V","topMostParentId":"490G00006310"},{"icsId":"1013876","id":"490013876S","lat":51.459039,"lon":-0.339709,"name":"Twickenham Tesco","parentId":"490G00013876","stationId":"490G00013876","stopLetter":"F","topMostParentId":"490G00013876"}]}]}