{"direction":"outbound","lineId":"h25","lineName":"H25","mode":"bus","stopPointSequences":[{"stopPoint":[{"icsId":"1005258","id":"490005258W","lat":51.440092,"lon":-0.374972,"name":"Churchfields Avenue","parentId":"490G00005258","stationId":"490G00005258","stopLetter":"->W","topMostParentId":"490G00005258"},{"icsId":"1014280","id":"490014280W","lat":51.441537,"lon":-0.378691,"name":"Water Mill Way","parentId":"490G00014280","stationId":"490G00014280","topMostParentId":"490G00014280"},{"icsId":"1013750","id":"490013750W","lat":51.442913,"lon":-0.380642,"name":"Towfield Road","parentId":"490G00013750","stationId":"490G00013750","topMostParentId":"490G00013750"},{"icsId":"1008403","id":"490008403W","lat":51.444412,"lon":-0.385007,"name":"Sunningdale Avenue","parentId":"490G00008403","stationId":"490G00008403","stopLetter":"AW","topMostParentId":"490G00008403"},{"icsId":"1011940","id":"490011940S","lat":51.443939,"lon":-0.385916,"name":"Pevensey Road","parentId":"490G00011940","stationId":"490G00011940","stopLetter":"AU","topMostParentId":"490G00011940"},{"icsId":"1013970","id":"490013970N2","lat":51.441497,"lon":-0.388218,"name":"Uxbridge Road","parentId":"490G00013970","stationId":"490G00013970","stopLetter":"AV","topMostParentId":"490G00013970"},{"icsId":"1010807","id":"490010807S","lat":51.436872,"lon":-0.39123,"name":"Park Road","parentId":"490G00010807","stationId":"490G00010807","stopLetter":"A","topMostParentId":"490G00010807"},{"icsId":"1003718","id":"490003718S","lat":51.434177,"lon":-0.392101,"name":"Bear Road Flyover","parentId":"490G00003718","stationId":"490G00003718","stopLetter":"B","topMostParentId":"490G00003718"},{"icsId":"1012703","id":"490012703S","lat":51.432,"lon":-0.391372,"name":"St George's Road","parentId":"490G00012703","stationId":"490G00012703","stopLetter":"C","topMostParentId":"490G00012703"},{"icsId":"1013110","id":"490013110S","lat":51.430562,"lon":-0.390142,"name":"Green Lane","parentId":"490G00013110","stationId":"490G00013110","stopLetter":"D","topMostParentId":"490G00013110"},{"icsId":"1007771","id":"490007771W","lat":51.429556,"lon":-0.390897,"name":"Hanworth War Memorial","parentId":"490G00007771","stationId":"490G00007771","stopLetter":"E","topMostParentId":"490G00007771"},{"icsId":"1009757","id":"490009757S","lat":51.42822,"lon":-0.393777,"name":"Mccarthy Road","parentId":"490G00009757","stationId":"490G00009757","stopLetter":"F","topMostParentId":"490G00009757"},{"icsId":"1013010","id":"490013010E","lat":51.431038,"lon":-0.401289,"name":"Sunbury Way","parentId":"490G00013010","stationId":"490G00013010","stopLetter":"G","topMostParentId":"490G00013010"},{"icsId":"1004851","id":"490004851N","lat":51.432956,"lon":-0.398834,"name":"Castle Way","parentId":"490G00004851","stationId":"490G00004851","stopLetter":"H","topMostParentId":"490G00004851"},{"icsId":"1006813","id":"490006813N","lat":51.436035,"lon":-0.401028,"name":"Fernside Avenue","parentId":"490G00006813","stationId":"490G00006813","stopLetter":"J","topMostParentId":"490G00006813"},{"icsId":"1019772","id":"490011672N","lat":51.438493,"lon":-0.40323,"name":"Clifton Avenue","parentId":"490G00019772","stationId":"490G00019772","stopLetter":"K","topMostParentId":"490G00019772"},{"icsId":"1006782","id":"490006782W","lat":51.437264,"lon":-0.408092,"name":"Felthambrook Way","parentId":"490G00006782","stationId":"490G00006782","stopLetter":"->W","topMostParentId":"490G00006782"},{"icsId":"1004997","id":"490004997W","lat":51.440443,"lon":-0.413752,"name":"Charleston Close","parentId":"490G00004997","stationId":"490G00004997","stopLetter":"X","topMostParentId":"490G00004997"},{"icsId":"1006786","id":"490006786K","lat":51.44281,"lon":-0.412605,"name":"Feltham Tesco","parentId":"490G00006786","stationId":"490G00006786","stopLetter":"K","topMostParentId":"490G00006786"},{"icsId":"1004505","id":"490004505J","lat":51.444613,"lon":-0.410931,"name":"Feltham War Memorial","parentId":"490G00004505","stationId":"490G00004505","stopLetter":"J","topMostParentId":"490G00004505"},{"icsId":"1003789","id":"490003789G","lat":51.446639,"lon":-0.409796,"name":"Feltham Station  / Victoria Road","parentId":"490G000408","stationId":"490G000408","stopLetter":"G","topMostParentId":"490G000408"},{"icsId":"1018664","id":"490001107F","lat":51.447481,"lon":-0.40755,"name":"High Street / Feltham","parentId":"490G00018664","stationId":"490G00018664","stopLetter":"F","topMostParentId":"490G00018664"},{"icsId":"1006784","id":"490006784E","lat":51.44669,"lon":-0.403649,"name":"Feltham Police Station","parentId":"490G00006784","stationId":"490G00006784","stopLetter":"W","topMostParentId":"490G00006784"},{"icsId":"1015730","id":"490015730S","lat":51.451347,"lon":-0.406221,"name":"Feltham Assembly Hall","parentId":"490G00015730","stationId":"490G00015730","stopLetter":"S","topMostParentId":"490G00015730"},{"icsId":"1006781","id":"490006781S","lat":51.450091,"lon":-0.407085,"name":"Fern Grove","parentId":"490G00006781","stationId":"490G00006781","topMostParentId":"490G00006781"},{"icsId":"1001107","id":"490001107B","lat":51.447895,"lon":-0.410918,"name":"Feltham Station","parentId":"490G01107B","stationId":"490G01107B","stopLetter":"B","topMostParentId":"910GFELTHAM"},{"icsId":"1011921","id":"490011921M","lat":51.448221,"lon":-0.412389,"name":"Sandycombe Road","parentId":"490G00011921","stationId":"490G00011921","stopLetter":"M","topMostParentId":"490G00011921"},{"icsId":"1007214","id":"490007214N","lat":51.448773,"lon":-0.414024,"name":"Glebelands Road","parentId":"490G00007214","stationId":"490G00007214","stopLetter":"->N","topMostParentId":"490G00007214"},{"icsId":"1012111","id":"490012111N","lat":51.449911,"lon":-0.418346,"name":"Shore Close","parentId":"490G00012111","stationId":"490G00012111","stopLetter":"->N","topMostParentId":"490G00012111"},{"icsId":"1013143","id":"490013143N","lat":51.451242,"lon":-0.422358,"name":"Tachbrook Road","parentId":"490G00013143","stationId":"490G00013143","stopLetter":"->N","topMostParentId":"490G00013143"},{"icsId":"1012489","id":"490012489W","lat":51.453402,"lon":-0.42653,"name":"Colonial Road","parentId":"490G00012489","stationId":"490G00012489","stopLetter":"BH","topMostParentId":"490G00012489"},{"icsId":"1003791","id":"490003791W","lat":51.453627,"lon":-0.42858,"name":"Bethany Waye","parentId":"490G00003791","stationId":"490G00003791","stopLetter":"K","topMostParentId":"490G00003791"},{"icsId":"1010257","id":"490010257W","lat":51.452954,"lon":-0.431352,"name":"New Road","parentId":"490G00010257","stationId":"490G00010257","stopLetter":"L","topMostParentId":"490G00010257"},{"icsId":"1003790","id":"490003790W","lat":51.451884,"lon":-0.434713,"name":"Bedfont Library","parentId":"490G00003790","stationId":"490G00003790","stopLetter":"M","topMostParentId":"490G00003790"},{"icsId":"1003786","id":"490003786W","lat":51.451355,"lon":-0.438186,"name":"Bedfont Green","parentId":"490G00003786","stationId":"490G00003786","stopLetter":"N","topMostParentId":"490G00003786"},{"icsId":"1012792","id":"490012792N","lat":51.451992,"lon":-0.440783,"name":"St Mary's Church","parentId":"490G00012792","stationId":"490G00012792","stopLetter":"X","topMostParentId":"490G00012792"},{"icsId":"1003784","id":"490003784N","lat":51.45356,"lon":-0.439679,"name":"Bedfont Close","parentId":"490G00003784","stationId":"490G00003784","stopLetter":"U","topMostParentId":"490G00003784"},{"icsId":"1014513","id":"490014513N","lat":51.455623,"lon":-0.436629,"name":"West Road","parentId":"490G00014513","stationId":"490G00014513","stopLetter":"V","topMostParentId":"490G00014513"},{"icsId":"1007972","id":"490007972N","lat":51.458362,"lon":-0.432952,"name":"Hazelmere Close","parentId":"490G00007972","stationId":"490G00007972","stopLetter":"->N","topMostParentId":"490G00007972"},{"icsId":"1004673","id":"490004673N","lat":51.460353,"lon":-0.429904,"name":"Cains Lane","parentId":"490G00004673","stationId":"490G00004673","stopLetter":"->N","topMostParentId":"490G00004673"},{"icsId":"1010142","id":"490010142N","lat":51.462961,"lon":-0.42587,"name":"Myrtle Avenue","parentId":"490G00010142","stationId":"490G00010142","stopLetter":"->N","topMostParentId":"490G00010142"},{"icsId":"1000103","id":"490000103F","lat":51.467345,"lon":-0.422854,"name":"Hatton Cross Station","parentId":"490G00103G","stationId":"490G00103G","stopLetter":"E","topMostParentId":"940GZZLUHNX","zone":"5+6"}]}]}