{"direction":"outbound","lineId":"h28","lineName":"H28","mode":"bus","stopPointSequences":[{"stopPoint":[{"icsId":"1004576","id":"490015280N","lat":51.498643,"lon":-0.405941,"name":"Bulls Bridge Tesco","parentId":"490G00004576","stationId":"490G00004576","stopLetter":"BW","topMostParentId":"490G00004576"},{"icsId":"1004573","id":"490004573E","lat":51.49809,"lon":-0.4056,"name":"Hayes Road / Tesco","parentId":"490G00004573","stationId":"490G00004573","stopLetter":"BA","topMostParentId":"490G00004573"},{"icsId":"1007802","id":"490007802S","lat":51.496506,"lon":-0.400915,"name":"Navigator Park","parentId":"490G00007802","stationId":"490G00007802","stopLetter":"BT","topMostParentId":"490G00007802"},{"icsId":"1008113","id":"490008113S","lat":51.493482,"lon":-0.402015,"name":"Heston Centre","parentId":"490G00008113","stationId":"490G00008113","stopLetter":"A","topMostParentId":"490G00008113"},{"icsId":"1005703","id":"490005703S","lat":51.486756,"lon":-0.405318,"name":"Cranford Community School","parentId":"490G00005703","stationId":"490G00005703","stopLetter":"B","topMostParentId":"490G00005703"},{"icsId":"1012243","id":"490012243E","lat":51.484983,"lon":-0.40394,"name":"Cranford Lane / Redwood Estate","parentId":"490G00012243","stationId":"490G00012243","stopLetter":"C","topMostParentId":"490G00012243"},{"icsId":"1016379","id":"490016379S","lat":51.484172,"lon":-0.400483,"name":"Brabazon Road / Cranford Lane","parentId":"490G00016379","stationId":"490G00016379","stopLetter":"HA","topMostParentId":"490G00016379"},{"icsId":"1016380","id":"490016380S","lat":51.482687,"lon":-0.399771,"name":"Bleriot Road","parentId":"490G00016380","stationId":"490G00016380","stopLetter":"HB","topMostParentId":"490G00016380"},{"icsId":"1016381","id":"490016381E","lat":51.481448,"lon":-0.397266,"name":"Johnson Road","parentId":"490G00016381","stationId":"490G00016381","stopLetter":"HC","topMostParentId":"490G00016381"},{"icsId":"1016382","id":"490016382N","lat":51.481856,"lon":-0.395537,"name":"Alcock Road","parentId":"490G00016382","stationId":"490G00016382","stopLetter":"HD","topMostParentId":"490G00016382"},{"icsId":"1016383","id":"490016383N","lat":51.482736,"lon":-0.39411,"name":"Armytage Road","parentId":"490G00016383","stationId":"490G00016383","stopLetter":"HE","topMostParentId":"490G00016383"},{"icsId":"1010365","id":"490010365E","lat":51.4844,"lon":-0.392827,"name":"Northfield Road","parentId":"490G00010365","stationId":"490G00010365","stopLetter":"E","topMostParentId":"490G00010365"},{"icsId":"1012229","id":"490012229E","lat":51.483859,"lon":-0.386797,"name":"Somerset Waye","parentId":"490G00012229","stationId":"490G00012229","stopLetter":"F","topMostParentId":"490G00012229"},{"icsId":"1016384","id":"490016384S","lat":51.483084,"lon":-0.386695,"name":"Speart Lane","parentId":"490G00016384","stationId":"490G00016384","stopLetter":"->S","topMostParentId":"490G00016384"},{"icsId":"1016385","id":"490016385S","lat":51.481703,"lon":-0.387665,"name":"Blackthorn Court","parentId":"490G00016385","stationId":"490G00016385","stopLetter":"HG","topMostParentId":"490G00016385"},{"icsId":"1016386","id":"490016386E","lat":51.480397,"lon":-0.388129,"name":"Victoria Gardens","parentId":"490G00016386","stationId":"490G00016386","stopLetter":"->E","topMostParentId":"490G00016386"},{"icsId":"1016387","id":"490016387E","lat":51.479653,"lon":-0.38503,"name":"Beaufort Gardens","parentId":"490G00016387","stationId":"490G00016387","topMostParentId":"490G00016387"},{"icsId":"1012992","id":"490012992W","lat":51.480119,"lon":-0.382292,"name":"Heston House","parentId":"490G00012992","stationId":"490G00012992","stopLetter":"VB","topMostParentId":"490G00012992"},{"icsId":"1016388","id":"490016388E","lat":51.481253,"lon":-0.379746,"name":"The Warren","parentId":"490G00016388","stationId":"490G00016388","stopLetter":"CP","topMostParentId":"490G00016388"},{"icsId":"1016389","id":"490016389E","lat":51.480687,"lon":-0.375287,"name":"Sutton Way","parentId":"490G00016389","stationId":"490G00016389","stopLetter":"CQ","topMostParentId":"490G00016389"},{"icsId":"1013946","id":"490013946S","lat":51.479237,"lon":-0.371897,"name":"Upper Sutton Lane","parentId":"490G00013946","stationId":"490G00013946","stopLetter":"CR","topMostParentId":"490G00013946"},{"icsId":"1007426","id":"490007426S","lat":51.476452,"lon":-0.374645,"name":"Willow Gardens / Great West Road","parentId":"490G00007426","stationId":"490G00007426","stopLetter":"CS","topMostParentId":"490G00007426"},{"icsId":"1011370","id":"490011370S","lat":51.474713,"lon":-0.375672,"name":"Queenswood Avenue","parentId":"490G00011370","stationId":"490G00011370","topMostParentId":"490G00011370"},{"icsId":"1006031","id":"490006031S","lat":51.471887,"lon":-0.378091,"name":"Dene Avenue","parentId":"490G00006031","stationId":"490G00006031","stopLetter":"P","topMostParentId":"490G00006031"},{"icsId":"1003679","id":"490003679N2","lat":51.468168,"lon":-0.378381,"name":"Bath Road","parentId":"490G00003679","stationId":"490G00003679","stopLetter":"R","topMostParentId":"490G00003679"},{"icsId":"1019052","id":"490012483S","lat":51.466079,"lon":-0.378224,"name":"Staines Road","parentId":"490G00019052","stationId":"490G00019052","stopLetter":"K","topMostParentId":"490G00019052"},{"icsId":"1003961","id":"490003961S","lat":51.464004,"lon":-0.377046,"name":"Beverley Avenue","parentId":"490G00003961","stationId":"490G00003961","stopLetter":"L","topMostParentId":"490G00003961"},{"icsId":"1016807","id":"490016807S","lat":51.462682,"lon":-0.376402,"name":"Marshall Close","parentId":"490G00016807","stationId":"490G00016807","stopLetter":"->S","topMostParentId":"490G00016807"},{"icsId":"1007371","id":"490007371S","lat":51.46029,"lon":-0.374457,"name":"Granville Avenue","parentId":"490G00007371","stationId":"490G00007371","stopLetter":"->S","topMostParentId":"490G00007371"},{"icsId":"1010173","id":"490010173N","lat":51.457497,"lon":-0.372138,"name":"Nelson Road","parentId":"490G00010173","stationId":"490G00010173","stopLetter":"N","topMostParentId":"490G00010173"},{"icsId":"1005798","id":"490005798W","lat":51.459812,"lon":-0.369781,"name":"Cromwell Road","parentId":"490G00005798","stationId":"490G00005798","stopLetter":"ST","topMostParentId":"490G00005798"},{"icsId":"1008126","id":"490008126EB","lat":51.462081,"lon":-0.367469,"name":"Hibernia Road","parentId":"490G00008126","stationId":"490G00008126","stopLetter":"SU","topMostParentId":"490G00008126"},{"icsId":"1003854","id":"490003854E","lat":51.464732,"lon":-0.364754,"name":"Bell Road","parentId":"490G00003854","stationId":"490G00003854","stopLetter":"SW","topMostParentId":"490G00003854"},{"icsId":"1007573","id":"490007573J","lat":51.466865,"lon":-0.362936,"name":"Grove Road","parentId":"490G00007573","stationId":"490G00007573","stopLetter":"J","topMostParentId":"490G00007573"},{"icsId":"1013777","id":"490013777O","lat":51.467519,"lon":-0.362121,"name":"Treaty Centre","parentId":"490G00013777","stationId":"490G00013777","stopLetter":"O","topMostParentId":"490G00013777"},{"icsId":"1008399","id":"490008399K","lat":51.469449,"lon":-0.358006,"name":"Hounslow High Street","parentId":"490G00008399","stationId":"490G00008399","stopLetter":"K","topMostParentId":"490G00008399"},{"icsId":"1008392","id":"490015241C","lat":51.47045,"lon":-0.355652,"name":"Hounslow Bus Station","parentId":"490G000601","stationId":"490G000601","stopLetter":"E","topMostParentId":"490G000601"},{"icsId":"1000117","id":"490000117E","lat":51.472938,"lon":-0.356757,"name":"Hounslow East Station","parentId":"490G00117E","stationId":"490G00117E","stopLetter":"EE","topMostParentId":"940GZZLUHWE","zone":"4"},{"icsId":"1006028","id":"490006028N","lat":51.475955,"lon":-0.360249,"name":"Denbigh Road","parentId":"490G00006028","stationId":"490G00006028","topMostParentId":"490G00006028"},{"icsId":"1016390","id":"490016390E","lat":51.476837,"lon":-0.356459,"name":"Spring Grove Crescent","parentId":"490G00016390","stationId":"490G00016390","stopLetter":"->E","topMostParentId":"490G00016390"},{"icsId":"1019869","id":"490016654E","lat":51.476196,"lon":-0.353731,"name":"Gresham Road","parentId":"490G00019869","stationId":"490G00019869","stopLetter":"->E","topMostParentId":"490G00019869"},{"icsId":"1016392","id":"490016392E","lat":51.476171,"lon":-0.348131,"name":"Witham Road","parentId":"490G00016392","stationId":"490G00016392","stopLetter":"Y","topMostParentId":"490G00016392"},{"icsId":"1016393","id":"490016393N","lat":51.477484,"lon":-0.345578,"name":"Eversley Crescent","parentId":"490G00016393","stationId":"490G00016393","stopLetter":"->N","topMostParentId":"490G00016393"},{"icsId":"1016394","id":"490016394N","lat":51.480485,"lon":-0.346679,"name":"Thornbury Avenue / Great West Road","parentId":"490G00016394","stationId":"490G00016394","stopLetter":"C","topMostParentId":"490G00016394"},{"icsId":"1016395","id":"490016395E","lat":51.482642,"lon":-0.345967,"name":"Osterley Library","parentId":"490G00016395","stationId":"490G00016395","stopLetter":"D","topMostParentId":"490G00016395"},{"icsId":"1016396","id":"490016396E","lat":51.483151,"lon":-0.343745,"name":"Jersey Gardens","parentId":"490G00016396","stationId":"490G00016396","stopLetter":"E","topMostParentId":"490G00016396"},{"icsId":"1016397","id":"490016397N","lat":51.48396,"lon":-0.342463,"name":"Ridgeway Road","parentId":"490G00016397","stationId":"490G00016397","stopLetter":"->N","topMostParentId":"490G00016397"},{"icsId":"1016398","id":"490016398E","lat":51.487164,"lon":-0.341396,"name":"Jersey Road","parentId":"490G00016398","stationId":"490G00016398","stopLetter":"->E","topMostParentId":"490G00016398"},{"icsId":"1016399","id":"490016399S","lat":51.485249,"lon":-0.338902,"name":"Conquest Club","parentId":"490G00016399","stationId":"490G00016399","stopLetter":"->S","topMostParentId":"490G00016399"},{"icsId":"1016400","id":"490016400S","lat":51.483517,"lon":-0.337236,"name":"Braybourne Drive / Great West Road","parentId":"490G00016400","stationId":"490G00016400","stopLetter":"F","topMostParentId":"490G00016400"},{"icsId":"1018933","id":"490018933Y","lat":51.482165,"lon":-0.336393,"name":"Great West Road / Borough Road","parentId":"490G00018933","stationId":"490G00018933","stopLetter":"Y","topMostParentId":"490G00018933"},{"icsId":"1016401","id":"490016401S","lat":51.480192,"lon":-0.335456,"name":"Borough Road","parentId":"490G00016401","stationId":"490G00016401","topMostParentId":"490G00016401"},{"icsId":"1019884","id":"490016402S","lat":51.476523,"lon":-0.332321,"name":"Hartham Road","parentId":"490G00019884","stationId":"490G00019884","stopLetter":"S","topMostParentId":"490G00019884"},{"icsId":"1016403","id":"490016403S","lat":51.475314,"lon":-0.330767,"name":"Alton Close","parentId":"490G00016403","stationId":"490G00016403","stopLetter":"T","topMostParentId":"490G00016403"},{"icsId":"1014503","id":"490014493N","lat":51.475241,"lon":-0.326291,"name":"Twickenham Rd / West Middlesex Hospital","parentId":"490G00014503","stationId":"490G00014503","stopLetter":"HC","topMostParentId":"490G00014503"},{"icsId":"1019150","id":"490004635TD","lat":51.477873,"lon":-0.323574,"name":"Park Road","parentId":"490G00019150","stationId":"490G00019150","stopLetter":"TD","topMostParentId":"490G00019150"},{"icsId":"1015029","id":"490015029E","lat":51.479212,"lon":-0.321638,"name":"Busch Corner","parentId":"490G00015029","stationId":"490G00015029","stopLetter":"T","topMostParentId":"490G00015029"},{"icsId":"1003263","id":"490003263N","lat":51.480436,"lon":-0.32106,"name":"Marlborough Road","parentId":"490G00003263","stationId":"490G00003263","stopLetter":"Y","topMostParentId":"490G00003263"},{"icsId":"1001291","id":"490001291N","lat":51.481934,"lon":-0.324592,"name":"Syon Lane Station","parentId":"490G01291S","stationId":"490G01291S","stopLetter":"B","topMostParentId":"910GSYONLA"},{"icsId":"1013200","id":"490013200E","lat":51.48493,"lon":-0.330329,"name":"Tesco Osterley","parentId":"490G00013200","stationId":"490G00013200","stopLetter":"L","topMostParentId":"490G00013200"}]}]}