{"direction":"outbound","lineId":"h32","lineName":"H32","mode":"bus","stopPointSequences":[{"stopPoint":[{"icsId":"1015241","id":"490015241B","lat":51.470183,"lon":-0.355863,"name":"School Road","parentId":"490G000884","stationId":"490G000884","stopLetter":"C","topMostParentId":"490G000884"},{"icsId":"1007766","id":"490007766L","lat":51.469015,"lon":-0.358468,"name":"Fairfields Road","parentId":"490G00007766","stationId":"490G00007766","stopLetter":"L","topMostParentId":"490G00007766"},{"icsId":"1013777","id":"490013777R","lat":51.466914,"lon":-0.363841,"name":"Treaty Centre","parentId":"490G00013777","stationId":"490G00013777","stopLetter":"T","topMostParentId":"490G00013777"},{"icsId":"1008393","id":"490008391X","lat":51.468179,"lon":-0.366891,"name":"Bell Road / Bell Corner","parentId":"490G00008393","stationId":"490G00008393","stopLetter":"X","topMostParentId":"490G00008393"},{"icsId":"1012454","id":"490012454W","lat":51.468849,"lon":-0.373001,"name":"St Michael & St Martin Church","parentId":"490G00012454","stationId":"490G00012454","stopLetter":"H","topMostParentId":"490G00012454"},{"icsId":"1006406","id":"490014357W","lat":51.469919,"lon":-0.37757,"name":"Wellington Road North","parentId":"490G00006406","stationId":"490G00006406","stopLetter":"J","topMostParentId":"490G00006406"},{"icsId":"1012458","id":"490012458W","lat":51.471408,"lon":-0.381837,"name":"St Paul's Church","parentId":"490G00012458","stationId":"490G00012458","stopLetter":"K","topMostParentId":"490G00012458"},{"icsId":"1000404","id":"490000118D","lat":51.473677,"lon":-0.386623,"name":"Hounslow West Stn  / Vicarage Farm Rd","parentId":"490G000053","stationId":"490G000053","stopLetter":"D","topMostParentId":"490G000053"},{"icsId":"1007423","id":"490007423N","lat":51.476843,"lon":-0.384092,"name":"Great West Road","parentId":"490G00007423","stationId":"490G00007423","stopLetter":"VA","topMostParentId":"490G00007423"},{"icsId":"1012992","id":"490012992W","lat":51.480119,"lon":-0.382292,"name":"Heston House","parentId":"490G00012992","stationId":"490G00012992","stopLetter":"VB","topMostParentId":"490G00012992"},{"icsId":"1005705","id":"490008114N","lat":51.482735,"lon":-0.381594,"name":"Cranford Lane","parentId":"490G00005705","stationId":"490G00005705","stopLetter":"VC","topMostParentId":"490G00005705"},{"icsId":"1010221","id":"490010221N","lat":51.485887,"lon":-0.38131,"name":"New Heston Road","parentId":"490G00010221","stationId":"490G00010221","stopLetter":"VE","topMostParentId":"490G00010221"},{"icsId":"1011586","id":"490011586N","lat":51.491788,"lon":-0.381475,"name":"Ringway","parentId":"490G00011586","stationId":"490G00011586","stopLetter":"VF","topMostParentId":"490G00011586"},{"icsId":"1011402","id":"490011402W","lat":51.492742,"lon":-0.385403,"name":"Raleigh Road","parentId":"490G00011402","stationId":"490G00011402","stopLetter":"->W","topMostParentId":"490G00011402"},{"icsId":"1010380","id":"490010380W","lat":51.493266,"lon":-0.388842,"name":"Holly Farm Road","parentId":"490G00010380","stationId":"490G00010380","stopLetter":"BL","topMostParentId":"490G00010380"},{"icsId":"1005562","id":"490005562W","lat":51.494079,"lon":-0.3924,"name":"Convent Way Shopping Precinct","parentId":"490G00005562","stationId":"490G00005562","stopLetter":"BM","topMostParentId":"490G00005562"},{"icsId":"1014393","id":"490014393W1","lat":51.495625,"lon":-0.39697,"name":"Wentworth Road","parentId":"490G00014393","stationId":"490G00014393","stopLetter":"BN","topMostParentId":"490G00014393"},{"icsId":"1012133","id":"490012133E","lat":51.497892,"lon":-0.395075,"name":"Brent Road","parentId":"490G00012133","stationId":"490G00012133","stopLetter":"BC","topMostParentId":"490G00012133"},{"icsId":"1006056","id":"490006056E","lat":51.499145,"lon":-0.391357,"name":"Derley Road","parentId":"490G00006056","stationId":"490G00006056","stopLetter":"BD","topMostParentId":"490G00006056"},{"icsId":"1013052","id":"490013052E","lat":51.500465,"lon":-0.387968,"name":"Sussex Road","parentId":"490G00013052","stationId":"490G00013052","stopLetter":"->E","topMostParentId":"490G00013052"},{"icsId":"1014162","id":"490014162E","lat":51.500943,"lon":-0.384753,"name":"Waltham Road","parentId":"490G00014162","stationId":"490G00014162","stopLetter":"H","topMostParentId":"490G00014162"},{"icsId":"1008833","id":"490008833E","lat":51.501613,"lon":-0.382525,"name":"King Street","parentId":"490G00008833","stationId":"490G00008833","stopLetter":"E","topMostParentId":"490G00008833"},{"icsId":"1013388","id":"490013388L","lat":51.502905,"lon":-0.38101,"name":"The Green","parentId":"490G00013388","stationId":"490G00013388","stopLetter":"L","topMostParentId":"490G00013388"},{"icsId":"1001255","id":"490001255N","lat":51.506031,"lon":-0.378809,"name":"Southall Station","parentId":"490G012554","stationId":"490G012554","stopLetter":"N","topMostParentId":"910GSTHALL"},{"icsId":"1010754","id":"490010754P","lat":51.50758,"lon":-0.378308,"name":"Park Avenue","parentId":"490G00010754","stationId":"490G00010754","stopLetter":"P","topMostParentId":"490G00010754"},{"icsId":"1012241","id":"490012241O","lat":51.510544,"lon":-0.376142,"name":"Southall Broadway","parentId":"490G00012241","stationId":"490G00012241","stopLetter":"O","topMostParentId":"490G00012241"},{"icsId":"1014102","id":"490012245K","lat":51.510757,"lon":-0.375269,"name":"Southall Town Hall","parentId":"490G00014102","stationId":"490G00014102","stopLetter":"AP","topMostParentId":"490G00014102"}]}]}