{"direction":"outbound","lineId":"h91","lineName":"H91","mode":"bus","stopPointSequences":[{"stopPoint":[{"icsId":"1000118","id":"490000118B","lat":51.472896,"lon":-0.385441,"name":"Hounslow West Station","parentId":"490G00118B","stationId":"490G00118B","stopLetter":"B","topMostParentId":"940GZZLUHWT","zone":"5"},{"icsId":"1000404","id":"490000118D","lat":51.473677,"lon":-0.386623,"name":"Hounslow West Stn  / Vicarage Farm Rd","parentId":"490G000053","stationId":"490G000053","stopLetter":"D","topMostParentId":"490G000053"},{"icsId":"1014037","id":"490014037E","lat":51.47667,"lon":-0.383278,"name":"Vicarage Farm Road","parentId":"490G00014037","stationId":"490G00014037","stopLetter":"GA","topMostParentId":"490G00014037"},{"icsId":"1007436","id":"490007436E","lat":51.477261,"lon":-0.378519,"name":"Greencroft Road","parentId":"490G00007436","stationId":"490G00007436","stopLetter":"GB","topMostParentId":"490G00007436"},{"icsId":"1013078","id":"490013078E","lat":51.47793,"lon":-0.374262,"name":"Sutton Lane","parentId":"490G00013078","stationId":"490G00013078","stopLetter":"GC","topMostParentId":"490G00013078"},{"icsId":"1008925","id":"490008925E","lat":51.479197,"lon":-0.363848,"name":"Lampton Road","parentId":"490G00008925","stationId":"490G00008925","stopLetter":"GD","topMostParentId":"490G00008925"},{"icsId":"1007524","id":"490007524E","lat":51.479925,"lon":-0.358033,"name":"Gresham Road","parentId":"490G00007524","stationId":"490G00007524","stopLetter":"Q","topMostParentId":"490G00007524"},{"icsId":"1000171","id":"490000171A","lat":51.480874,"lon":-0.351907,"name":"Osterley Station","parentId":"490G00171A","stationId":"490G00171A","stopLetter":"S","topMostParentId":"940GZZLUOSY","zone":"4"},{"icsId":"1010658","id":"490010658F","lat":51.482192,"lon":-0.345278,"name":"Osterley Library","parentId":"490G00010658","stationId":"490G00010658","stopLetter":"T","topMostParentId":"490G00010658"},{"icsId":"1011577","id":"490011577E","lat":51.482477,"lon":-0.342545,"name":"Ridgeway Road","parentId":"490G00011577","stationId":"490G00011577","stopLetter":"U","topMostParentId":"490G00011577"},{"icsId":"1014873","id":"490014873E","lat":51.482679,"lon":-0.337742,"name":"Wood Lane","parentId":"490G00014873","stationId":"490G00014873","stopLetter":"V","topMostParentId":"490G00014873"},{"icsId":"1012686","id":"490012686E","lat":51.482996,"lon":-0.331552,"name":"St Francis Of Assisi Church","parentId":"490G00012686","stationId":"490G00012686","stopLetter":"J","topMostParentId":"490G00012686"},{"icsId":"1007179","id":"490007179E","lat":51.483232,"lon":-0.328591,"name":"Gillette Corner","parentId":"490G00007179","stationId":"490G00007179","stopLetter":"K","topMostParentId":"490G00007179"},{"icsId":"1014416","id":"490014416D","lat":51.483992,"lon":-0.324487,"name":"West Cross Centre","parentId":"490G00014416","stationId":"490G00014416","stopLetter":"D","topMostParentId":"490G00014416"},{"icsId":"1014417","id":"490014417E","lat":51.485395,"lon":-0.320749,"name":"West Cross Way","parentId":"490G00014417","stationId":"490G00014417","stopLetter":"E","topMostParentId":"490G00014417"},{"icsId":"1007421","id":"490007424O","lat":51.487941,"lon":-0.314519,"name":"Boston Manor Road","parentId":"490G00007421","stationId":"490G00007421","stopLetter":"SA","topMostParentId":"490G00007421"},{"icsId":"1014772","id":"490014772Q","lat":51.489896,"lon":-0.309795,"name":"Windmill Road","parentId":"490G00014772","stationId":"490G00014772","stopLetter":"SB","topMostParentId":"490G00014772"},{"icsId":"1006300","id":"490006300R","lat":51.491298,"lon":-0.305392,"name":"Ealing Road","parentId":"490G00006300","stationId":"490G00006300","stopLetter":"BU","topMostParentId":"490G00006300"},{"icsId":"1005378","id":"490005378E","lat":51.491556,"lon":-0.300183,"name":"Clayponds Avenue","parentId":"490G00005378","stationId":"490G00005378","stopLetter":"BV","topMostParentId":"490G00005378"},{"icsId":"1009200","id":"490009200E","lat":51.491728,"lon":-0.291605,"name":"Lionel Road","parentId":"490G00009200","stationId":"490G00009200","stopLetter":"P","topMostParentId":"490G00009200"},{"icsId":"1014010","id":"490014010E","lat":51.492453,"lon":-0.289533,"name":"Vantage West","parentId":"490G00014010","stationId":"490G00014010","stopLetter":"Q","topMostParentId":"490G00014010"},{"icsId":"1007605","id":"490007605R","lat":51.492624,"lon":-0.284614,"name":"Chiswick Roundabout / Gunnersbury","parentId":"490G00007605","stationId":"490G00007605","stopLetter":"R","topMostParentId":"490G00007605"},{"icsId":"1010687","id":"490010687K","lat":51.492265,"lon":-0.277958,"name":"Oxford Road North","parentId":"490G00010687","stationId":"490G00010687","stopLetter":"K","topMostParentId":"490G00010687"},{"icsId":"1000094","id":"490000094B","lat":51.49244,"lon":-0.275776,"name":"Gunnersbury Station","parentId":"490G00094B","stationId":"490G00094B","stopLetter":"B","topMostParentId":"HUBGUN","zone":"3"},{"icsId":"1005211","id":"490005211E","lat":51.492988,"lon":-0.270829,"name":"Chiswick Road","parentId":"490G00005211","stationId":"490G00005211","stopLetter":"S","topMostParentId":"490G00005211"},{"icsId":"1013848","id":"490013848DD","lat":51.492639,"lon":-0.264878,"name":"Turnham Green Church","parentId":"490G000807","stationId":"490G000807","stopLetter":"DD","topMostParentId":"490G000807"},{"icsId":"1005423","id":"490005423GG","lat":51.492508,"lon":-0.261512,"name":"Clifton Gardens","parentId":"490G00005423","stationId":"490G00005423","stopLetter":"GG","topMostParentId":"490G00005423"},{"icsId":"1005210","id":"490005210HH","lat":51.492637,"lon":-0.258093,"name":"Chiswick Police Station","parentId":"490G00005210","stationId":"490G00005210","stopLetter":"HH","topMostParentId":"490G00005210"},{"icsId":"1013850","id":"490013850OO","lat":51.493066,"lon":-0.253064,"name":"Chiswick Lane","parentId":"490G00013850","stationId":"490G00013850","stopLetter":"OO","topMostParentId":"490G00013850"},{"icsId":"1012521","id":"490012521E","lat":51.493154,"lon":-0.249286,"name":"Stamford Brook Bus Garage","parentId":"490G00012521","stationId":"490G00012521","stopLetter":"H","topMostParentId":"490G00012521"},{"icsId":"1007273","id":"490007273M","lat":51.493413,"lon":-0.246755,"name":"Goldhawk Road / Young's Corner","parentId":"490G000535","stationId":"490G000535","stopLetter":"M","topMostParentId":"490G000535"},{"icsId":"1012533","id":"490015027F","lat":51.493531,"lon":-0.240268,"name":"Ravenscourt Park","parentId":"490G00012533","stationId":"490G00012533","stopLetter":"F","topMostParentId":"490G00012533"},{"icsId":"1000188","id":"490011438E","lat":51.493268,"lon":-0.237124,"name":"Ravenscourt Park Station","parentId":"490G00188A","stationId":"490G00188A","stopLetter":"E","topMostParentId":"940GZZLURVP","zone":"2"},{"icsId":"1005937","id":"490005937E","lat":51.492979,"lon":-0.235233,"name":"Dalling Road","parentId":"490G00005937","stationId":"490G00005937","stopLetter":"C","topMostParentId":"490G00005937"},{"icsId":"1015588","id":"490015588E","lat":51.494432,"lon":-0.232613,"name":"Lamington Street","parentId":"490G00015588","stationId":"490G00015588","stopLetter":"->E","topMostParentId":"490G00015588"},{"icsId":"1007239","id":"490007239E","lat":51.494575,"lon":-0.230115,"name":"Iffley Road","parentId":"490G00007239","stationId":"490G00007239","topMostParentId":"490G00007239"},{"icsId":"1000097","id":"490000097T","lat":51.493589,"lon":-0.226163,"name":"Hammersmith Stn / H'smith & City Line","parentId":"490G00097T","stationId":"490G00097T","stopLetter":"W","topMostParentId":"HUBHMS","zone":"2"},{"icsId":"1007705","id":"490007705A","lat":51.492592,"lon":-0.224502,"name":"Hammersmith Bus Station","parentId":"490G000565","stationId":"490G000565","stopLetter":"Z1","topMostParentId":"HUBHMS"}]}]}