{"direction":"outbound","lineId":"h98","lineName":"H98","mode":"bus","stopPointSequences":[{"stopPoint":[{"icsId":"1015241","id":"490015241B","lat":51.470183,"lon":-0.355863,"name":"School Road","parentId":"490G000884","stationId":"490G000884","stopLetter":"C","topMostParentId":"490G000884"},{"icsId":"1007766","id":"490007766L","lat":51.469015,"lon":-0.358468,"name":"Fairfields Road","parentId":"490G00007766","stationId":"490G00007766","stopLetter":"L","topMostParentId":"490G00007766"},{"icsId":"1013777","id":"490013777R","lat":51.466914,"lon":-0.363841,"name":"Treaty Centre","parentId":"490G00013777","stationId":"490G00013777","stopLetter":"T","topMostParentId":"490G00013777"},{"icsId":"1008391","id":"490008391X","lat":51.468179,"lon":-0.366891,"name":"Bell Corner / Hounslow Civic Centre","parentId":"490G000600","stationId":"490G000600","stopLetter":"X","topMostParentId":"490G000600"},{"icsId":"1012454","id":"490012454W","lat":51.468849,"lon":-0.373001,"name":"St Michael & St Martin Church","parentId":"490G00012454","stationId":"490G00012454","stopLetter":"H","topMostParentId":"490G00012454"},{"icsId":"1006406","id":"490014357W","lat":51.469919,"lon":-0.37757,"name":"Wellington Road North","parentId":"490G00006406","stationId":"490G00006406","stopLetter":"J","topMostParentId":"490G00006406"},{"icsId":"1012458","id":"490012458W","lat":51.471408,"lon":-0.381837,"name":"St Paul's Church","parentId":"490G00012458","stationId":"490G00012458","stopLetter":"K","topMostParentId":"490G00012458"},{"icsId":"1000118","id":"490000118C","lat":51.472562,"lon":-0.385352,"name":"Hounslow West Station","parentId":"490G00118B","stationId":"490G00118B","stopLetter":"C","topMostParentId":"940GZZLUHWT","zone":"5"},{"icsId":"1007425","id":"490007425W","lat":51.474634,"lon":-0.392177,"name":"Great West Road / Basildene Road","parentId":"490G00007425","stationId":"490G00007425","stopLetter":"L","topMostParentId":"490G00007425"},{"icsId":"1015462","id":"490013776W1","lat":51.476068,"lon":-0.398376,"name":"Henlys Roundabout","parentId":"490G00015462","stationId":"490G00015462","stopLetter":"CP","topMostParentId":"490G00015462"},{"icsId":"1011470","id":"490011470W","lat":51.476846,"lon":-0.401329,"name":"Rectory Road","parentId":"490G00011470","stationId":"490G00011470","stopLetter":"CQ","topMostParentId":"490G00011470"},{"icsId":"1005707","id":"490005707W","lat":51.478328,"lon":-0.406519,"name":"Cranford Library / The Parkway","parentId":"490G00005707","stationId":"490G00005707","stopLetter":"CR","topMostParentId":"490G00005707"},{"icsId":"1013235","id":"490013235W","lat":51.479113,"lon":-0.409315,"name":"The Avenue","parentId":"490G00013235","stationId":"490G00013235","stopLetter":"CS","topMostParentId":"490G00013235"},{"icsId":"1005704","id":"490005704W","lat":51.480475,"lon":-0.414336,"name":"Waye Avenue","parentId":"490G00005704","stationId":"490G00005704","stopLetter":"CT","topMostParentId":"490G00005704"},{"icsId":"1013596","id":"490013596W","lat":51.481012,"lon":-0.420798,"name":"Craneswater","parentId":"490G00013596","stationId":"490G00013596","stopLetter":"CU","topMostParentId":"490G00013596"},{"icsId":"1010677","id":"490010677W1","lat":51.480666,"lon":-0.425145,"name":"Oxford Avenue","parentId":"490G00010677","stationId":"490G00010677","stopLetter":"H","topMostParentId":"490G00010677"},{"icsId":"1007811","id":"490007811B","lat":51.481304,"lon":-0.434484,"name":"Harlington Corner","parentId":"490G00007811","stationId":"490G00007811","stopLetter":"N","topMostParentId":"490G00007811"},{"icsId":"1014434","id":"490014434N","lat":51.485172,"lon":-0.434611,"name":"West End Lane","parentId":"490G00014434","stationId":"490G00014434","stopLetter":"P","topMostParentId":"490G00014434"},{"icsId":"1009564","id":"490009564N","lat":51.487536,"lon":-0.435855,"name":"Manor Lane","parentId":"490G00009564","stationId":"490G00009564","stopLetter":"R","topMostParentId":"490G00009564"},{"icsId":"1007808","id":"490007808N","lat":51.489585,"lon":-0.435151,"name":"Brickfield Lane","parentId":"490G00007808","stationId":"490G00007808","stopLetter":"S","topMostParentId":"490G00007808"},{"icsId":"1007812","id":"490012608N","lat":51.496409,"lon":-0.427613,"name":"Croyde Avenue","parentId":"490G00007812","stationId":"490G00007812","stopLetter":"T","topMostParentId":"490G00007812"},{"icsId":"1011489","id":"490011489N","lat":51.49909,"lon":-0.425706,"name":"Redmead Road","parentId":"490G00011489","stationId":"490G00011489","stopLetter":"U","topMostParentId":"490G00011489"},{"icsId":"1020310","id":"490020310N","lat":51.500595,"lon":-0.424631,"name":"Millington Road","parentId":"490G00020310","stationId":"490G00020310","stopLetter":"P","topMostParentId":"490G00020310"},{"icsId":"1006702","id":"490006702N","lat":51.5019,"lon":-0.423347,"name":"Fairey Corner","parentId":"490G00006702","stationId":"490G00006702","stopLetter":"K","topMostParentId":"490G00006702"},{"icsId":"1001144","id":"490001144N","lat":51.503431,"lon":-0.420917,"name":"Hayes and Harlington Station","parentId":"490G01144N","stationId":"490G01144N","stopLetter":"L","topMostParentId":"910GHAYESAH"},{"icsId":"1007942","id":"490007942K","lat":51.504415,"lon":-0.419831,"name":"Clayton Road","parentId":"490G000581","stationId":"490G000581","stopLetter":"M","topMostParentId":"490G000581"},{"icsId":"1000828","id":"490000828Z","lat":51.506815,"lon":-0.419085,"name":"Hayes Town","parentId":"490G000162","stationId":"490G000162","stopLetter":"P","topMostParentId":"490G000162"},{"icsId":"1004178","id":"490004178N","lat":51.510057,"lon":-0.420817,"name":"Botwell Lane","parentId":"490G00004178","stationId":"490G00004178","stopLetter":"N","topMostParentId":"490G00004178"},{"icsId":"1013751","id":"490013751N","lat":51.512638,"lon":-0.420152,"name":"Townfield Road","parentId":"490G00013751","stationId":"490G00013751","stopLetter":"M","topMostParentId":"490G00013751"},{"icsId":"1007009","id":"490007009N","lat":51.515997,"lon":-0.419863,"name":"Freemans Lane","parentId":"490G00007009","stationId":"490G00007009","stopLetter":"L","topMostParentId":"490G00007009"},{"icsId":"1005262","id":"490005262N","lat":51.518494,"lon":-0.418969,"name":"Church Green","parentId":"490G00005262","stationId":"490G00005262","stopLetter":"K","topMostParentId":"490G00005262"},{"icsId":"1013977","id":"490013977G","lat":51.520885,"lon":-0.417531,"name":"Adam & Eve","parentId":"490G00013977","stationId":"490G00013977","stopLetter":"G","topMostParentId":"490G00013977"},{"icsId":"1008962","id":"490008962F","lat":51.522403,"lon":-0.420794,"name":"Uxbridge County Court","parentId":"490G00008962","stationId":"490G00008962","stopLetter":"F","topMostParentId":"490G00008962"},{"icsId":"1011690","id":"490011690B","lat":51.52332,"lon":-0.424798,"name":"Rosedale Park","parentId":"490G00011690","stationId":"490G00011690","stopLetter":"B","topMostParentId":"490G00011690"},{"icsId":"1010802","id":"490010802W","lat":51.523746,"lon":-0.427004,"name":"Park Road","parentId":"490G00010802","stationId":"490G00010802","stopLetter":"XE","topMostParentId":"490G00010802"},{"icsId":"1007946","id":"490015348W","lat":51.524899,"lon":-0.432586,"name":"Hayes End","parentId":"490G00007946","stationId":"490G00007946","stopLetter":"XF","topMostParentId":"490G00007946"},{"icsId":"1010032","id":"490010032W","lat":51.52555,"lon":-0.436167,"name":"Morgans Lane","parentId":"490G00010032","stationId":"490G00010032","stopLetter":"XH","topMostParentId":"490G00010032"},{"icsId":"1010252","id":"490010252S","lat":51.526075,"lon":-0.439119,"name":"New Road","parentId":"490G00010252","stationId":"490G00010252","stopLetter":"XK","topMostParentId":"490G00010252"},{"icsId":"1007469","id":"490007469W","lat":51.523632,"lon":-0.441422,"name":"Green Lane","parentId":"490G00007469","stationId":"490G00007469","stopLetter":"XL","topMostParentId":"490G00007469"},{"icsId":"1015007","id":"490015007E","lat":51.523117,"lon":-0.440561,"name":"York Avenue","parentId":"490G00015007","stationId":"490G00015007","stopLetter":"XM","topMostParentId":"490G00015007"},{"icsId":"1007757","id":"490007757E","lat":51.523066,"lon":-0.438069,"name":"Hanover Circle","parentId":"490G00007757","stationId":"490G00007757","stopLetter":"XN","topMostParentId":"490G00007757"},{"icsId":"1014839","id":"490014839E","lat":51.523095,"lon":-0.435473,"name":"Wood End Green Road","parentId":"490G00014839","stationId":"490G00014839","stopLetter":"XP","topMostParentId":"490G00014839"}]}]}