{"direction":"outbound","lineId":"k1","lineName":"K1","mode":"bus","stopPointSequences":[{"stopPoint":[{"icsId":"1001206","id":"490001206S","lat":51.403577,"lon":-0.255728,"name":"New Malden Station","parentId":"490G01206H","stationId":"490G01206H","stopLetter":"P","topMostParentId":"910GNEWMLDN"},{"icsId":"1018959","id":"490018959N","lat":51.403036,"lon":-0.256223,"name":"Dukes Avenue","parentId":"490G00018959","stationId":"490G00018959","topMostParentId":"490G00018959"},{"icsId":"1010234","id":"490010234D","lat":51.400636,"lon":-0.255725,"name":"New Malden High Street","parentId":"490G00010234","stationId":"490G00010234","stopLetter":"D","topMostParentId":"490G00010234"},{"icsId":"1015206","id":"490015206J","lat":51.398167,"lon":-0.255374,"name":"New Malden / The Fountain","parentId":"490G000880","stationId":"490G000880","stopLetter":"J","topMostParentId":"490G000880"},{"icsId":"1012723","id":"490012723S","lat":51.395442,"lon":-0.254169,"name":"St James Church / Kingston By-Pass","parentId":"490G00012723","stationId":"490G00012723","stopLetter":"MA","topMostParentId":"490G00012723"},{"icsId":"1004091","id":"490004091S","lat":51.393508,"lon":-0.252906,"name":"Blakes Lane","parentId":"490G00004091","stationId":"490G00004091","stopLetter":"MB","topMostParentId":"490G00004091"},{"icsId":"1001188","id":"490001188S1","lat":51.384992,"lon":-0.262601,"name":"Malden Manor Station","parentId":"490G01188S","stationId":"490G01188S","stopLetter":"MW","topMostParentId":"910GMALDENM"},{"icsId":"1003162","id":"490003162N","lat":51.385376,"lon":-0.263621,"name":"Malden Manor / Richard Challoner School","parentId":"490G00003162","stationId":"490G00003162","stopLetter":"MX","topMostParentId":"490G00003162"},{"icsId":"1009526","id":"490015370S","lat":51.389117,"lon":-0.267848,"name":"Manor Drive North","parentId":"490G00009526","stationId":"490G00009526","stopLetter":"MR","topMostParentId":"490G00009526"},{"icsId":"1012360","id":"490012360S","lat":51.387432,"lon":-0.271318,"name":"Southwood Drive / Elmbridge Avenue","parentId":"490G00012360","stationId":"490G00012360","stopLetter":"->S","topMostParentId":"490G00012360"},{"icsId":"1014237","id":"4900OC454","lat":51.381852,"lon":-0.272218,"name":"Warren Drive South","parentId":"490G00014237","stationId":"490G00014237","stopLetter":"->W","topMostParentId":"490G00014237"},{"icsId":"1014089","id":"490014089N","lat":51.380843,"lon":-0.278162,"name":"Vincent Avenue","parentId":"490G00014089","stationId":"490G00014089","topMostParentId":"490G00014089"},{"icsId":"1013701","id":"490013701C","lat":51.379756,"lon":-0.279496,"name":"Tolworth Tower / Tolworth Station","parentId":"490G00013701","stationId":"490G00013701","stopLetter":"C","topMostParentId":"490G00013701"},{"icsId":"1013697","id":"490013697G","lat":51.380316,"lon":-0.282105,"name":"Tolworth Broadway","parentId":"490G00013697","stationId":"490G00013697","stopLetter":"G","topMostParentId":"490G00013697"},{"icsId":"1011205","id":"490011205L","lat":51.382246,"lon":-0.284965,"name":"Princes Avenue","parentId":"490G00011205","stationId":"490G00011205","stopLetter":"L","topMostParentId":"490G00011205"},{"icsId":"1008733","id":"490008733P","lat":51.383068,"lon":-0.288239,"name":"King Charles Road","parentId":"490G00008733","stationId":"490G00008733","stopLetter":"LN","topMostParentId":"490G00008733"},{"icsId":"1013699","id":"490013699S","lat":51.379401,"lon":-0.290833,"name":"Tolworth Hospital","parentId":"490G00013699","stationId":"490G00013699","stopLetter":"LD","topMostParentId":"490G00013699"},{"icsId":"1018182","id":"490018182W","lat":51.378062,"lon":-0.292765,"name":"Thornhill Road","parentId":"490G00018182","stationId":"490G00018182","stopLetter":"LE","topMostParentId":"490G00018182"},{"icsId":"1006139","id":"490004142W","lat":51.378487,"lon":-0.295983,"name":"Douglas Road","parentId":"490G00006139","stationId":"490G00006139","stopLetter":"LF","topMostParentId":"490G00006139"},{"icsId":"1005633","id":"490009534W","lat":51.379482,"lon":-0.300156,"name":"Malvern Road","parentId":"490G00005633","stationId":"490G00005633","stopLetter":"->W","topMostParentId":"490G00005633"},{"icsId":"1019714","id":"490013457N","lat":51.382433,"lon":-0.300866,"name":"The Maypole","parentId":"490G00019714","stationId":"490G00019714","stopLetter":"HR","topMostParentId":"490G00019714"},{"icsId":"1008949","id":"490008949N","lat":51.386101,"lon":-0.300773,"name":"Langley Avenue","parentId":"490G00008949","stationId":"490G00008949","stopLetter":"SA","topMostParentId":"490G00008949"},{"icsId":"1010075","id":"490010075N","lat":51.388096,"lon":-0.303186,"name":"Mountcombe Close","parentId":"490G00010075","stationId":"490G00010075","stopLetter":"SB","topMostParentId":"490G00010075"},{"icsId":"1009395","id":"490009395N","lat":51.390426,"lon":-0.307627,"name":"Lovelace Gardens","parentId":"490G00009395","stationId":"490G00009395","stopLetter":"SC","topMostParentId":"490G00009395"},{"icsId":"1013036","id":"490013036H","lat":51.391601,"lon":-0.308647,"name":"Surbiton Sainsbury's","parentId":"490G00013036","stationId":"490G00013036","stopLetter":"NA","topMostParentId":"490G00013036"},{"icsId":"1001285","id":"490001285C","lat":51.392913,"lon":-0.305422,"name":"Surbiton Station","parentId":"490G01285C","stationId":"490G01285C","stopLetter":"NB","topMostParentId":"910GSURBITN"},{"icsId":"1019769","id":"490015165A","lat":51.393908,"lon":-0.304624,"name":"Claremont Road / Surbiton Station","parentId":"490G000949","stationId":"490G000949","stopLetter":"NC","topMostParentId":"490G000949"},{"icsId":"1013315","id":"490013315N","lat":51.396266,"lon":-0.304148,"name":"The Crescent","parentId":"490G00013315","stationId":"490G00013315","stopLetter":"ND","topMostParentId":"490G00013315"},{"icsId":"1009627","id":"490013030E","lat":51.399005,"lon":-0.303256,"name":"Maple Road","parentId":"490G00009627","stationId":"490G00009627","stopLetter":"J","topMostParentId":"490G00009627"},{"icsId":"1007158","id":"490007158E","lat":51.400782,"lon":-0.298691,"name":"Geneva Road","parentId":"490G00007158","stationId":"490G00007158","stopLetter":"->E","topMostParentId":"490G00007158"},{"icsId":"1009421","id":"490009421N","lat":51.40211,"lon":-0.29476,"name":"Lower Marsh Lane","parentId":"490G00009421","stationId":"490G00009421","topMostParentId":"490G00009421"},{"icsId":"1003467","id":"490003467N","lat":51.404614,"lon":-0.294451,"name":"Athelstan Park","parentId":"490G00003467","stationId":"490G00003467","stopLetter":"->N","topMostParentId":"490G00003467"},{"icsId":"1005992","id":"490005992N","lat":51.407283,"lon":-0.294294,"name":"Dawson Road","parentId":"490G00005992","stationId":"490G00005992","stopLetter":"->N","topMostParentId":"490G00005992"},{"icsId":"1003493","id":"490003493W","lat":51.40759,"lon":-0.299962,"name":"Fairfield South","parentId":"490G00003493","stationId":"490G00003493","stopLetter":"->W","topMostParentId":"490G00003493"},{"icsId":"1008821","id":"490008821W","lat":51.407363,"lon":-0.306038,"name":"Kingston Hall Road","parentId":"490G00008821","stationId":"490G00008821","stopLetter":"UK","topMostParentId":"490G00008821"},{"icsId":"1007595","id":"490007595K","lat":51.408883,"lon":-0.306644,"name":"Guildhall / Rose Theatre","parentId":"490G00007595","stationId":"490G00007595","stopLetter":"K","topMostParentId":"490G00007595"},{"icsId":"1006412","id":"490006412E3","lat":51.410457,"lon":-0.302358,"name":"Eden Street","parentId":"490G00006412","stationId":"490G00006412","stopLetter":"E3","topMostParentId":"490G00006412"},{"icsId":"1005800","id":"490005800A2","lat":51.412366,"lon":-0.298807,"name":"Cromwell Road Bus Station","parentId":"490G000476","stationId":"490G000476","stopLetter":"A2","topMostParentId":"490G000476"}]}]}