{"direction":"outbound","lineId":"n113","lineName":"N113","mode":"bus","stopPointSequences":[{"stopPoint":[{"icsId":"1000070","id":"490015287E","lat":51.612734,"lon":-0.274197,"name":"Edgware Bus Station","parentId":"490G00070C","stationId":"490G00070C","stopLetter":"E","topMostParentId":"940GZZLUEGW","zone":"5"},{"icsId":"1011173","id":"490000070B","lat":51.614564,"lon":-0.27576,"name":"Edgware Station  / Station Road","parentId":"490G00011173","stationId":"490G00011173","stopLetter":"B","topMostParentId":"490G00011173"},{"icsId":"1011254","id":"490011254N","lat":51.617898,"lon":-0.277454,"name":"Purcells Avenue","parentId":"490G00011254","stationId":"490G00011254","stopLetter":"P","topMostParentId":"490G00011254"},{"icsId":"1006423","id":"490006423N","lat":51.620824,"lon":-0.277646,"name":"Edgwarebury Lane / Edgware Way","parentId":"490G00006423","stationId":"490G00006423","stopLetter":"Q","topMostParentId":"490G00006423"},{"icsId":"1003002","id":"490003002E","lat":51.621715,"lon":-0.273423,"name":"Broadfields Avenue","parentId":"490G00003002","stationId":"490G00003002","stopLetter":"T","topMostParentId":"490G00003002"},{"icsId":"1013401","id":"490013401E","lat":51.622229,"lon":-0.269893,"name":"Broadhurst Avenue","parentId":"490G00013401","stationId":"490G00013401","stopLetter":"U","topMostParentId":"490G00013401"},{"icsId":"1008216","id":"490008196E","lat":51.622332,"lon":-0.265873,"name":"Kenilworth Road","parentId":"490G00008216","stationId":"490G00008216","stopLetter":"A","topMostParentId":"490G00008216"},{"icsId":"1008561","id":"490008561E","lat":51.621934,"lon":-0.262681,"name":"Edgware Way","parentId":"490G00008561","stationId":"490G00008561","stopLetter":"B","topMostParentId":"490G00008561"},{"icsId":"1010081","id":"490010081E","lat":51.621614,"lon":-0.258677,"name":"Mount Grove","parentId":"490G00010081","stationId":"490G00010081","stopLetter":"C","topMostParentId":"490G00010081"},{"icsId":"1003642","id":"490003642S","lat":51.621009,"lon":-0.253095,"name":"Barnet Way / Apex Corner","parentId":"490G00003642","stationId":"490G00003642","stopLetter":"D","topMostParentId":"490G00003642"},{"icsId":"1009904","id":"490009904S","lat":51.617409,"lon":-0.246199,"name":"Mill Hill Circus","parentId":"490G00009904","stationId":"490G00009904","stopLetter":"S","topMostParentId":"490G00009904"},{"icsId":"1005991","id":"490005991Q","lat":51.614689,"lon":-0.241754,"name":"University Of London Observatory","parentId":"490G00005991","stationId":"490G00005991","stopLetter":"Q","topMostParentId":"490G00005991"},{"icsId":"1009906","id":"490009906S","lat":51.611608,"lon":-0.241324,"name":"Mill Hill Park","parentId":"490G00009906","stationId":"490G00009906","stopLetter":"->S","topMostParentId":"490G00009906"},{"icsId":"1004580","id":"490004580S","lat":51.60725,"lon":-0.240381,"name":"Bunns Lane Bridge","parentId":"490G00004580","stationId":"490G00004580","stopLetter":"->S","topMostParentId":"490G00004580"},{"icsId":"1013685","id":"490013685S","lat":51.603918,"lon":-0.238242,"name":"Tithe Walk","parentId":"490G00013685","stationId":"490G00013685","stopLetter":"QY","topMostParentId":"490G00013685"},{"icsId":"1003023","id":"490003023S","lat":51.602327,"lon":-0.235892,"name":"Fiveways Corner / Copthall Sports Centre","parentId":"490G00003023","stationId":"490G00003023","stopLetter":"->S","topMostParentId":"490G00003023"},{"icsId":"1014514","id":"490014514S","lat":51.599276,"lon":-0.233354,"name":"Westside","parentId":"490G00014514","stationId":"490G00014514","stopLetter":"->S","topMostParentId":"490G00014514"},{"icsId":"1012291","id":"490012291S","lat":51.595394,"lon":-0.233504,"name":"Southfields","parentId":"490G00012291","stationId":"490G00012291","stopLetter":"->S","topMostParentId":"490G00012291"},{"icsId":"1007527","id":"490007527S","lat":51.592214,"lon":-0.234292,"name":"Greyhound Hill","parentId":"490G00007527","stationId":"490G00007527","stopLetter":"->S","topMostParentId":"490G00007527"},{"icsId":"1012753","id":"490012753M","lat":51.586746,"lon":-0.231862,"name":"St Joseph's School","parentId":"490G00012753","stationId":"490G00012753","stopLetter":"M","topMostParentId":"490G00012753"},{"icsId":"1008057","id":"490008057J","lat":51.58584,"lon":-0.230237,"name":"Hendon War Memorial","parentId":"490G00008057","stationId":"490G00008057","stopLetter":"J","topMostParentId":"490G00008057"},{"icsId":"1000106","id":"490000106G","lat":51.583882,"lon":-0.22799,"name":"Hendon Central Station","parentId":"490G00106G","stationId":"490G00106G","stopLetter":"G","topMostParentId":"940GZZLUHCL","zone":"3+4"},{"icsId":"1003724","id":"490003724S","lat":51.579893,"lon":-0.225273,"name":"Beaufort Gardens","parentId":"490G00003724","stationId":"490G00003724","topMostParentId":"490G00003724"},{"icsId":"1003096","id":"490010329H","lat":51.577477,"lon":-0.219522,"name":"North Circular Road","parentId":"490G00003096","stationId":"490G00003096","stopLetter":"H","topMostParentId":"490G00003096"},{"icsId":"1004285","id":"490004285P","lat":51.575969,"lon":-0.215583,"name":"Highfield Avenue","parentId":"490G000423","stationId":"490G000423","stopLetter":"P","topMostParentId":"490G000423"},{"icsId":"1014915","id":"490014915S","lat":51.574554,"lon":-0.21356,"name":"Woodville Gardens","parentId":"490G00014915","stationId":"490G00014915","stopLetter":"U","topMostParentId":"490G00014915"},{"icsId":"1014396","id":"490014396E","lat":51.571223,"lon":-0.209809,"name":"Wessex Gardens","parentId":"490G00014396","stationId":"490G00014396","stopLetter":"V","topMostParentId":"490G00014396"},{"icsId":"1000503","id":"490013578S","lat":51.567799,"lon":-0.206957,"name":"The Vale","parentId":"490G00000503","stationId":"490G00000503","stopLetter":"W","topMostParentId":"490G00000503"},{"icsId":"1007131","id":"490007131S","lat":51.564399,"lon":-0.205143,"name":"Garth Road","parentId":"490G00007131","stationId":"490G00007131","stopLetter":"->S","topMostParentId":"490G00007131"},{"icsId":"1005774","id":"490005774S","lat":51.561959,"lon":-0.203753,"name":"Cricklewood Lane","parentId":"490G00005774","stationId":"490G00005774","stopLetter":"S","topMostParentId":"490G00005774"},{"icsId":"1009462","id":"490009462S","lat":51.559767,"lon":-0.198617,"name":"Lyndale Avenue","parentId":"490G00009462","stationId":"490G00009462","stopLetter":"T","topMostParentId":"490G00009462"},{"icsId":"1006952","id":"490006952S","lat":51.558659,"lon":-0.196165,"name":"Fortune Green Road","parentId":"490G00006952","stationId":"490G00006952","stopLetter":"G","topMostParentId":"490G00006952"},{"icsId":"1004626","id":"490004626S","lat":51.555947,"lon":-0.194079,"name":"Burrard Road","parentId":"490G00004626","stationId":"490G00004626","stopLetter":"CA","topMostParentId":"490G00004626"},{"icsId":"1012961","id":"490012961S","lat":51.554681,"lon":-0.19185,"name":"Lyncroft Gardens","parentId":"490G00012961","stationId":"490G00012961","stopLetter":"CB","topMostParentId":"490G00012961"},{"icsId":"1014433","id":"490014433S","lat":51.553441,"lon":-0.189592,"name":"West End Lane","parentId":"490G00014433","stationId":"490G00014433","stopLetter":"CC","topMostParentId":"490G00014433"},{"icsId":"1003282","id":"490003282S","lat":51.552626,"lon":-0.187504,"name":"Alvanley Gardens","parentId":"490G00003282","stationId":"490G00003282","stopLetter":"FU","topMostParentId":"490G00003282"},{"icsId":"1008947","id":"490008947S","lat":51.551781,"lon":-0.185157,"name":"Langland Gardens","parentId":"490G00008947","stationId":"490G00008947","stopLetter":"FV","topMostParentId":"490G00008947"},{"icsId":"1001109","id":"490001109FF","lat":51.550137,"lon":-0.182367,"name":"Finchley Road & Frognal Station","parentId":"490G01109FF","stationId":"490G01109FF","stopLetter":"FF","topMostParentId":"910GFNCHLYR"},{"icsId":"1000307","id":"490007045FH","lat":51.54795,"lon":-0.180492,"name":"O2 Centre","parentId":"490G00000307","stationId":"490G00000307","stopLetter":"FH","topMostParentId":"490G00000307"},{"icsId":"1000082","id":"490000082FJ","lat":51.546351,"lon":-0.178883,"name":"Finchley Road Station","parentId":"490G00082FL","stationId":"490G00082FL","stopLetter":"FJ","topMostParentId":"940GZZLUFYR","zone":"2"},{"icsId":"1019775","id":"490005487B","lat":51.544529,"lon":-0.175653,"name":"Finchley Road / College Crescent","parentId":"490G00019775","stationId":"490G00019775","stopLetter":"B","topMostParentId":"490G00019775"},{"icsId":"1000230","id":"490000230D","lat":51.542997,"lon":-0.174272,"name":"Swiss Cottage Station / Avenue Road","parentId":"490G00230N","stationId":"490G00230N","stopLetter":"D","topMostParentId":"940GZZLUSWC","zone":"2"},{"icsId":"1004185","id":"490004185S","lat":51.539332,"lon":-0.175688,"name":"Boundary Road","parentId":"490G00004185","stationId":"490G00004185","stopLetter":"V","topMostParentId":"490G00004185"},{"icsId":"1011336","id":"490011336S","lat":51.536785,"lon":-0.176136,"name":"Queen's Grove","parentId":"490G00011336","stationId":"490G00011336","stopLetter":"U","topMostParentId":"490G00011336"},{"icsId":"1000222","id":"490005318C","lat":51.53398,"lon":-0.173811,"name":"St John's Wood Station","parentId":"490G00222A","stationId":"490G00222A","stopLetter":"C","topMostParentId":"940GZZLUSJW","zone":"2"},{"icsId":"1009359","id":"490009359S","lat":51.530679,"lon":-0.169719,"name":"Lord's Cricket Ground","parentId":"490G00009359","stationId":"490G00009359","stopLetter":"K","topMostParentId":"490G00009359"},{"icsId":"1010816","id":"490010816P","lat":51.529375,"lon":-0.166859,"name":"London Central Mosque","parentId":"490G00010816","stationId":"490G00010816","stopLetter":"P","topMostParentId":"490G00010816"},{"icsId":"1003269","id":"490003269S","lat":51.52756,"lon":-0.164669,"name":"Alpha Close","parentId":"490G00003269","stationId":"490G00003269","stopLetter":"LA","topMostParentId":"490G00003269"},{"icsId":"1011716","id":"490011716S","lat":51.526169,"lon":-0.161986,"name":"London Business School","parentId":"490G00011716","stationId":"490G00011716","stopLetter":"LB","topMostParentId":"490G00011716"},{"icsId":"1000011","id":"490000011B","lat":51.522784,"lon":-0.15774,"name":"Baker Street Station","parentId":"490G00011B","stationId":"490G00011B","stopLetter":"B","topMostParentId":"940GZZLUBST","zone":"1"},{"icsId":"1009990","id":"490015021G","lat":51.521055,"lon":-0.156959,"name":"York Street","parentId":"490G00009990","stationId":"490G00009990","stopLetter":"G","topMostParentId":"490G00009990"},{"icsId":"1015317","id":"490015316J","lat":51.517803,"lon":-0.155476,"name":"George Street","parentId":"490G00015317","stationId":"490G00015317","stopLetter":"J","topMostParentId":"490G00015317"},{"icsId":"1010622","id":"490010622L","lat":51.514379,"lon":-0.153914,"name":"Orchard Street / Selfridges","parentId":"490G00010622","stationId":"490G00010622","stopLetter":"BZ","topMostParentId":"490G00010622"},{"icsId":"1000433","id":"490010531W","lat":51.514814,"lon":-0.146142,"name":"New Bond Street","parentId":"490G000082","stationId":"490G000082","stopLetter":"OE","topMostParentId":"490G000082"},{"icsId":"1000173","id":"490000173RG","lat":51.514591,"lon":-0.141669,"name":"Oxford Circus Station","parentId":"490G00173RG","stationId":"490G00173RG","stopLetter":"RG","topMostParentId":"940GZZLUOXC","zone":"1"},{"icsId":"1000393","id":"490004810RK","lat":51.511303,"lon":-0.13905,"name":"Beak Street / Hamleys Toy Store","parentId":"490G000041","stationId":"490G000041","stopLetter":"V","topMostParentId":"490G000041"},{"icsId":"1000179","id":"490000179G","lat":51.510061,"lon":-0.13557,"name":"Piccadilly Circus","parentId":"490G00179C","stationId":"490G00179C","stopLetter":"G","topMostParentId":"940GZZLUPCC","zone":"1"},{"icsId":"1020307","id":"490007960R","lat":51.509683,"lon":-0.132732,"name":"Haymarket / Jermyn Street","parentId":"490G00020307","stationId":"490G00020307","stopLetter":"R","topMostParentId":"490G00020307"},{"icsId":"1013767","id":"490013767B","lat":51.507645,"lon":-0.129544,"name":"Trafalgar Square","parentId":"490G000804","stationId":"490G000804","stopLetter":"B","topMostParentId":"490G000804"},{"icsId":"1013767","id":"490013767W","lat":51.507283,"lon":-0.12662,"name":"Northumberland Avenue / Trafalgar Square","parentId":"490G000804","stationId":"490G000804","stopLetter":"W","topMostParentId":"490G000804"}]}]}