{"direction":"outbound","lineId":"n2","lineName":"N2","mode":"bus","stopPointSequences":[{"stopPoint":[{"icsId":"1005879","id":"490005869D","lat":51.420429,"lon":-0.078078,"name":"Crystal Palace Bus Station","parentId":"490G00005879","stationId":"490G00005879","stopLetter":"D","topMostParentId":"490G00005879"},{"icsId":"1014510","id":"490014510G","lat":51.419021,"lon":-0.079389,"name":"Westow Hill","parentId":"490G00014510","stationId":"490G00014510","stopLetter":"G","topMostParentId":"490G00014510"},{"icsId":"1015491","id":"490015491H","lat":51.417843,"lon":-0.082171,"name":"Westow Street","parentId":"490G00015491","stationId":"490G00015491","stopLetter":"H","topMostParentId":"490G00015491"},{"icsId":"1007191","id":"490007191L","lat":51.419385,"lon":-0.084594,"name":"Gipsy Hill Police Station","parentId":"490G00007191","stationId":"490G00007191","stopLetter":"L","topMostParentId":"490G00007191"},{"icsId":"1015346","id":"490015346N","lat":51.420309,"lon":-0.088871,"name":"Rockmount Road","parentId":"490G00015346","stationId":"490G00015346","stopLetter":"->N","topMostParentId":"490G00015346"},{"icsId":"1015338","id":"490015338N","lat":51.421645,"lon":-0.091389,"name":"Hermitage Road","parentId":"490G00015338","stationId":"490G00015338","stopLetter":"H","topMostParentId":"490G00015338"},{"icsId":"1011876","id":"490011876W","lat":51.422758,"lon":-0.094608,"name":"Salter's Hill","parentId":"490G00011876","stationId":"490G00011876","stopLetter":"J","topMostParentId":"490G00011876"},{"icsId":"1010449","id":"490010449N","lat":51.424063,"lon":-0.097963,"name":"Norwood Park","parentId":"490G00010449","stationId":"490G00010449","stopLetter":"K","topMostParentId":"490G00010449"},{"icsId":"1007193","id":"490007193N","lat":51.427296,"lon":-0.099958,"name":"Gipsy Road","parentId":"490G00007193","stationId":"490G00007193","stopLetter":"L","topMostParentId":"490G00007193"},{"icsId":"1010444","id":"490010444W","lat":51.429522,"lon":-0.103548,"name":"Norwood Bus Garage","parentId":"490G00010444","stationId":"490G00010444","stopLetter":"U","topMostParentId":"490G00010444"},{"icsId":"1012754","id":"490012754N","lat":51.430156,"lon":-0.104414,"name":"St Julian's Farm Road","parentId":"490G00012754","stationId":"490G00012754","stopLetter":"Y","topMostParentId":"490G00012754"},{"icsId":"1001331","id":"490001331W","lat":51.432222,"lon":-0.104227,"name":"West Norwood Station","parentId":"490G01331T","stationId":"490G01331T","stopLetter":"W","topMostParentId":"910GWNORWOD"},{"icsId":"1013670","id":"490013655N","lat":51.434077,"lon":-0.103849,"name":"Norwood Road / Robson Road","parentId":"490G00013670","stationId":"490G00013670","stopLetter":"N","topMostParentId":"490G00013670"},{"icsId":"1008927","id":"490008927K","lat":51.436591,"lon":-0.105255,"name":"Lancaster Avenue","parentId":"490G00008927","stationId":"490G00008927","stopLetter":"K","topMostParentId":"490G00008927"},{"icsId":"1001298","id":"490001298E","lat":51.440181,"lon":-0.107639,"name":"Tulse Hill Station","parentId":"490G01298G","stationId":"490G01298G","stopLetter":"E","topMostParentId":"910GTULSEH"},{"icsId":"1007778","id":"490007778D","lat":51.441266,"lon":-0.108558,"name":"Hardel Rise","parentId":"490G000571","stationId":"490G000571","stopLetter":"D","topMostParentId":"490G000571"},{"icsId":"1008194","id":"490008194N","lat":51.44297,"lon":-0.109927,"name":"High Trees","parentId":"490G00008194","stationId":"490G00008194","stopLetter":"H","topMostParentId":"490G00008194"},{"icsId":"1013950","id":"490013950N","lat":51.445342,"lon":-0.112045,"name":"Upper Tulse Hill","parentId":"490G00013950","stationId":"490G00013950","stopLetter":"J","topMostParentId":"490G00013950"},{"icsId":"1005366","id":"490006080N","lat":51.448975,"lon":-0.113133,"name":"Craignair Road","parentId":"490G00005366","stationId":"490G00005366","stopLetter":"K","topMostParentId":"490G00005366"},{"icsId":"1004401","id":"490004401N","lat":51.451333,"lon":-0.113237,"name":"Jubilee Primary School","parentId":"490G00004401","stationId":"490G00004401","stopLetter":"L","topMostParentId":"490G00004401"},{"icsId":"1015275","id":"490015275N2","lat":51.454583,"lon":-0.113506,"name":"Brixton Water Lane","parentId":"490G00015275","stationId":"490G00015275","stopLetter":"M","topMostParentId":"490G00015275"},{"icsId":"1005847","id":"490005847N","lat":51.456612,"lon":-0.114401,"name":"Morval Road","parentId":"490G00005847","stationId":"490G00005847","stopLetter":"N","topMostParentId":"490G00005847"},{"icsId":"1012810","id":"490012810N","lat":51.458349,"lon":-0.115078,"name":"St Matthews Estate","parentId":"490G00012810","stationId":"490G00012810","stopLetter":"P","topMostParentId":"490G00012810"},{"icsId":"1008919","id":"490008919W","lat":51.460335,"lon":-0.116638,"name":"Lambeth Town Hall","parentId":"490G000627","stationId":"490G000627","stopLetter":"W","topMostParentId":"490G000627"},{"icsId":"1000031","id":"490000031T","lat":51.461969,"lon":-0.115375,"name":"Brixton Station","parentId":"490G00031N","stationId":"490G00031N","stopLetter":"T","topMostParentId":"HUBBRX","zone":"2"},{"icsId":"1007526","id":"490007523C","lat":51.464902,"lon":-0.114895,"name":"Brixton Academy","parentId":"490G00007526","stationId":"490G00007526","stopLetter":"C","topMostParentId":"490G00007526"},{"icsId":"1012578","id":"490012578N","lat":51.466567,"lon":-0.11723,"name":"Stansfield Road","parentId":"490G00012578","stationId":"490G00012578","stopLetter":"->N","topMostParentId":"490G00012578"},{"icsId":"1012833","id":"490012833S2","lat":51.468576,"lon":-0.11912,"name":"Stockwell Green","parentId":"490G00012833","stationId":"490G00012833","topMostParentId":"490G00012833"},{"icsId":"1012832","id":"490000223R","lat":51.471641,"lon":-0.121831,"name":"Stockwell Gardens","parentId":"490G000768","stationId":"490G000768","stopLetter":"R","topMostParentId":"490G000768"},{"icsId":"1012835","id":"490000223A","lat":51.473675,"lon":-0.122525,"name":"South Lambeth Road / Stockwell Stn","parentId":"490G000770","stationId":"490G000770","stopLetter":"A","topMostParentId":"490G000770"},{"icsId":"1008970","id":"490015169N","lat":51.475364,"lon":-0.122974,"name":"Lansdowne Way","parentId":"490G00008970","stationId":"490G00008970","stopLetter":"Q","topMostParentId":"490G00008970"},{"icsId":"1013623","id":"490013623N","lat":51.476789,"lon":-0.123203,"name":"Thorne Road","parentId":"490G00013623","stationId":"490G00013623","stopLetter":"S","topMostParentId":"490G00013623"},{"icsId":"1013161","id":"490013161N","lat":51.478475,"lon":-0.123523,"name":"Tate Library","parentId":"490G00013161","stationId":"490G00013161","stopLetter":"T","topMostParentId":"490G00013161"},{"icsId":"1014560","id":"490014560N","lat":51.480824,"lon":-0.124723,"name":"Wheatsheaf Lane","parentId":"490G00014560","stationId":"490G00014560","stopLetter":"->N","topMostParentId":"490G00014560"},{"icsId":"1014021","id":"490014021W","lat":51.483238,"lon":-0.123328,"name":"Vauxhall Park","parentId":"490G00014021","stationId":"490G00014021","stopLetter":"W","topMostParentId":"HUBVXH"},{"icsId":"1020252","id":"490000247A","lat":51.486224,"lon":-0.123868,"name":"Vauxhall Bus Station","parentId":"490G00020252","stationId":"490G00020252","stopLetter":"A","topMostParentId":"HUBVXH"},{"icsId":"1007550","id":"490007550X","lat":51.488197,"lon":-0.128626,"name":"Vauxhall Bridge / Millbank","parentId":"490G00007550","stationId":"490G00007550","stopLetter":"X","topMostParentId":"490G00007550"},{"icsId":"1000180","id":"490000180A","lat":51.489984,"lon":-0.132414,"name":"Pimlico Station","parentId":"490G00180A","stationId":"490G00180A","stopLetter":"A","topMostParentId":"940GZZLUPCO","zone":"1"},{"icsId":"1011617","id":"490011617N","lat":51.492355,"lon":-0.137344,"name":"Rochester Row","parentId":"490G00011617","stationId":"490G00011617","stopLetter":"W","topMostParentId":"490G00011617"},{"icsId":"1010164","id":"490010164K","lat":51.494461,"lon":-0.141364,"name":"Neathouse Place","parentId":"490G00010164","stationId":"490G00010164","stopLetter":"K","topMostParentId":"490G00010164"},{"icsId":"1000248","id":"490000248ZZ","lat":51.495848,"lon":-0.143238,"name":"Victoria Station","parentId":"490G00248G","stationId":"490G00248G","stopLetter":"->N","topMostParentId":"HUBVIC","zone":"1"},{"icsId":"1007544","id":"490007544Q","lat":51.496919,"lon":-0.145557,"name":"Grosvenor Gardens","parentId":"490G000551","stationId":"490G000551","stopLetter":"Q","topMostParentId":"490G000551"},{"icsId":"1014728","id":"490005138N","lat":51.499381,"lon":-0.148281,"name":"Wilton Street","parentId":"490G00014728","stationId":"490G00014728","stopLetter":"U","topMostParentId":"490G00014728"},{"icsId":"1000119","id":"490000119K","lat":51.501349,"lon":-0.15104,"name":"Hyde Park Corner","parentId":"490G00119F","stationId":"490G00119F","stopLetter":"K","topMostParentId":"940GZZLUHPC","zone":"1"},{"icsId":"1009277","id":"490009277Y","lat":51.505089,"lon":-0.152113,"name":"London Hilton Hotel","parentId":"490G00009277","stationId":"490G00009277","stopLetter":"Y","topMostParentId":"490G00009277"},{"icsId":"1006111","id":"490006111N2","lat":51.508589,"lon":-0.155128,"name":"Dorchester Hotel","parentId":"490G00006111","stationId":"490G00006111","stopLetter":"T","topMostParentId":"490G00006111"},{"icsId":"1000144","id":"490000144W","lat":51.511607,"lon":-0.158349,"name":"Marble Arch","parentId":"490G00144R","stationId":"490G00144R","stopLetter":"W","topMostParentId":"940GZZLUMBA","zone":"1"},{"icsId":"1011139","id":"490011133M","lat":51.514237,"lon":-0.156283,"name":"Portman Street / Selfridges","parentId":"490G00011139","stationId":"490G00011139","stopLetter":"M","topMostParentId":"490G00011139"},{"icsId":"1015317","id":"490015317N","lat":51.516665,"lon":-0.157453,"name":"George Street","parentId":"490G00015317","stationId":"490G00015317","stopLetter":"K","topMostParentId":"490G00015317"},{"icsId":"1009990","id":"490009990N","lat":51.518821,"lon":-0.158433,"name":"Dorset Street","parentId":"490G00009990","stationId":"490G00009990","stopLetter":"R","topMostParentId":"490G00009990"},{"icsId":"1000351","id":"490000145LA","lat":51.522297,"lon":-0.162761,"name":"Marylebone Station","parentId":"490G00000351","stationId":"490G00000351","stopLetter":"LA","topMostParentId":"490G00000351"}]}]}