{"direction":"outbound","lineId":"n21","lineName":"N21","mode":"bus","stopPointSequences":[{"stopPoint":[{"icsId":"1003975","id":"490003975L","lat":51.456547,"lon":0.147129,"name":"Bexleyheath Clock Tower","parentId":"490G00003975","stationId":"490G00003975","stopLetter":"L","topMostParentId":"490G00003975"},{"icsId":"1003972","id":"490003972E","lat":51.45578,"lon":0.15072,"name":"Bexleyheath / Highland Road","parentId":"490G00003972","stationId":"490G00003972","stopLetter":"X","topMostParentId":"490G00003972"},{"icsId":"1007662","id":"490007662S","lat":51.452762,"lon":0.151989,"name":"Halcot Avenue","parentId":"490G00007662","stationId":"490G00007662","stopLetter":"C","topMostParentId":"490G00007662"},{"icsId":"1004489","id":"490004489S","lat":51.451449,"lon":0.152935,"name":"Broomfield Road","parentId":"490G00004489","stationId":"490G00004489","stopLetter":"D","topMostParentId":"490G00004489"},{"icsId":"1007386","id":"490007386S","lat":51.44876,"lon":0.156881,"name":"Gravel Hill Close","parentId":"490G00007386","stationId":"490G00007386","stopLetter":"E","topMostParentId":"490G00007386"},{"icsId":"1007872","id":"490007872J","lat":51.444824,"lon":0.152292,"name":"Hartford Road","parentId":"490G00007872","stationId":"490G00007872","stopLetter":"J","topMostParentId":"490G00007872"},{"icsId":"1003984","id":"490003984G","lat":51.442332,"lon":0.150909,"name":"Bexley Library","parentId":"490G00003984","stationId":"490G00003984","stopLetter":"G","topMostParentId":"490G00003984"},{"icsId":"1001024","id":"490001024E","lat":51.441474,"lon":0.147674,"name":"Bexley Station","parentId":"490G01024E","stationId":"490G01024E","stopLetter":"E","topMostParentId":"910GBEXLEY"},{"icsId":"1003988","id":"490003988B","lat":51.442109,"lon":0.144883,"name":"Bexley War Memorial","parentId":"490G000416","stationId":"490G000416","stopLetter":"B","topMostParentId":"490G000416"},{"icsId":"1005810","id":"490005810W","lat":51.443308,"lon":0.139845,"name":"Cross Lane","parentId":"490G00005810","stationId":"490G00005810","stopLetter":"H","topMostParentId":"490G00005810"},{"icsId":"1011596","id":"490011596W","lat":51.444674,"lon":0.13493,"name":"Riverdale Road","parentId":"490G00011596","stationId":"490G00011596","stopLetter":"J","topMostParentId":"490G00011596"},{"icsId":"1004325","id":"490004325W","lat":51.445069,"lon":0.133523,"name":"Bridgen / The Anchor","parentId":"490G00004325","stationId":"490G00004325","stopLetter":"K","topMostParentId":"490G00004325"},{"icsId":"1015608","id":"490015608W","lat":51.447339,"lon":0.127354,"name":"Woodside Lane","parentId":"490G00015608","stationId":"490G00015608","stopLetter":"L","topMostParentId":"490G00015608"},{"icsId":"1003820","id":"490003820W","lat":51.44806,"lon":0.122782,"name":"Beechway","parentId":"490G00003820","stationId":"490G00003820","stopLetter":"M","topMostParentId":"490G00003820"},{"icsId":"1004097","id":"490004097W","lat":51.447873,"lon":0.117736,"name":"Blendon / Penhill Road","parentId":"490G00004097","stationId":"490G00004097","stopLetter":"N","topMostParentId":"490G00004097"},{"icsId":"1004060","id":"490004060W","lat":51.449069,"lon":0.113273,"name":"Blackfen School For Girls","parentId":"490G00004060","stationId":"490G00004060","stopLetter":"P","topMostParentId":"490G00004060"},{"icsId":"1011404","id":"490011404E1","lat":51.449702,"lon":0.109056,"name":"Blackfen Road / Ramillies Road","parentId":"490G00011404","stationId":"490G00011404","stopLetter":"E","topMostParentId":"490G00011404"},{"icsId":"1019067","id":"490004059W1","lat":51.450409,"lon":0.103763,"name":"Blackfen Road / Wellington Avenue","parentId":"490G00019067","stationId":"490G00019067","stopLetter":"F","topMostParentId":"490G00019067"},{"icsId":"1013118","id":"490013118W","lat":51.451056,"lon":0.100238,"name":"Sycamore Avenue","parentId":"490G00013118","stationId":"490G00013118","stopLetter":"G","topMostParentId":"490G00013118"},{"icsId":"1011373","id":"490011373W","lat":51.451444,"lon":0.095189,"name":"Queenswood Road","parentId":"490G00011373","stationId":"490G00011373","stopLetter":"H","topMostParentId":"490G00011373"},{"icsId":"1004183","id":"490004183W","lat":51.450864,"lon":0.088341,"name":"Blackfen Road / Boundary Road","parentId":"490G00004183","stationId":"490G00004183","stopLetter":"->W","topMostParentId":"490G00004183"},{"icsId":"1011524","id":"490011524W","lat":51.450539,"lon":0.082885,"name":"Rennets Wood Road","parentId":"490G00011524","stationId":"490G00011524","stopLetter":"AM","topMostParentId":"490G00011524"},{"icsId":"1011582","id":"490011582W","lat":51.451151,"lon":0.077789,"name":"Riefield Road","parentId":"490G00011582","stationId":"490G00011582","stopLetter":"AD","topMostParentId":"490G00011582"},{"icsId":"1003505","id":"490003505W","lat":51.451874,"lon":0.073519,"name":"University Of Greenwich / Mansion Site","parentId":"490G00003505","stationId":"490G00003505","stopLetter":"AE","topMostParentId":"490G00003505"},{"icsId":"1007227","id":"490007227W","lat":51.451408,"lon":0.066287,"name":"Bexley Road / Glenesk Road","parentId":"490G00007227","stationId":"490G00007227","stopLetter":"AF","topMostParentId":"490G00007227"},{"icsId":"1006548","id":"490006548W","lat":51.450706,"lon":0.061232,"name":"Eltham High Street / Foots Cray Road","parentId":"490G00006548","stationId":"490G00006548","stopLetter":"T","topMostParentId":"490G00006548"},{"icsId":"1000890","id":"490006533P","lat":51.450669,"lon":0.0572,"name":"Eltham High Street / St Mary's Place","parentId":"490G000209","stationId":"490G000209","stopLetter":"P","topMostParentId":"490G000209"},{"icsId":"1006539","id":"490006537M","lat":51.450745,"lon":0.053332,"name":"Eltham High Street / Passey Place","parentId":"490G00006539","stationId":"490G00006539","stopLetter":"M","topMostParentId":"490G00006539"},{"icsId":"1015433","id":"490015433H","lat":51.450915,"lon":0.051325,"name":"Eltham Church / High Street","parentId":"490G00015433","stationId":"490G00015433","stopLetter":"H","topMostParentId":"490G00015433"},{"icsId":"1008778","id":"490008778W","lat":51.451367,"lon":0.04661,"name":"Kingsground","parentId":"490G00008778","stationId":"490G00008778","stopLetter":"W","topMostParentId":"490G00008778"},{"icsId":"1014008","id":"490014007W","lat":51.452577,"lon":0.040101,"name":"Greenway","parentId":"490G00014008","stationId":"490G00014008","stopLetter":"WD","topMostParentId":"490G00014008"},{"icsId":"1019825","id":"490015477W","lat":51.452758,"lon":0.037993,"name":"Eltham Hill / Middle Park Avenue","parentId":"490G00019825","stationId":"490G00019825","stopLetter":"WE","topMostParentId":"490G00019825"},{"icsId":"1015018","id":"490015018W2","lat":51.452742,"lon":0.034768,"name":"Eltham Road / Westhorne Avenue","parentId":"490G00015018","stationId":"490G00015018","stopLetter":"WP","topMostParentId":"490G00015018"},{"icsId":"1004909","id":"490004909W","lat":51.452847,"lon":0.029721,"name":"Cedarhurst Drive","parentId":"490G00004909","stationId":"490G00004909","stopLetter":"WR","topMostParentId":"490G00004909"},{"icsId":"1008704","id":"490008704W","lat":51.453525,"lon":0.025346,"name":"Eltham Road / Kidbrooke Park Road","parentId":"490G00008704","stationId":"490G00008704","stopLetter":"WS","topMostParentId":"490G00008704"},{"icsId":"1005664","id":"490005664W","lat":51.454128,"lon":0.021717,"name":"Courtlands Avenue","parentId":"490G00005664","stationId":"490G00005664","stopLetter":"WT","topMostParentId":"490G00005664"},{"icsId":"1014334","id":"490014334W","lat":51.45454,"lon":0.01972,"name":"Weigall Road","parentId":"490G00014334","stationId":"490G00014334","stopLetter":"WU","topMostParentId":"490G00014334"},{"icsId":"1004697","id":"490016464W","lat":51.45507,"lon":0.017138,"name":"Cambridge Drive","parentId":"490G00004697","stationId":"490G00004697","stopLetter":"X","topMostParentId":"490G00004697"},{"icsId":"1009075","id":"490009060A","lat":51.456101,"lon":0.012592,"name":"Lee Green","parentId":"490G00009075","stationId":"490G00009075","stopLetter":"J","topMostParentId":"490G00009075"},{"icsId":"1008924","id":"490008924W","lat":51.457228,"lon":0.008755,"name":"Lampmead Road","parentId":"490G00008924","stationId":"490G00008924","stopLetter":"N","topMostParentId":"490G00008924"},{"icsId":"1005918","id":"490005918W","lat":51.458619,"lon":0.005246,"name":"Dacre Park","parentId":"490G00005918","stationId":"490G00005918","stopLetter":"T","topMostParentId":"490G00005918"},{"icsId":"1004257","id":"490004257W","lat":51.4585,"lon":0.001167,"name":"Brandram Road","parentId":"490G00004257","stationId":"490G00004257","stopLetter":"U","topMostParentId":"490G00004257"},{"icsId":"1003868","id":"490003868W","lat":51.459236,"lon":-0.003494,"name":"Belmont Park","parentId":"490G00003868","stationId":"490G00003868","stopLetter":"V","topMostParentId":"490G00003868"},{"icsId":"1009656","id":"490009656W","lat":51.461351,"lon":-0.006741,"name":"Marischal Road","parentId":"490G00009656","stationId":"490G00009656","stopLetter":"W","topMostParentId":"490G00009656"},{"icsId":"1003864","id":"490003864M","lat":51.4618,"lon":-0.007787,"name":"Belmont Hill","parentId":"490G00003864","stationId":"490G00003864","stopLetter":"M","topMostParentId":"490G00003864"},{"icsId":"1009106","id":"490011522E","lat":51.462499,"lon":-0.009786,"name":"Lewisham Clock Tower","parentId":"490G00009106","stationId":"490G00009106","stopLetter":"R","topMostParentId":"490G00009106"},{"icsId":"1001177","id":"490001177S","lat":51.465197,"lon":-0.012448,"name":"Lewisham Station","parentId":"490G01177G","stationId":"490G01177G","stopLetter":"J","topMostParentId":"HUBLEW","zone":"2+3"},{"icsId":"1000386","id":"490001177F","lat":51.46448,"lon":-0.014135,"name":"Lewisham Station   / Loampit Vale","parentId":"490G000036","stationId":"490G000036","stopLetter":"F","topMostParentId":"490G000036"},{"icsId":"1008549","id":"490008549W","lat":51.465042,"lon":-0.017609,"name":"Loampit Vale / Jerrard Street","parentId":"490G00008549","stationId":"490G00008549","stopLetter":"SG","topMostParentId":"490G00008549"},{"icsId":"1013896","id":"490013896W","lat":51.466701,"lon":-0.021611,"name":"Undercliff Road","parentId":"490G00013896","stationId":"490G00013896","stopLetter":"SH","topMostParentId":"490G00013896"},{"icsId":"1009107","id":"490009107W","lat":51.468306,"lon":-0.025559,"name":"Lewisham College","parentId":"490G000635","stationId":"490G000635","stopLetter":"SJ","topMostParentId":"490G000635"},{"icsId":"1009441","id":"490009441W","lat":51.4707,"lon":-0.029415,"name":"Lucas Street","parentId":"490G00009441","stationId":"490G00009441","stopLetter":"D","topMostParentId":"490G00009441"},{"icsId":"1009530","id":"490009530N","lat":51.471738,"lon":-0.030753,"name":"Malpas Road","parentId":"490G00009530","stationId":"490G00009530","stopLetter":"E","topMostParentId":"490G00009530"},{"icsId":"1003298","id":"490003298N","lat":51.473528,"lon":-0.03344,"name":"Amersham Road","parentId":"490G00003298","stationId":"490G00003298","stopLetter":"F","topMostParentId":"490G00003298"},{"icsId":"1007276","id":"490007276X","lat":51.475397,"lon":-0.03601,"name":"Marquis Of Granby / Goldsmiths","parentId":"490G00007276","stationId":"490G00007276","stopLetter":"X","topMostParentId":"490G00007276"},{"icsId":"1000156","id":"490000156O","lat":51.474837,"lon":-0.039648,"name":"New Cross Gate Station","parentId":"490G00156M","stationId":"490G00156M","stopLetter":"O","topMostParentId":"HUBNXG"},{"icsId":"1010204","id":"490010204J","lat":51.474101,"lon":-0.044561,"name":"New Cross Bus Garage","parentId":"490G00010204","stationId":"490G00010204","stopLetter":"J","topMostParentId":"490G00010204"},{"icsId":"1010206","id":"490010206C","lat":51.475686,"lon":-0.047417,"name":"New Cross Road / Besson Street","parentId":"490G00010206","stationId":"490G00010206","stopLetter":"C","topMostParentId":"490G00010206"},{"icsId":"1003246","id":"490003246D","lat":51.476766,"lon":-0.050179,"name":"Briant Street","parentId":"490G000388","stationId":"490G000388","stopLetter":"D","topMostParentId":"490G000388"},{"icsId":"1011089","id":"490011089W","lat":51.477707,"lon":-0.052126,"name":"Pomeroy Street","parentId":"490G00011089","stationId":"490G00011089","stopLetter":"W","topMostParentId":"490G00011089"},{"icsId":"1008461","id":"490008461WA","lat":51.479129,"lon":-0.056026,"name":"Old Kent Road / Ilderton Road","parentId":"490G000603","stationId":"490G000603","stopLetter":"WA","topMostParentId":"490G000603"},{"icsId":"1005526","id":"490005526WB","lat":51.480329,"lon":-0.058985,"name":"Commercial Way","parentId":"490G00005526","stationId":"490G00005526","stopLetter":"WB","topMostParentId":"490G00005526"},{"icsId":"1010880","id":"490010880WE","lat":51.482707,"lon":-0.063579,"name":"Peckham Park Road","parentId":"490G00010880","stationId":"490G00010880","stopLetter":"WE","topMostParentId":"490G00010880"},{"icsId":"1009531","id":"490009531W","lat":51.485425,"lon":-0.070233,"name":"Malt Street","parentId":"490G00009531","stationId":"490G00009531","stopLetter":"WH","topMostParentId":"490G00009531"},{"icsId":"1013761","id":"490013761W","lat":51.486248,"lon":-0.073252,"name":"Trafalgar Avenue","parentId":"490G00013761","stationId":"490G00013761","stopLetter":"WJ","topMostParentId":"490G00013761"},{"icsId":"1006266","id":"490006266WN","lat":51.488594,"lon":-0.077547,"name":"Dunton Road","parentId":"490G00006266","stationId":"490G00006266","stopLetter":"WN","topMostParentId":"490G00006266"},{"icsId":"1006379","id":"490006379BN","lat":51.491459,"lon":-0.082295,"name":"Old Kent Road / East Street","parentId":"490G00006379","stationId":"490G00006379","stopLetter":"F","topMostParentId":"490G00006379"},{"icsId":"1004315","id":"490004315BP","lat":51.493132,"lon":-0.08453,"name":"Bricklayer's Arms","parentId":"490G00004315","stationId":"490G00004315","stopLetter":"BP","topMostParentId":"490G00004315"},{"icsId":"1019011","id":"490004071BD","lat":51.495875,"lon":-0.087815,"name":"Bartholomew Street","parentId":"490G00019011","stationId":"490G00019011","stopLetter":"BD","topMostParentId":"490G00019011"},{"icsId":"1013809","id":"490013809N","lat":51.498333,"lon":-0.090766,"name":"Trinity Street / The Roebuck","parentId":"490G00013809","stationId":"490G00013809","stopLetter":"M","topMostParentId":"490G00013809"},{"icsId":"1017364","id":"490000026F","lat":51.500115,"lon":-0.092551,"name":"Borough Station  / Great Dover Street","parentId":"490G000920","stationId":"490G000920","stopLetter":"F","topMostParentId":"490G000920"},{"icsId":"1013910","id":"490013910G","lat":51.503038,"lon":-0.092025,"name":"Union Street","parentId":"490G00013910","stationId":"490G00013910","stopLetter":"G","topMostParentId":"490G00013910"},{"icsId":"1018542","id":"490000139M","lat":51.506555,"lon":-0.088175,"name":"London Bridge","parentId":"490G000922","stationId":"490G000922","stopLetter":"M","topMostParentId":"HUBLBG"},{"icsId":"1000148","id":"490009267D","lat":51.509466,"lon":-0.087476,"name":"Monument Station","parentId":"490G09267E","stationId":"490G09267E","stopLetter":"Q","topMostParentId":"940GZZLUMMT","zone":"1"},{"icsId":"1007607","id":"490000013F","lat":51.512263,"lon":-0.088051,"name":"Bank Station  / King William Street","parentId":"490G000557","stationId":"490G000557","stopLetter":"F","topMostParentId":"HUBBAN"},{"icsId":"1013195","id":"490013195H","lat":51.512924,"lon":-0.091108,"name":"Bank Station  / Queen Victoria Street","parentId":"490G000780","stationId":"490G000780","stopLetter":"H","topMostParentId":"HUBBAN"},{"icsId":"1010200","id":"490010200C","lat":51.512912,"lon":-0.096959,"name":"St Paul's Churchyard","parentId":"490G00010200","stationId":"490G00010200","stopLetter":"SH","topMostParentId":"490G00010200"},{"icsId":"1012873","id":"490012873B","lat":51.513387,"lon":-0.099635,"name":"St Paul's Cathedral","parentId":"490G00012873","stationId":"490G00012873","stopLetter":"SJ","topMostParentId":"490G00012873"},{"icsId":"1019767","id":"490009443F","lat":51.514124,"lon":-0.103524,"name":"City Thameslink Stn  / Ludgate Circus","parentId":"490G00019767","stationId":"490G00019767","stopLetter":"F","topMostParentId":"490G00019767"},{"icsId":"1012105","id":"490012105HB","lat":51.514084,"lon":-0.106639,"name":"Shoe Lane","parentId":"490G00012105","stationId":"490G00012105","stopLetter":"H","topMostParentId":"490G00012105"},{"icsId":"1006826","id":"490006826W","lat":51.51414,"lon":-0.108395,"name":"Fetter Lane","parentId":"490G00006826","stationId":"490G00006826","stopLetter":"->W","topMostParentId":"490G00006826"},{"icsId":"1015067","id":"490015067W","lat":51.513876,"lon":-0.110438,"name":"Chancery Lane","parentId":"490G00015067","stationId":"490G00015067","stopLetter":"->W","topMostParentId":"490G00015067"},{"icsId":"1011757","id":"490011757P","lat":51.512963,"lon":-0.113531,"name":"The Royal Courts Of Justice","parentId":"490G000731","stationId":"490G000731","stopLetter":"P","topMostParentId":"490G000731"},{"icsId":"1003193","id":"490003193R","lat":51.5121,"lon":-0.116291,"name":"Aldwych / Somerset House","parentId":"490G000386","stationId":"490G000386","stopLetter":"R","topMostParentId":"490G000386"},{"icsId":"1011938","id":"490011938U","lat":51.510773,"lon":-0.120481,"name":"Savoy Street","parentId":"490G000737","stationId":"490G000737","stopLetter":"U","topMostParentId":"490G000737"},{"icsId":"1003112","id":"490003112J","lat":51.509674,"lon":-0.123193,"name":"Bedford Street","parentId":"490G00003112","stationId":"490G00003112","stopLetter":"J","topMostParentId":"490G00003112"},{"icsId":"1000045","id":"490013766H","lat":51.508435,"lon":-0.12552,"name":"Charing Cross Station","parentId":"490G00045","stationId":"490G00045","stopLetter":"H","topMostParentId":"HUBCHX","zone":"1"}]}]}