{"direction":"outbound","lineId":"n242","lineName":"N242","mode":"bus","stopPointSequences":[{"stopPoint":[{"icsId":"1010470","id":"490012010E","lat":51.557219,"lon":-0.045081,"name":"Millfields Road / Clapton Park","parentId":"490G00010470","stationId":"490G00010470","topMostParentId":"490G00010470"},{"icsId":"1010662","id":"490010662E","lat":51.557995,"lon":-0.040907,"name":"Oswald Street","parentId":"490G00010662","stationId":"490G00010662","topMostParentId":"490G00010662"},{"icsId":"1020008","id":"490008855E","lat":51.556376,"lon":-0.03877,"name":"Mandeville Street","parentId":"490G00020008","stationId":"490G00020008","topMostParentId":"490G00020008"},{"icsId":"1005980","id":"490005980S","lat":51.554501,"lon":-0.037379,"name":"Daubeney Road","parentId":"490G00005980","stationId":"490G00005980","topMostParentId":"490G00005980"},{"icsId":"1011494","id":"490011494W","lat":51.553597,"lon":-0.040909,"name":"Redwald Road","parentId":"490G00011494","stationId":"490G00011494","stopLetter":"K","topMostParentId":"490G00011494"},{"icsId":"1005047","id":"490005047N","lat":51.552314,"lon":-0.04431,"name":"Chatsworth Road / Clifden Road","parentId":"490G00005047","stationId":"490G00005047","stopLetter":"N","topMostParentId":"490G00005047"},{"icsId":"1016752","id":"490016752N","lat":51.554726,"lon":-0.045491,"name":"Chatsworth Estate","parentId":"490G00016752","stationId":"490G00016752","stopLetter":"->N","topMostParentId":"490G00016752"},{"icsId":"1011157","id":"490011157W","lat":51.5554,"lon":-0.047626,"name":"Chatsworth Road","parentId":"490G00011157","stationId":"490G00011157","stopLetter":"->W","topMostParentId":"490G00011157"},{"icsId":"1009782","id":"490009782S","lat":51.552375,"lon":-0.049068,"name":"Median Road","parentId":"490G00009782","stationId":"490G00009782","stopLetter":"P","topMostParentId":"490G00009782"},{"icsId":"1009411","id":"490007220Y","lat":51.55156,"lon":-0.050891,"name":"Lower Clapton Road","parentId":"490G00009411","stationId":"490G00009411","stopLetter":"Y","topMostParentId":"490G00009411"},{"icsId":"1007619","id":"490007619VA","lat":51.550737,"lon":-0.052196,"name":"Hackney Baths","parentId":"490G00007619","stationId":"490G00007619","stopLetter":"Q","topMostParentId":"490G00007619"},{"icsId":"1005341","id":"490005341S","lat":51.549837,"lon":-0.053806,"name":"Clapton Square","parentId":"490G00005341","stationId":"490G00005341","stopLetter":"S","topMostParentId":"490G00005341"},{"icsId":"1010154","id":"490010154Y","lat":51.549476,"lon":-0.058582,"name":"Pembury Circus","parentId":"490G00010154","stationId":"490G00010154","stopLetter":"Y","topMostParentId":"490G00010154"},{"icsId":"1001127","id":"490001127E","lat":51.547485,"lon":-0.055652,"name":"Hackney Central Station","parentId":"490G01127JA","stationId":"490G01127JA","stopLetter":"T","topMostParentId":"910GHACKNYC"},{"icsId":"1019202","id":"490009644E","lat":51.546542,"lon":-0.056846,"name":"Graham Road / Hackney Central","parentId":"490G00019202","stationId":"490G00019202","stopLetter":"E","topMostParentId":"490G00019202"},{"icsId":"1010161","id":"490010161W","lat":51.546109,"lon":-0.061638,"name":"Royal Oak Road","parentId":"490G00010161","stationId":"490G00010161","stopLetter":"Z","topMostParentId":"490G00010161"},{"icsId":"1010160","id":"490010160W","lat":51.545798,"lon":-0.06455,"name":"Greenwood Road","parentId":"490G00010160","stationId":"490G00010160","stopLetter":"B","topMostParentId":"490G00010160"},{"icsId":"1012569","id":"490012569W","lat":51.546153,"lon":-0.068631,"name":"Stannard Road","parentId":"490G00012569","stationId":"490G00012569","stopLetter":"C","topMostParentId":"490G00012569"},{"icsId":"1001568","id":"4900005944Q1","lat":51.546213,"lon":-0.073388,"name":"Dalston Junction Station","parentId":"490G05945G","stationId":"490G05945G","stopLetter":"H","topMostParentId":"910GDALS"},{"icsId":"1006948","id":"490006929D","lat":51.544304,"lon":-0.075964,"name":"Forest Road","parentId":"490G00006948","stationId":"490G00006948","stopLetter":"D","topMostParentId":"490G00006948"},{"icsId":"1009859","id":"490009859S","lat":51.541244,"lon":-0.076396,"name":"Middleton Road","parentId":"490G00009859","stationId":"490G00009859","stopLetter":"KH","topMostParentId":"490G00009859"},{"icsId":"1006170","id":"490006170S1","lat":51.53866,"lon":-0.076707,"name":"Haggerston Station","parentId":"490G00006170","stationId":"490G00006170","stopLetter":"KK","topMostParentId":"490G00006170"},{"icsId":"1008893","id":"490008893S","lat":51.535236,"lon":-0.076865,"name":"Laburnum Street","parentId":"490G00008893","stationId":"490G00008893","stopLetter":"KL","topMostParentId":"490G00008893"},{"icsId":"1012445","id":"490012445S","lat":51.533682,"lon":-0.076989,"name":"St Leonard's Hospital","parentId":"490G00012445","stationId":"490G00012445","stopLetter":"KM","topMostParentId":"490G00012445"},{"icsId":"1006733","id":"490007154S","lat":51.531604,"lon":-0.076946,"name":"Hoxton Station  / Geffrye Museum","parentId":"490G000509","stationId":"490G000509","stopLetter":"KN","topMostParentId":"490G000509"},{"icsId":"1006726","id":"490006726S","lat":51.529634,"lon":-0.077419,"name":"Falkirk Street","parentId":"490G00006726","stationId":"490G00006726","stopLetter":"KP","topMostParentId":"490G00006726"},{"icsId":"1007625","id":"490007625T","lat":51.527943,"lon":-0.077937,"name":"Shoreditch Church","parentId":"490G00007625","stationId":"490G00007625","stopLetter":"T","topMostParentId":"490G00007625"},{"icsId":"1001571","id":"490012113N","lat":51.524964,"lon":-0.077269,"name":"Shoreditch High Street Station","parentId":"490G16266N","stationId":"490G16266N","stopLetter":"N","topMostParentId":"910GSHRDHST"},{"icsId":"1005524","id":"490005524D","lat":51.52193,"lon":-0.078147,"name":"Commercial Street / Worship Street","parentId":"490G00005524","stationId":"490G00005524","stopLetter":"D","topMostParentId":"490G00005524"},{"icsId":"1012391","id":"490012391S","lat":51.519785,"lon":-0.078972,"name":"Primrose Street","parentId":"490G00012391","stationId":"490G00012391","stopLetter":"J","topMostParentId":"490G00012391"},{"icsId":"1000138","id":"490000138L","lat":51.517957,"lon":-0.079914,"name":"Liverpool Street Station","parentId":"490G00138G","stationId":"490G00138G","stopLetter":"L","topMostParentId":"HUBLST","zone":"1"},{"icsId":"1004043","id":"490004043S","lat":51.515618,"lon":-0.082016,"name":"Wormwood Street","parentId":"490G00004043","stationId":"490G00004043","stopLetter":"Y","topMostParentId":"490G00004043"},{"icsId":"1010527","id":"490010527W","lat":51.51413,"lon":-0.085624,"name":"Old Broad Street","parentId":"490G00010527","stationId":"490G00010527","stopLetter":"LL","topMostParentId":"490G00010527"},{"icsId":"1007596","id":"490007596L","lat":51.513593,"lon":-0.091296,"name":"Poultry / Bank Station","parentId":"490G00007596","stationId":"490G00007596","stopLetter":"L","topMostParentId":"490G00007596"},{"icsId":"1015124","id":"490015124Z","lat":51.514193,"lon":-0.095047,"name":"Bread Street","parentId":"490G000861","stationId":"490G000861","stopLetter":"SN","topMostParentId":"490G000861"},{"icsId":"1000225","id":"490000225T","lat":51.515257,"lon":-0.098505,"name":"St Paul's Station","parentId":"490G00225S","stationId":"490G00225S","stopLetter":"SQ","topMostParentId":"940GZZLUSPU","zone":"1"},{"icsId":"1001067","id":"490001067R","lat":51.516479,"lon":-0.102907,"name":"City Thameslink Station","parentId":"490G01067Q","stationId":"490G01067Q","stopLetter":"HK","topMostParentId":"910GCTMSLNK"},{"icsId":"1015096","id":"490015096L","lat":51.517535,"lon":-0.10651,"name":"Holborn Circus","parentId":"490G00015096","stationId":"490G00015096","stopLetter":"L","topMostParentId":"490G00015096"},{"icsId":"1008275","id":"490008275G","lat":51.517769,"lon":-0.108749,"name":"Holborn Circus / Fetter Lane","parentId":"490G00008275","stationId":"490G00008275","stopLetter":"G","topMostParentId":"490G00008275"},{"icsId":"1000044","id":"490000044F","lat":51.518166,"lon":-0.112177,"name":"Chancery Lane Station","parentId":"490G00044E","stationId":"490G00044E","stopLetter":"F","topMostParentId":"940GZZLUCHL","zone":"1"},{"icsId":"1004514","id":"490004514W","lat":51.518099,"lon":-0.114731,"name":"Brownlow Street","parentId":"490G00004514","stationId":"490G00004514","stopLetter":"R","topMostParentId":"490G00004514"},{"icsId":"1000112","id":"490015239K","lat":51.517674,"lon":-0.118482,"name":"Holborn Station","parentId":"490G15239K","stationId":"490G15239K","stopLetter":"K","topMostParentId":"940GZZLUHBN","zone":"1"},{"icsId":"1008166","id":"490008166Q","lat":51.517407,"lon":-0.121477,"name":"High Holborn","parentId":"490G000595","stationId":"490G000595","stopLetter":"Q","topMostParentId":"490G000595"},{"icsId":"1006203","id":"490006203RA","lat":51.516366,"lon":-0.12384,"name":"Drury Lane","parentId":"490G00006203","stationId":"490G00006203","stopLetter":"S","topMostParentId":"490G00006203"},{"icsId":"1023076","id":"490023076W","lat":51.515558,"lon":-0.127318,"name":"St Giles High Street","parentId":"490G00023076","stationId":"490G00023076","stopLetter":"->W","topMostParentId":"490G00023076"}]}]}