{"direction":"outbound","lineId":"n25","lineName":"N25","mode":"bus","stopPointSequences":[{"stopPoint":[{"icsId":"1015196","id":"490015196OG","lat":51.515864,"lon":-0.144846,"name":"Holles Street","parentId":"490G000874","stationId":"490G000874","stopLetter":"OG","topMostParentId":"490G000874"},{"icsId":"1010689","id":"490010689OJ","lat":51.515673,"lon":-0.139031,"name":"Great Titchfield St / Oxford Circus Stn","parentId":"490G000691","stationId":"490G000691","stopLetter":"OJ","topMostParentId":"490G000691"},{"icsId":"1000235","id":"490000235V","lat":51.516379,"lon":-0.131954,"name":"Tottenham Court Road Station","parentId":"490G00235V","stationId":"490G00235V","stopLetter":"V","topMostParentId":"940GZZLUTCR","zone":"1"},{"icsId":"1018892","id":"490000235Z","lat":51.516728,"lon":-0.128466,"name":"New Oxford Street","parentId":"490G00018892","stationId":"490G00018892","stopLetter":"Z","topMostParentId":"490G00018892"},{"icsId":"1010131","id":"490010131WB","lat":51.517579,"lon":-0.124338,"name":"Museum Street","parentId":"490G00010131","stationId":"490G00010131","stopLetter":"E","topMostParentId":"490G00010131"},{"icsId":"1011244","id":"490011244J","lat":51.518332,"lon":-0.119161,"name":"Procter Street","parentId":"490G00011244","stationId":"490G00011244","stopLetter":"H","topMostParentId":"490G00011244"},{"icsId":"1004514","id":"490004514E","lat":51.518221,"lon":-0.115,"name":"Brownlow Street","parentId":"490G00004514","stationId":"490G00004514","stopLetter":"S","topMostParentId":"490G00004514"},{"icsId":"1000044","id":"490000044E","lat":51.518386,"lon":-0.112413,"name":"Chancery Lane Station","parentId":"490G00044E","stationId":"490G00044E","stopLetter":"E","topMostParentId":"940GZZLUCHL","zone":"1"},{"icsId":"1008275","id":"490008275D","lat":51.518042,"lon":-0.109458,"name":"Holborn Circus / Fetter Lane","parentId":"490G00008275","stationId":"490G00008275","stopLetter":"D","topMostParentId":"490G00008275"},{"icsId":"1015096","id":"490008275K","lat":51.517578,"lon":-0.106379,"name":"Holborn Circus","parentId":"490G00015096","stationId":"490G00015096","stopLetter":"K","topMostParentId":"490G00015096"},{"icsId":"1001067","id":"490001067Q","lat":51.516888,"lon":-0.103726,"name":"City Thameslink Station","parentId":"490G01067Q","stationId":"490G01067Q","stopLetter":"HL","topMostParentId":"910GCTMSLNK"},{"icsId":"1008748","id":"490000225S","lat":51.515719,"lon":-0.09984,"name":"King Edward Street","parentId":"490G000621","stationId":"490G000621","stopLetter":"ST","topMostParentId":"490G000621"},{"icsId":"1000225","id":"49000225SY","lat":51.514428,"lon":-0.095628,"name":"St Paul's Station","parentId":"490G00225S","stationId":"490G00225S","stopLetter":"SY","topMostParentId":"940GZZLUSPU","zone":"1"},{"icsId":"1007599","id":"490007596K","lat":51.513739,"lon":-0.091463,"name":"Bank Station  / Poultry","parentId":"490G00007599","stationId":"490G00007599","stopLetter":"K","topMostParentId":"HUBBAN"},{"icsId":"1007606","id":"490000013D","lat":51.51338,"lon":-0.087586,"name":"Bank Station  / Cornhill","parentId":"490G000556","stationId":"490G000556","stopLetter":"D","topMostParentId":"HUBBAN"},{"icsId":"1015079","id":"490015079E","lat":51.513454,"lon":-0.084975,"name":"Bishopsgate","parentId":"490G00015079","stationId":"490G00015079","stopLetter":"R","topMostParentId":"490G00015079"},{"icsId":"1012783","id":"490012783E","lat":51.513516,"lon":-0.082753,"name":"St Mary Axe","parentId":"490G00012783","stationId":"490G00012783","stopLetter":"LR","topMostParentId":"490G00012783"},{"icsId":"1012755","id":"490012755E","lat":51.513336,"lon":-0.078869,"name":"St Katharine Cree","parentId":"490G000767","stationId":"490G000767","stopLetter":"X","topMostParentId":"490G000767"},{"icsId":"1000003","id":"490000003Y","lat":51.514293,"lon":-0.074735,"name":"Aldgate Station","parentId":"490G00003N","stationId":"490G00003N","stopLetter":"D","topMostParentId":"940GZZLUALD","zone":"1"},{"icsId":"1000004","id":"490000004E","lat":51.515498,"lon":-0.071427,"name":"Aldgate East Station","parentId":"490G00004G","stationId":"490G00004G","stopLetter":"E","topMostParentId":"940GZZLUADE","zone":"1"},{"icsId":"1006827","id":"490018832E","lat":51.5167,"lon":-0.068523,"name":"Altab Ali Park","parentId":"490G000514","stationId":"490G000514","stopLetter":"D","topMostParentId":"490G000514"},{"icsId":"1010258","id":"490010258J","lat":51.51819,"lon":-0.064525,"name":"The East London Mosque","parentId":"490G00010258","stationId":"490G00010258","stopLetter":"J","topMostParentId":"490G00010258"},{"icsId":"1013579","id":"490009873D","lat":51.519417,"lon":-0.058779,"name":"Whitechapel Stn   / Royal London Hosp","parentId":"490G000796","stationId":"490G000796","stopLetter":"B","topMostParentId":"490G000796"},{"icsId":"1004147","id":"490004147G","lat":51.520338,"lon":-0.054142,"name":"Booth Memorial","parentId":"490G00004147","stationId":"490G00004147","stopLetter":"G","topMostParentId":"490G00004147"},{"icsId":"1015508","id":"490015508E2","lat":51.520909,"lon":-0.051148,"name":"Stepney Green","parentId":"490G00015508","stationId":"490G00015508","stopLetter":"A","topMostParentId":"490G00015508"},{"icsId":"1000220","id":"490000220E1","lat":51.521775,"lon":-0.046988,"name":"Stepney Green Station","parentId":"490G00220E1","stationId":"490G00220E1","stopLetter":"B","topMostParentId":"940GZZLUSGN","zone":"2"},{"icsId":"1010513","id":"490010513E","lat":51.522232,"lon":-0.044749,"name":"Bancroft Road / Ocean Estate","parentId":"490G00010513","stationId":"490G00010513","stopLetter":"C","topMostParentId":"490G00010513"},{"icsId":"1011315","id":"490011315E","lat":51.522815,"lon":-0.040846,"name":"Queen Mary / University Of London","parentId":"490G00011315","stationId":"490G00011315","stopLetter":"D","topMostParentId":"490G00011315"},{"icsId":"1007341","id":"490007341E","lat":51.524353,"lon":-0.03709,"name":"Regents Canal","parentId":"490G00007341","stationId":"490G00007341","stopLetter":"E","topMostParentId":"490G00007341"},{"icsId":"1000146","id":"490000146D","lat":51.52537,"lon":-0.033918,"name":"Mile End Station","parentId":"490G00146C","stationId":"490G00146C","stopLetter":"D","topMostParentId":"940GZZLUMED","zone":"2"},{"icsId":"1012648","id":"490012648L","lat":51.526388,"lon":-0.029203,"name":"Coborn Road","parentId":"490G00012648","stationId":"490G00012648","stopLetter":"L","topMostParentId":"490G00012648"},{"icsId":"1000029","id":"490000029Q","lat":51.527018,"lon":-0.026033,"name":"Bow Road Station","parentId":"490G00029Q","stationId":"490G00029Q","stopLetter":"Y","topMostParentId":"940GZZLUBWR","zone":"2"},{"icsId":"1002019","id":"490002019A","lat":51.528149,"lon":-0.020621,"name":"Bow Church Station","parentId":"490G02019A","stationId":"490G02019A","stopLetter":"A","topMostParentId":"940GZZDLBOW","zone":"2"},{"icsId":"1004206","id":"490004215M","lat":51.52895,"lon":-0.016881,"name":"Bow Church","parentId":"490G000421","stationId":"490G000421","stopLetter":"M","topMostParentId":"490G000421"},{"icsId":"1009695","id":"490009695MA","lat":51.531281,"lon":-0.0112,"name":"Marshgate Lane","parentId":"490G000661","stationId":"490G000661","stopLetter":"W","topMostParentId":"490G000661"},{"icsId":"1014249","id":"490003025E","lat":51.534656,"lon":-0.006554,"name":"Warton Road","parentId":"490G00014249","stationId":"490G00014249","stopLetter":"M","topMostParentId":"490G00014249"},{"icsId":"1014215","id":"490014215N","lat":51.536891,"lon":-0.003659,"name":"Stratford High St Stn  / Carpenters Rd","parentId":"490G00014215","stationId":"490G00014215","stopLetter":"N","topMostParentId":"490G00014215"},{"icsId":"1012904","id":"490012904B","lat":51.540954,"lon":-0.001981,"name":"Stratford Bus Station","parentId":"490G000773","stationId":"490G000773","stopLetter":"B","topMostParentId":"HUBSRA"},{"icsId":"1012906","id":"490015114G","lat":51.540793,"lon":0.001098,"name":"Stratford Centre","parentId":"490G00012906","stationId":"490G00012906","stopLetter":"G","topMostParentId":"490G00012906"},{"icsId":"1013480","id":"490013480E","lat":51.542337,"lon":0.004987,"name":"Litchfield Avenue","parentId":"490G00013480","stationId":"490G00013480","stopLetter":"MJ","topMostParentId":"490G00013480"},{"icsId":"1014269","id":"490014269E","lat":51.542661,"lon":0.008607,"name":"Water Lane / University Of East London","parentId":"490G00014269","stationId":"490G00014269","stopLetter":"MK","topMostParentId":"490G00014269"},{"icsId":"1003468","id":"490003468E","lat":51.544428,"lon":0.015189,"name":"Atherton Leisure Centre","parentId":"490G00003468","stationId":"490G00003468","stopLetter":"->E","topMostParentId":"490G00003468"},{"icsId":"1006936","id":"490009563E","lat":51.545845,"lon":0.020631,"name":"Margery Park Road","parentId":"490G00006936","stationId":"490G00006936","stopLetter":"N","topMostParentId":"490G00006936"},{"icsId":"1006919","id":"490006917F","lat":51.546463,"lon":0.024409,"name":"Woodgrange Road","parentId":"490G00006919","stationId":"490G00006919","stopLetter":"F","topMostParentId":"490G00006919"},{"icsId":"1007497","id":"490007497E","lat":51.547098,"lon":0.031908,"name":"Green Street","parentId":"490G00007497","stationId":"490G00007497","stopLetter":"P","topMostParentId":"490G00007497"},{"icsId":"1008603","id":"490008603E","lat":51.547772,"lon":0.036582,"name":"Katherine Road","parentId":"490G00008603","stationId":"490G00008603","stopLetter":"->E","topMostParentId":"490G00008603"},{"icsId":"1012131","id":"490012131E","lat":51.548364,"lon":0.039811,"name":"Shrewsbury Road","parentId":"490G00012131","stationId":"490G00012131","stopLetter":"->E","topMostParentId":"490G00012131"},{"icsId":"1001341","id":"490001341H","lat":51.549195,"lon":0.04318,"name":"Woodgrange Park Station","parentId":"490G01341G","stationId":"490G01341G","stopLetter":"H","topMostParentId":"910GWDGRNPK"},{"icsId":"1008189","id":"490008189E","lat":51.55042,"lon":0.046711,"name":"High Street North","parentId":"490G000596","stationId":"490G000596","stopLetter":"E","topMostParentId":"490G000596"},{"icsId":"1006856","id":"490006856E","lat":51.55188,"lon":0.050657,"name":"First Avenue","parentId":"490G00006856","stationId":"490G00006856","stopLetter":"K","topMostParentId":"490G00006856"},{"icsId":"1009570","id":"490009570E","lat":51.552571,"lon":0.052808,"name":"Rabbits Road","parentId":"490G00009570","stationId":"490G00009570","stopLetter":"L","topMostParentId":"490G00009570"},{"icsId":"1012005","id":"490012005E","lat":51.553636,"lon":0.055655,"name":"Seventh Avenue","parentId":"490G00012005","stationId":"490G00012005","stopLetter":"M","topMostParentId":"490G00012005"},{"icsId":"1009219","id":"490009219E","lat":51.555088,"lon":0.060524,"name":"Little Ilford Lane","parentId":"490G00009219","stationId":"490G00009219","stopLetter":"N","topMostParentId":"490G00009219"},{"icsId":"1010328","id":"490010328E","lat":51.55601,"lon":0.063826,"name":"North Circular Road","parentId":"490G00010328","stationId":"490G00010328","stopLetter":"P","topMostParentId":"490G00010328"},{"icsId":"1008467","id":"490008467F","lat":51.55816,"lon":0.068915,"name":"Ilford Hill","parentId":"490G000605","stationId":"490G000605","stopLetter":"F","topMostParentId":"490G000605"},{"icsId":"1004985","id":"490004986P","lat":51.557696,"lon":0.070235,"name":"Chapel Road","parentId":"490G00004985","stationId":"490G00004985","stopLetter":"P","topMostParentId":"490G00004985"},{"icsId":"1008466","id":"490008466R","lat":51.558154,"lon":0.074353,"name":"Redbridge Central Library","parentId":"490G00008466","stationId":"490G00008466","stopLetter":"R","topMostParentId":"490G00008466"},{"icsId":"1007657","id":"490007657S","lat":51.559592,"lon":0.07589,"name":"Hainault Street","parentId":"490G00007657","stationId":"490G00007657","stopLetter":"S","topMostParentId":"490G00007657"}]}]}