{"direction":"outbound","lineId":"n279","lineName":"N279","mode":"bus","stopPointSequences":[{"stopPoint":[{"icsId":"1014156","id":"210021703425","lat":51.685627,"lon":-0.031351,"name":"Waltham Cross Bus Station","parentId":"210G432","stationId":"210G432","stopLetter":"B","topMostParentId":"210G432"},{"icsId":"1003378","id":"490003378G","lat":51.682164,"lon":-0.03344,"name":"Arlington Crescent","parentId":"490G00003378","stationId":"490G00003378","stopLetter":"H","topMostParentId":"490G00003378"},{"icsId":"1003104","id":"490003104S","lat":51.678435,"lon":-0.034166,"name":"Bullsmoor Lane","parentId":"490G00003104","stationId":"490G00003104","stopLetter":"A","topMostParentId":"490G00003104"},{"icsId":"1003227","id":"490009539S","lat":51.676394,"lon":-0.035266,"name":"Oakhurst Road","parentId":"490G00003227","stationId":"490G00003227","stopLetter":"B","topMostParentId":"490G00003227"},{"icsId":"1011290","id":"490011290S","lat":51.673908,"lon":-0.038209,"name":"Totteridge Road","parentId":"490G00011290","stationId":"490G00011290","stopLetter":"K","topMostParentId":"490G00011290"},{"icsId":"1011290","id":"490010626C","lat":51.671299,"lon":-0.040317,"name":"Turkey Street Station","parentId":"490G01299D","stationId":"490G01299D","stopLetter":"L","topMostParentId":"910GTURKYST"},{"icsId":"1003140","id":"490003140S","lat":51.668824,"lon":-0.041277,"name":"Albany Leisure Centre","parentId":"490G00003140","stationId":"490G00003140","stopLetter":"M","topMostParentId":"490G00003140"},{"icsId":"1005757","id":"490008479S","lat":51.665731,"lon":-0.043421,"name":"Ingersoll Road","parentId":"490G00005757","stationId":"490G00005757","stopLetter":"N","topMostParentId":"490G00005757"},{"icsId":"1003254","id":"49003254EA","lat":51.662029,"lon":-0.045749,"name":"Oatlands Road","parentId":"490G00003254","stationId":"490G00003254","stopLetter":"EA","topMostParentId":"490G00003254"},{"icsId":"1004828","id":"490004828S","lat":51.660556,"lon":-0.046391,"name":"Carterhatch Lane","parentId":"490G00004828","stationId":"490G00004828","stopLetter":"EB","topMostParentId":"490G00004828"},{"icsId":"1004314","id":"490004314S","lat":51.658087,"lon":-0.047191,"name":"Green Street","parentId":"490G00004314","stationId":"490G00004314","stopLetter":"EC","topMostParentId":"490G00004314"},{"icsId":"1006269","id":"490006269S","lat":51.65429,"lon":-0.048149,"name":"Durants Park","parentId":"490G00006269","stationId":"490G00006269","stopLetter":"ED","topMostParentId":"490G00006269"},{"icsId":"1006579","id":"490006579S","lat":51.652383,"lon":-0.047566,"name":"Enfield College","parentId":"490G00006579","stationId":"490G00006579","stopLetter":"EE","topMostParentId":"490G00006579"},{"icsId":"1015441","id":"490015441F","lat":51.649133,"lon":-0.046261,"name":"Durants Road","parentId":"490G000895","stationId":"490G000895","stopLetter":"F","topMostParentId":"490G000895"},{"icsId":"1015442","id":"490015441J","lat":51.64751,"lon":-0.046562,"name":"Southbury Road","parentId":"490G00015442","stationId":"490G00015442","stopLetter":"J","topMostParentId":"490G00015442"},{"icsId":"1011367","id":"490012335L","lat":51.644763,"lon":-0.046275,"name":"Ponders End Park","parentId":"490G00011367","stationId":"490G00011367","stopLetter":"L","topMostParentId":"490G00011367"},{"icsId":"1010364","id":"490010364S","lat":51.641665,"lon":-0.047102,"name":"Orchard Road","parentId":"490G00010364","stationId":"490G00010364","stopLetter":"LZ","topMostParentId":"490G00010364"},{"icsId":"1005881","id":"490005881S","lat":51.636888,"lon":-0.050226,"name":"Cuckoo Hall Lane","parentId":"490G00005881","stationId":"490G00005881","stopLetter":"LC","topMostParentId":"490G00005881"},{"icsId":"1013770","id":"490013770S","lat":51.635328,"lon":-0.052114,"name":"Tramway Avenue","parentId":"490G00013770","stationId":"490G00013770","stopLetter":"LD","topMostParentId":"490G00013770"},{"icsId":"1006933","id":"490006933S","lat":51.632452,"lon":-0.054405,"name":"Forest Road / Jubilee Park","parentId":"490G00006933","stationId":"490G00006933","stopLetter":"LE","topMostParentId":"490G00006933"},{"icsId":"1004180","id":"490004180S","lat":51.629424,"lon":-0.056153,"name":"Bounces Road","parentId":"490G00004180","stationId":"490G00004180","stopLetter":"LF","topMostParentId":"490G00004180"},{"icsId":"1004181","id":"490004181W","lat":51.627494,"lon":-0.056336,"name":"Monmouth Road","parentId":"490G00004181","stationId":"490G00004181","stopLetter":"LH","topMostParentId":"490G00004181"},{"icsId":"1009983","id":"490009983G","lat":51.625477,"lon":-0.058893,"name":"Edmonton Green Bus Station","parentId":"490G00009983","stationId":"490G00009983","stopLetter":"G","topMostParentId":"490G00009983"},{"icsId":"1006445","id":"490006445A","lat":51.622675,"lon":-0.061324,"name":"Edmonton Police Station","parentId":"490G00006445","stationId":"490G00006445","stopLetter":"J","topMostParentId":"490G00006445"},{"icsId":"1011968","id":"490011968S","lat":51.621136,"lon":-0.061794,"name":"Shrubbery Road","parentId":"490G00011968","stationId":"490G00011968","stopLetter":"K","topMostParentId":"490G00011968"},{"icsId":"1010801","id":"490010801G","lat":51.617877,"lon":-0.063161,"name":"Brettenham Road","parentId":"490G00010801","stationId":"490G00010801","stopLetter":"G","topMostParentId":"490G00010801"},{"icsId":"1003322","id":"490015189E","lat":51.616009,"lon":-0.063862,"name":"Angel Corner","parentId":"490G00003322","stationId":"490G00003322","stopLetter":"E","topMostParentId":"490G00003322"},{"icsId":"1005520","id":"490005690K","lat":51.611943,"lon":-0.064858,"name":"Colyton Way","parentId":"490G00005520","stationId":"490G00005520","stopLetter":"K","topMostParentId":"490G00005520"},{"icsId":"1005690","id":"490010463S","lat":51.609307,"lon":-0.066458,"name":"Nutfield Close","parentId":"490G00005690","stationId":"490G00005690","stopLetter":"L","topMostParentId":"490G00005690"},{"icsId":"1001335","id":"490001335D","lat":51.605916,"lon":-0.068046,"name":"White Hart Lane Station","parentId":"490G01335D","stationId":"490G01335D","stopLetter":"M","topMostParentId":"910GWHHRTLA"},{"icsId":"1013733","id":"490013733V","lat":51.602898,"lon":-0.067697,"name":"Tottenham Hotspur Football Club","parentId":"490G00013733","stationId":"490G00013733","stopLetter":"N","topMostParentId":"490G00013733"},{"icsId":"1013738","id":"490013738S","lat":51.60179,"lon":-0.067557,"name":"Tottenham Sports Centre","parentId":"490G00013738","stationId":"490G00013738","stopLetter":"P","topMostParentId":"490G00013738"},{"icsId":"1009360","id":"490009360S","lat":51.598928,"lon":-0.067996,"name":"Lordship Lane","parentId":"490G00009360","stationId":"490G00009360","stopLetter":"A","topMostParentId":"490G00009360"},{"icsId":"1011950","id":"490011950S","lat":51.597247,"lon":-0.068024,"name":"Scotland Green","parentId":"490G00011950","stationId":"490G00011950","stopLetter":"B","topMostParentId":"490G00011950"},{"icsId":"1016825","id":"490016825W","lat":51.595025,"lon":-0.069042,"name":"Dowsett Road","parentId":"490G00016825","stationId":"490G00016825","stopLetter":"CA","topMostParentId":"490G00016825"},{"icsId":"1013736","id":"490013736Z","lat":51.591845,"lon":-0.069798,"name":"Tottenham Police Station","parentId":"490G00013736","stationId":"490G00013736","stopLetter":"DA","topMostParentId":"490G00013736"},{"icsId":"1015083","id":"490013739N","lat":51.587929,"lon":-0.070657,"name":"Tottenham Town Hall","parentId":"490G000860","stationId":"490G000860","stopLetter":"W","topMostParentId":"490G000860"},{"icsId":"1013739","id":"490015083G","lat":51.585706,"lon":-0.071603,"name":"College Of North East London","parentId":"490G00013739","stationId":"490G00013739","stopLetter":"J","topMostParentId":"490G00013739"},{"icsId":"1019455","id":"490019455S","lat":51.582488,"lon":-0.07337,"name":"Stonebridge Rd / Seven Sisters Stn","parentId":"490G00019455","stationId":"490G00019455","stopLetter":"A","topMostParentId":"490G00019455"},{"icsId":"1007439","id":"490007439S","lat":51.581027,"lon":-0.076925,"name":"Elizabeth Road","parentId":"490G000543","stationId":"490G000543","stopLetter":"TR","topMostParentId":"490G000543"},{"icsId":"1012432","id":"490012432W","lat":51.579771,"lon":-0.079864,"name":"St Ann's Road","parentId":"490G00012432","stationId":"490G00012432","stopLetter":"TS","topMostParentId":"490G00012432"},{"icsId":"1008123","id":"490008123S","lat":51.576627,"lon":-0.083922,"name":"Heysham Road","parentId":"490G00008123","stationId":"490G00008123","stopLetter":"TT","topMostParentId":"490G00008123"},{"icsId":"1014012","id":"490014012S","lat":51.575227,"lon":-0.085208,"name":"Vartry Road","parentId":"490G00014012","stationId":"490G00014012","topMostParentId":"490G00014012"},{"icsId":"1003306","id":"490003306W","lat":51.573555,"lon":-0.087414,"name":"Seven Sisters Road / Amhurst Park","parentId":"490G00003306","stationId":"490G00003306","stopLetter":"U","topMostParentId":"490G00003306"},{"icsId":"1014812","id":"490014812W","lat":51.572137,"lon":-0.091485,"name":"Woodberry Grove","parentId":"490G00014812","stationId":"490G00014812","stopLetter":"V","topMostParentId":"490G00014812"},{"icsId":"1000142","id":"490000142H","lat":51.571246,"lon":-0.094192,"name":"Manor House Station","parentId":"490G00142G","stationId":"490G00142G","stopLetter":"H","topMostParentId":"940GZZLUMRH","zone":"2+3"},{"icsId":"1020010","id":"490015076L","lat":51.569828,"lon":-0.097123,"name":"Portland Rise","parentId":"490G00020010","stationId":"490G00020010","stopLetter":"R","topMostParentId":"490G00020010"},{"icsId":"1003208","id":"490003208S","lat":51.567379,"lon":-0.100255,"name":"Alexandra Grove","parentId":"490G00003208","stationId":"490G00003208","stopLetter":"P","topMostParentId":"490G00003208"},{"icsId":"1015078","id":"490015078M","lat":51.565251,"lon":-0.103244,"name":"Finsbury Park / Blackstock Road","parentId":"490G000858","stationId":"490G000858","stopLetter":"M","topMostParentId":"HUBFPK"},{"icsId":"1000083","id":"490000083S","lat":51.563746,"lon":-0.10638,"name":"Finsbury Park Station","parentId":"490G00083S","stationId":"490G00083S","stopLetter":"S","topMostParentId":"HUBFPK","zone":"2"},{"icsId":"1006889","id":"490006889Z","lat":51.562661,"lon":-0.107709,"name":"Isledon Road","parentId":"490G000519","stationId":"490G000519","stopLetter":"T","topMostParentId":"490G000519"},{"icsId":"1003929","id":"490003929S","lat":51.559618,"lon":-0.110274,"name":"Berriman Road","parentId":"490G00003929","stationId":"490G00003929","stopLetter":"NM","topMostParentId":"490G00003929"},{"icsId":"1013695","id":"490008368S","lat":51.557998,"lon":-0.111856,"name":"Sobell Centre","parentId":"490G00013695","stationId":"490G00013695","stopLetter":"NN","topMostParentId":"490G00013695"},{"icsId":"1008298","id":"490008298R","lat":51.556523,"lon":-0.115754,"name":"Holloway Road","parentId":"490G00008298","stationId":"490G00008298","stopLetter":"R","topMostParentId":"490G00008298"},{"icsId":"1004679","id":"490004679X","lat":51.55541,"lon":-0.118671,"name":"Caledonian Road","parentId":"490G00004679","stationId":"490G00004679","stopLetter":"X","topMostParentId":"490G00004679"},{"icsId":"1007614","id":"490008230S","lat":51.553665,"lon":-0.122565,"name":"Hillmarton Road","parentId":"490G00007614","stationId":"490G00007614","stopLetter":"M","topMostParentId":"490G00007614"},{"icsId":"1015052","id":"490015052S","lat":51.550949,"lon":-0.126543,"name":"Hilldrop Road","parentId":"490G00015052","stationId":"490G00015052","stopLetter":"A","topMostParentId":"490G00015052"},{"icsId":"1004278","id":"490004278S","lat":51.549352,"lon":-0.128411,"name":"Brecknock Road","parentId":"490G00004278","stationId":"490G00004278","stopLetter":"B","topMostParentId":"490G00004278"},{"icsId":"1004715","id":"490004715W","lat":51.547062,"lon":-0.131476,"name":"Camden Park Road","parentId":"490G00004715","stationId":"490G00004715","stopLetter":"C","topMostParentId":"490G00004715"},{"icsId":"1011887","id":"490011887W","lat":51.54599,"lon":-0.13302,"name":"Sandall Road","parentId":"490G00011887","stationId":"490G00011887","stopLetter":"D","topMostParentId":"490G00011887"},{"icsId":"1011616","id":"490011616W","lat":51.544133,"lon":-0.135591,"name":"Murray Street","parentId":"490G00011616","stationId":"490G00011616","stopLetter":"->W","topMostParentId":"490G00011616"},{"icsId":"1001045","id":"490001045F","lat":51.542299,"lon":-0.137829,"name":"Camden Road Station","parentId":"490G01045G","stationId":"490G01045G","stopLetter":"F","topMostParentId":"910GCMDNRD"},{"icsId":"1000036","id":"490000036S","lat":51.5397,"lon":-0.141281,"name":"Camden Town Station","parentId":"490G00036N","stationId":"490G00036N","stopLetter":"S","topMostParentId":"940GZZLUCTN","zone":"2"},{"icsId":"1011168","id":"490011168S2","lat":51.537164,"lon":-0.139524,"name":"Pratt Street","parentId":"490G00011168","stationId":"490G00011168","stopLetter":"V","topMostParentId":"490G00011168"},{"icsId":"1000152","id":"490000152C","lat":51.534036,"lon":-0.13906,"name":"Mornington Crescent Station","parentId":"490G00152G","stationId":"490G00152G","stopLetter":"C","topMostParentId":"940GZZLUMTC","zone":"2"},{"icsId":"1012158","id":"490012158S","lat":51.530746,"lon":-0.138603,"name":"Silverdale","parentId":"490G00012158","stationId":"490G00012158","stopLetter":"W","topMostParentId":"490G00012158"},{"icsId":"1010158","id":"490010158S","lat":51.527535,"lon":-0.138547,"name":"Robert Street","parentId":"490G00010158","stationId":"490G00010158","stopLetter":"K","topMostParentId":"490G00010158"},{"icsId":"1015047","id":"490000252R","lat":51.525735,"lon":-0.138447,"name":"Warren Street Station  / Euston Road","parentId":"490G00015047","stationId":"490G00015047","stopLetter":"R","topMostParentId":"490G00015047"},{"icsId":"1013914","id":"490013914N","lat":51.524105,"lon":-0.134348,"name":"Gower Street / University College Hosp","parentId":"490G000810","stationId":"490G000810","stopLetter":"N","topMostParentId":"490G000810"},{"icsId":"1013720","id":"490013720S","lat":51.52294,"lon":-0.132896,"name":"Torrington Place","parentId":"490G00013720","stationId":"490G00013720","stopLetter":"C","topMostParentId":"490G00013720"},{"icsId":"1005084","id":"490005084D","lat":51.521214,"lon":-0.131194,"name":"Chenies Street","parentId":"490G00005084","stationId":"490G00005084","stopLetter":"D","topMostParentId":"490G00005084"},{"icsId":"1007414","id":"490007414R","lat":51.518276,"lon":-0.127985,"name":"Great Russell Street","parentId":"490G00007414","stationId":"490G00007414","stopLetter":"R","topMostParentId":"490G00007414"},{"icsId":"1000235","id":"490000235W1","lat":51.51555,"lon":-0.128486,"name":"Tottenham Court Road Station","parentId":"490G00235E","stationId":"490G00235E","stopLetter":"S","topMostParentId":"940GZZLUTCR","zone":"1"},{"icsId":"1004695","id":"490004695D","lat":51.513412,"lon":-0.129207,"name":"Cambridge Circus","parentId":"490G00004695","stationId":"490G00004695","stopLetter":"D","topMostParentId":"490G00004695"},{"icsId":"1000135","id":"490000135B","lat":51.511591,"lon":-0.128331,"name":"Leicester Square Station","parentId":"490G00135B","stationId":"490G00135B","stopLetter":"J","topMostParentId":"940GZZLULSQ","zone":"1"},{"icsId":"1016161","id":"490016161S","lat":51.509848,"lon":-0.127869,"name":"St Martin's Place","parentId":"490G00016161","stationId":"490G00016161","stopLetter":"K","topMostParentId":"490G00016161"},{"icsId":"1013767","id":"490013767D","lat":51.508189,"lon":-0.127058,"name":"Trafalgar Square / Charing Cross Stn","parentId":"490G000804","stationId":"490G000804","stopLetter":"D","topMostParentId":"490G000804"}]}]}