{"direction":"outbound","lineId":"n3","lineName":"N3","mode":"bus","stopPointSequences":[{"stopPoint":[{"icsId":"1010697","id":"490000173RF","lat":51.515939,"lon":-0.142219,"name":"Oxford Circus Stn  / Margaret Street","parentId":"490G000694","stationId":"490G000694","stopLetter":"RF","topMostParentId":"490G000694"},{"icsId":"1004810","id":"490004810RJ","lat":51.512341,"lon":-0.139858,"name":"Conduit Street / Hamleys Toy Store","parentId":"490G00004810","stationId":"490G00004810","stopLetter":"T","topMostParentId":"490G00004810"},{"icsId":"1000179","id":"490000179F","lat":51.509894,"lon":-0.136427,"name":"Piccadilly Circus","parentId":"490G00179D","stationId":"490G00179D","stopLetter":"F","topMostParentId":"940GZZLUPCC","zone":"1"},{"icsId":"1007960","id":"490007960P","lat":51.50898,"lon":-0.132098,"name":"Haymarket / Charles II Street","parentId":"490G00007960","stationId":"490G00007960","stopLetter":"P","topMostParentId":"490G00007960"},{"icsId":"1013767","id":"490013767A","lat":51.507631,"lon":-0.129804,"name":"Trafalgar Sq / Charing Cross Stn","parentId":"490G000804","stationId":"490G000804","stopLetter":"A","topMostParentId":"490G000804"},{"icsId":"1014585","id":"490014585M","lat":51.506482,"lon":-0.127142,"name":"Whitehall / Trafalgar Square","parentId":"490G000832","stationId":"490G000832","stopLetter":"M","topMostParentId":"490G000832"},{"icsId":"1019475","id":"490019475P","lat":51.505293,"lon":-0.126456,"name":"Whitehall / Horseguards Avenue","parentId":"490G00019475","stationId":"490G00019475","stopLetter":"P","topMostParentId":"490G00019475"},{"icsId":"1008376","id":"490008376S","lat":51.504325,"lon":-0.126092,"name":"Horse Guards Parade","parentId":"490G00008376","stationId":"490G00008376","stopLetter":"->S","topMostParentId":"490G00008376"},{"icsId":"1015048","id":"490015048T","lat":51.50248,"lon":-0.125995,"name":"Westminster Stn  / Parliament Square","parentId":"490G000852","stationId":"490G000852","topMostParentId":"HUBWSM"},{"icsId":"1003059","id":"490003059E","lat":51.497591,"lon":-0.125605,"name":"Abingdon Street","parentId":"490G00003059","stationId":"490G00003059","stopLetter":"L","topMostParentId":"490G00003059"},{"icsId":"1006007","id":"490006007S1","lat":51.495516,"lon":-0.1252,"name":"Horseferry Road","parentId":"490G00006007","stationId":"490G00006007","stopLetter":"NB","topMostParentId":"490G00006007"},{"icsId":"1008917","id":"490008917E2","lat":51.494752,"lon":-0.119584,"name":"Lambeth Palace","parentId":"490G00008917","stationId":"490G00008917","stopLetter":"SB","topMostParentId":"490G00008917"},{"icsId":"1011169","id":"490011169E","lat":51.495274,"lon":-0.116797,"name":"Pratt Walk","parentId":"490G00011169","stationId":"490G00011169","stopLetter":"->E","topMostParentId":"490G00011169"},{"icsId":"1008647","id":"490008647E","lat":51.49626,"lon":-0.112708,"name":"Lambeth Road / Kennington Road","parentId":"490G00008647","stationId":"490G00008647","stopLetter":"J","topMostParentId":"490G00008647"},{"icsId":"1008476","id":"490008473S","lat":51.494745,"lon":-0.110768,"name":"Kennington Road / Imperial War Museum","parentId":"490G000608","stationId":"490G000608","stopLetter":"S","topMostParentId":"490G000608"},{"icsId":"1006864","id":"490006864S1","lat":51.492031,"lon":-0.110909,"name":"Fitzalan Street","parentId":"490G00006864","stationId":"490G00006864","stopLetter":"KF","topMostParentId":"490G00006864"},{"icsId":"1008643","id":"490008643KE","lat":51.489801,"lon":-0.110915,"name":"Kennington Lane","parentId":"490G00008643","stationId":"490G00008643","stopLetter":"KE","topMostParentId":"490G00008643"},{"icsId":"1014773","id":"490014773KQ","lat":51.487576,"lon":-0.111237,"name":"Windmill Row","parentId":"490G00014773","stationId":"490G00014773","stopLetter":"KQ","topMostParentId":"490G00014773"},{"icsId":"1008645","id":"490008645X","lat":51.485054,"lon":-0.110391,"name":"Kennington Park Post Office","parentId":"490G00008645","stationId":"490G00008645","stopLetter":"X","topMostParentId":"490G00008645"},{"icsId":"1008642","id":"490008642K","lat":51.480212,"lon":-0.111239,"name":"St Mark's Church","parentId":"490G00008642","stationId":"490G00008642","stopLetter":"K","topMostParentId":"490G00008642"},{"icsId":"1014013","id":"490014013S","lat":51.476058,"lon":-0.112419,"name":"Vassall Road","parentId":"490G00014013","stationId":"490G00014013","stopLetter":"RH","topMostParentId":"490G00014013"},{"icsId":"1007587","id":"490007587S","lat":51.473544,"lon":-0.112652,"name":"Groveway","parentId":"490G00007587","stationId":"490G00007587","stopLetter":"RJ","topMostParentId":"490G00007587"},{"icsId":"1009373","id":"490009373S1","lat":51.470942,"lon":-0.112472,"name":"Loughborough Road","parentId":"490G00009373","stationId":"490G00009373","stopLetter":"RK","topMostParentId":"490G00009373"},{"icsId":"1014085","id":"490014085S","lat":51.468316,"lon":-0.11245,"name":"Villa Road","parentId":"490G00014085","stationId":"490G00014085","stopLetter":"RL","topMostParentId":"490G00014085"},{"icsId":"1007523","id":"490007523F","lat":51.465548,"lon":-0.113688,"name":"Brixton Road / Brixton Police Station","parentId":"490G000549","stationId":"490G000549","stopLetter":"F","topMostParentId":"490G000549"},{"icsId":"1000031","id":"490000031N","lat":51.4625,"lon":-0.11485,"name":"Brixton Station","parentId":"490G00031N","stationId":"490G00031N","stopLetter":"N","topMostParentId":"HUBBRX","zone":"2"},{"icsId":"1012808","id":"4900019343S","lat":51.460245,"lon":-0.115533,"name":"St Matthew's Church","parentId":"490G00012808","stationId":"490G00012808","stopLetter":"ZA","topMostParentId":"490G00012808"},{"icsId":"1012810","id":"490012810S","lat":51.458156,"lon":-0.114784,"name":"St Matthews Estate","parentId":"490G00012810","stationId":"490G00012810","stopLetter":"A","topMostParentId":"490G00012810"},{"icsId":"1005847","id":"490010053S","lat":51.456401,"lon":-0.114151,"name":"Morval Road","parentId":"490G00005847","stationId":"490G00005847","stopLetter":"B","topMostParentId":"490G00005847"},{"icsId":"1005933","id":"490005933S","lat":51.455953,"lon":-0.110916,"name":"Dalberg Road / Effra Parade","parentId":"490G00005933","stationId":"490G00005933","stopLetter":"Q","topMostParentId":"490G00005933"},{"icsId":"1009933","id":"490009933W","lat":51.454121,"lon":-0.107696,"name":"Milton Road","parentId":"490G00009933","stationId":"490G00009933","stopLetter":"R","topMostParentId":"490G00009933"},{"icsId":"1004402","id":"490004402P","lat":51.453337,"lon":-0.105382,"name":"Brockwell Lido","parentId":"490G00004402","stationId":"490G00004402","stopLetter":"Z","topMostParentId":"490G00004402"},{"icsId":"1001149","id":"490001149N","lat":51.452618,"lon":-0.102649,"name":"Herne Hill Station","parentId":"490G01149L","stationId":"490G01149L","stopLetter":"N","topMostParentId":"910GHERNEH"},{"icsId":"1004403","id":"490004403G","lat":51.451509,"lon":-0.100752,"name":"Brockwell Park","parentId":"490G000428","stationId":"490G000428","stopLetter":"G","topMostParentId":"490G000428"},{"icsId":"1007592","id":"490007592S","lat":51.449633,"lon":-0.099333,"name":"Guernsey Grove","parentId":"490G00007592","stationId":"490G00007592","stopLetter":"K","topMostParentId":"490G00007592"},{"icsId":"1013847","id":"490013847S","lat":51.446208,"lon":-0.095546,"name":"Turney Road","parentId":"490G00013847","stationId":"490G00013847","stopLetter":"WD","topMostParentId":"490G00013847"},{"icsId":"1011293","id":"490011293S","lat":51.443648,"lon":-0.094573,"name":"Pymers Mead","parentId":"490G00011293","stationId":"490G00011293","stopLetter":"WE","topMostParentId":"490G00011293"},{"icsId":"1013657","id":"490013657S","lat":51.441691,"lon":-0.09313,"name":"Croxted Road / Thurlow Park Road","parentId":"490G000799","stationId":"490G000799","stopLetter":"WF","topMostParentId":"490G000799"},{"icsId":"1009183","id":"490009183S","lat":51.438254,"lon":-0.091388,"name":"Lings Coppice","parentId":"490G00009183","stationId":"490G00009183","stopLetter":"WG","topMostParentId":"490G00009183"},{"icsId":"1008459","id":"490008459S","lat":51.436623,"lon":-0.090607,"name":"Ildersly Grove","parentId":"490G00008459","stationId":"490G00008459","stopLetter":"WH","topMostParentId":"490G00008459"},{"icsId":"1010774","id":"490010774S","lat":51.434364,"lon":-0.089953,"name":"Park Hall Road","parentId":"490G00010774","stationId":"490G00010774","stopLetter":"WJ","topMostParentId":"490G00010774"},{"icsId":"1005246","id":"490005246S","lat":51.432304,"lon":-0.089377,"name":"Church Approach","parentId":"490G00005246","stationId":"490G00005246","stopLetter":"WK","topMostParentId":"490G00005246"},{"icsId":"1012270","id":"490003233S","lat":51.430388,"lon":-0.088767,"name":"South Croxted Road","parentId":"490G00012270","stationId":"490G00012270","stopLetter":"WL","topMostParentId":"490G00012270"},{"icsId":"1007190","id":"490016646S","lat":51.42875,"lon":-0.086476,"name":"Gipsy Hill","parentId":"490G00007190","stationId":"490G00007190","stopLetter":"D","topMostParentId":"490G00007190"},{"icsId":"1008839","id":"490008839SE","lat":51.427025,"lon":-0.081657,"name":"Dulwich Wood Park / Kingswood Drive","parentId":"490G00008839","stationId":"490G00008839","stopLetter":"Q","topMostParentId":"490G00008839"},{"icsId":"1015289","id":"490015289E","lat":51.427007,"lon":-0.077256,"name":"Dulwich Wood Park / College Road","parentId":"490G00015289","stationId":"490G00015289","stopLetter":"R","topMostParentId":"490G00015289"},{"icsId":"1005494","id":"490005494S2","lat":51.4232,"lon":-0.076509,"name":"Crystal Palace Parade / College Road","parentId":"490G00005494","stationId":"490G00005494","stopLetter":"S","topMostParentId":"490G00005494"},{"icsId":"1005869","id":"490005869A","lat":51.42107,"lon":-0.077706,"name":"Crystal Palace Parade","parentId":"490G00005869","stationId":"490G00005869","stopLetter":"A","topMostParentId":"490G00005869"},{"icsId":"1005877","id":"490005870E","lat":51.419757,"lon":-0.077129,"name":"Crystal Palace Park","parentId":"490G00005877","stationId":"490G00005877","stopLetter":"E","topMostParentId":"490G00005877"},{"icsId":"1001078","id":"490001078M","lat":51.417826,"lon":-0.073974,"name":"Crystal Palace Station","parentId":"490G01078M","stationId":"490G01078M","stopLetter":"M","topMostParentId":"HUBCYP"},{"icsId":"1003320","id":"490007700S","lat":51.41576,"lon":-0.071918,"name":"Hamlet Road","parentId":"490G00003320","stationId":"490G00003320","stopLetter":"A","topMostParentId":"490G00003320"},{"icsId":"1013610","id":"490013610S","lat":51.414224,"lon":-0.069883,"name":"Thicket Road","parentId":"490G00013610","stationId":"490G00013610","stopLetter":"B","topMostParentId":"490G00013610"},{"icsId":"1018975","id":"490001007AA","lat":51.41208,"lon":-0.066896,"name":"Anerley Road / Anerley Station","parentId":"490G00018975","stationId":"490G00018975","stopLetter":"C","topMostParentId":"490G00018975"},{"icsId":"1012015","id":"490012015S","lat":51.410984,"lon":-0.065346,"name":"Seymour Villas","parentId":"490G00012015","stationId":"490G00012015","stopLetter":"D","topMostParentId":"490G00012015"},{"icsId":"1003955","id":"490003955AG","lat":51.409676,"lon":-0.062942,"name":"Betts Way","parentId":"490G00003955","stationId":"490G00003955","stopLetter":"U","topMostParentId":"490G00003955"},{"icsId":"1018973","id":"490003317AH","lat":51.409224,"lon":-0.060071,"name":"Anerley Road / Croydon Road","parentId":"490G00018973","stationId":"490G00018973","stopLetter":"V","topMostParentId":"490G00018973"},{"icsId":"1003317","id":"490003317AK","lat":51.409068,"lon":-0.058798,"name":"Anerley Road / Oak Grove Road","parentId":"490G00003317","stationId":"490G00003317","stopLetter":"E","topMostParentId":"490G00003317"},{"icsId":"1003494","id":"490003494E","lat":51.41075,"lon":-0.05608,"name":"Avenue Road","parentId":"490G00003494","stationId":"490G00003494","stopLetter":"F","topMostParentId":"490G00003494"},{"icsId":"1015419","id":"490015419G","lat":51.413607,"lon":-0.052148,"name":"Penge / Pawleyne Arms","parentId":"490G00015419","stationId":"490G00015419","stopLetter":"G","topMostParentId":"490G00015419"},{"icsId":"1010907","id":"490010906J","lat":51.413523,"lon":-0.051404,"name":"Penge / Sainsbury's","parentId":"490G00010907","stationId":"490G00010907","stopLetter":"J","topMostParentId":"490G00010907"},{"icsId":"1005393","id":"490005393E","lat":51.4119,"lon":-0.049014,"name":"Clevedon Road","parentId":"490G00005393","stationId":"490G00005393","stopLetter":"->E","topMostParentId":"490G00005393"},{"icsId":"1001163","id":"490001163E","lat":51.410258,"lon":-0.045949,"name":"Kent House Station","parentId":"490G01163W","stationId":"490G01163W","stopLetter":"BA","topMostParentId":"910GKENTHOS"},{"icsId":"1002010","id":"490002010A","lat":51.409352,"lon":-0.043443,"name":"Beckenham Road Tram Stop","parentId":"490G02010B","stationId":"490G02010B","stopLetter":"BB","topMostParentId":"940GZZCRBRD"},{"icsId":"1001071","id":"490001071B","lat":51.408765,"lon":-0.040045,"name":"Clock House Station","parentId":"490G01071A","stationId":"490G01071A","stopLetter":"BC","topMostParentId":"910GCLOCKHS"},{"icsId":"1006516","id":"490006516E","lat":51.408526,"lon":-0.038143,"name":"Beckenham Library","parentId":"490G00006516","stationId":"490G00006516","stopLetter":"BD","topMostParentId":"490G00006516"},{"icsId":"1015349","id":"490015349E1","lat":51.407959,"lon":-0.035407,"name":"Hayne Road","parentId":"490G00015349","stationId":"490G00015349","stopLetter":"BE","topMostParentId":"490G00015349"},{"icsId":"1003744","id":"490003744P","lat":51.406681,"lon":-0.030544,"name":"Beckenham High Street / War Memorial","parentId":"490G00003744","stationId":"490G00003744","stopLetter":"P","topMostParentId":"490G00003744"},{"icsId":"1009580","id":"490009580J","lat":51.407728,"lon":-0.026487,"name":"Manor Road","parentId":"490G00009580","stationId":"490G00009580","stopLetter":"J","topMostParentId":"490G00009580"},{"icsId":"1012691","id":"490012691E","lat":51.408799,"lon":-0.024399,"name":"Bromley Road / St George's Church","parentId":"490G00012691","stationId":"490G00012691","stopLetter":"E","topMostParentId":"490G00012691"},{"icsId":"1004975","id":"490004975N2","lat":51.406532,"lon":-0.019551,"name":"Chancery Lane","parentId":"490G00004975","stationId":"490G00004975","stopLetter":"L","topMostParentId":"490G00004975"},{"icsId":"1010668","id":"490010668S","lat":51.402942,"lon":-0.018901,"name":"Overbury Avenue","parentId":"490G00010668","stationId":"490G00010668","stopLetter":"PA","topMostParentId":"490G00010668"},{"icsId":"1013296","id":"490013296S","lat":51.400385,"lon":-0.018177,"name":"The Chinese Garage","parentId":"490G00013296","stationId":"490G00013296","stopLetter":"PB","topMostParentId":"490G00013296"},{"icsId":"1008674","id":"490008674E","lat":51.399462,"lon":-0.013056,"name":"Kenwood Drive","parentId":"490G00008674","stationId":"490G00008674","stopLetter":"PC","topMostParentId":"490G00008674"},{"icsId":"1011958","id":"490011958E","lat":51.399233,"lon":-0.009141,"name":"Scotts Lane","parentId":"490G00011958","stationId":"490G00011958","stopLetter":"PD","topMostParentId":"490G00011958"},{"icsId":"1006029","id":"490006029S","lat":51.398457,"lon":-0.006875,"name":"Den Close","parentId":"490G00006029","stationId":"490G00006029","stopLetter":"PE","topMostParentId":"490G00006029"},{"icsId":"1008844","id":"490008844S","lat":51.397214,"lon":-0.004614,"name":"Hayes Lane / Kingswood Road","parentId":"490G00008844","stationId":"490G00008844","stopLetter":"PF","topMostParentId":"490G00008844"},{"icsId":"1004224","id":"490004224S","lat":51.394969,"lon":-0.002699,"name":"Brabourne Rise","parentId":"490G00004224","stationId":"490G00004224","stopLetter":"PH","topMostParentId":"490G00004224"},{"icsId":"1003644","id":"490003644E","lat":51.392869,"lon":0.002326,"name":"Barnfield Wood Road","parentId":"490G00003644","stationId":"490G00003644","stopLetter":"E","topMostParentId":"490G00003644"},{"icsId":"1004376","id":"490004376N","lat":51.39383,"lon":0.005013,"name":"Broadoaks Way","parentId":"490G00004376","stationId":"490G00004376","stopLetter":"F","topMostParentId":"490G00004376"},{"icsId":"1019189","id":"490004897E","lat":51.396116,"lon":0.009627,"name":"Westmoreland Road / Cumberland Road","parentId":"490G00019189","stationId":"490G00019189","stopLetter":"G","topMostParentId":"490G00019189"},{"icsId":"1011304","id":"490011304D","lat":51.398038,"lon":0.013981,"name":"Queen Anne Avenue","parentId":"490G00011304","stationId":"490G00011304","stopLetter":"D","topMostParentId":"490G00011304"},{"icsId":"1012775","id":"490012775E","lat":51.398829,"lon":0.016589,"name":"St Mark's Church","parentId":"490G00012775","stationId":"490G00012775","stopLetter":"E","topMostParentId":"490G00012775"},{"icsId":"1001037","id":"490001037W","lat":51.400663,"lon":0.016627,"name":"Bromley South Station","parentId":"490G01037U","stationId":"490G01037U","stopLetter":"B","topMostParentId":"910GBROMLYS"},{"icsId":"1004410","id":"4900004410U","lat":51.402771,"lon":0.016403,"name":"Elmfield Road / The Mall","parentId":"490G00004410","stationId":"490G00004410","stopLetter":"U","topMostParentId":"490G00004410"},{"icsId":"1008665","id":"490008665Q","lat":51.404237,"lon":0.018495,"name":"Bromley Civic Centre","parentId":"490G00008665","stationId":"490G00008665","stopLetter":"S","topMostParentId":"490G00008665"},{"icsId":"1004435","id":"490004435Q","lat":51.406005,"lon":0.016603,"name":"Bromley Town Hall","parentId":"490G00004435","stationId":"490G00004435","stopLetter":"Q","topMostParentId":"490G00004435"},{"icsId":"1004425","id":"4900004425O","lat":51.407987,"lon":0.013814,"name":"West Street","parentId":"490G00004425","stationId":"490G00004425","stopLetter":"O","topMostParentId":"490G00004425"},{"icsId":"1001036","id":"490001036N","lat":51.409,"lon":0.016591,"name":"Bromley North Station","parentId":"490G01036EB","stationId":"490G01036EB","stopLetter":"->N","topMostParentId":"910GBROMLYN"}]}]}