{"direction":"outbound","lineId":"n31","lineName":"N31","mode":"bus","stopPointSequences":[{"stopPoint":[{"icsId":"1003698","id":"490003698W","lat":51.538257,"lon":-0.140431,"name":"Bayham Street","parentId":"490G000399","stationId":"490G000399","stopLetter":"U","topMostParentId":"490G000399"},{"icsId":"1019169","id":"490011057L","lat":51.535676,"lon":-0.138157,"name":"Plender Street","parentId":"490G00019169","stationId":"490G00019169","stopLetter":"L","topMostParentId":"490G00019169"},{"icsId":"1004714","id":"490004714J","lat":51.536515,"lon":-0.140574,"name":"Camden High Street","parentId":"490G000437","stationId":"490G000437","stopLetter":"J","topMostParentId":"490G000437"},{"icsId":"1000036","id":"490015041X","lat":51.538314,"lon":-0.142318,"name":"Camden Town Station","parentId":"490G00036N","stationId":"490G00036N","stopLetter":"X","topMostParentId":"940GZZLUCTN","zone":"2"},{"icsId":"1007876","id":"490007876O","lat":51.54229,"lon":-0.146929,"name":"Hartland Road / Camden Market","parentId":"490G00007876","stationId":"490G00007876","stopLetter":"CQ","topMostParentId":"490G00007876"},{"icsId":"1013538","id":"490013538CF","lat":51.543404,"lon":-0.151427,"name":"The Roundhouse","parentId":"490G00013538","stationId":"490G00013538","stopLetter":"CF","topMostParentId":"490G00013538"},{"icsId":"1000043","id":"490000043CB","lat":51.543879,"lon":-0.15422,"name":"Chalk Farm Station","parentId":"490G00043CD","stationId":"490G00043CD","stopLetter":"CB","topMostParentId":"940GZZLUCFM","zone":"2"},{"icsId":"1006655","id":"490006776CH","lat":51.543753,"lon":-0.15933,"name":"Eton Road","parentId":"490G00006655","stationId":"490G00006655","stopLetter":"T","topMostParentId":"490G00006655"},{"icsId":"1011186","id":"490015529W","lat":51.543471,"lon":-0.163135,"name":"Primrose Hill Road","parentId":"490G00011186","stationId":"490G00011186","stopLetter":"U","topMostParentId":"490G00011186"},{"icsId":"1013582","id":"490013582W","lat":51.543208,"lon":-0.165308,"name":"Elsworthy Rise","parentId":"490G00013582","stationId":"490G00013582","stopLetter":"V","topMostParentId":"490G00013582"},{"icsId":"1009423","id":"490009423W","lat":51.542768,"lon":-0.168787,"name":"Lower Merton Rise","parentId":"490G00009423","stationId":"490G00009423","stopLetter":"W","topMostParentId":"490G00009423"},{"icsId":"1003495","id":"490003495H","lat":51.541886,"lon":-0.172226,"name":"Avenue Road / Swiss Cottage Library","parentId":"490G000395","stationId":"490G000395","stopLetter":"H","topMostParentId":"490G000395"},{"icsId":"1000230","id":"490015162L","lat":51.543147,"lon":-0.175247,"name":"Swiss Cottage Stn  /  Finchley Road","parentId":"490G00230N","stationId":"490G00230N","stopLetter":"L","topMostParentId":"940GZZLUSWC","zone":"2"},{"icsId":"1006703","id":"490006703P","lat":51.544872,"lon":-0.178019,"name":"Fairfax Road","parentId":"490G00006703","stationId":"490G00006703","stopLetter":"P","topMostParentId":"490G00006703"},{"icsId":"1009372","id":"490009371W","lat":51.541271,"lon":-0.181235,"name":"South Hampstead Station  / Loudoun Road","parentId":"490G00009372","stationId":"490G00009372","stopLetter":"L","topMostParentId":"490G00009372"},{"icsId":"1003027","id":"490003027W","lat":51.53997,"lon":-0.18668,"name":"Abbey Road","parentId":"490G00003027","stationId":"490G00003027","stopLetter":"M","topMostParentId":"490G00003027"},{"icsId":"1001170","id":"490001170U","lat":51.537702,"lon":-0.191774,"name":"Kilburn High Road Station","parentId":"490G01170Q","stationId":"490G01170Q","stopLetter":"U","topMostParentId":"910GKLBRNHR"},{"icsId":"1015243","id":"490015243Y","lat":51.536533,"lon":-0.192368,"name":"Kilburn High Rd Stn  / Cambridge Avenue","parentId":"490G000885","stationId":"490G000885","stopLetter":"Y","topMostParentId":"490G000885"},{"icsId":"1000127","id":"490000127KB","lat":51.534692,"lon":-0.193695,"name":"Kilburn Park Station","parentId":"490G00127KB","stationId":"490G00127KB","stopLetter":"KB","topMostParentId":"940GZZLUKPK","zone":"2"},{"icsId":"1012630","id":"490012626S","lat":51.532713,"lon":-0.192476,"name":"Carlton Vale","parentId":"490G00012630","stationId":"490G00012630","stopLetter":"MB","topMostParentId":"490G00012630"},{"icsId":"1004444","id":"490004444S","lat":51.530216,"lon":-0.194391,"name":"Cambridge Road","parentId":"490G00004444","stationId":"490G00004444","stopLetter":"MC","topMostParentId":"490G00004444"},{"icsId":"1005189","id":"490005186S1","lat":51.528012,"lon":-0.196136,"name":"Shirland Road","parentId":"490G00005189","stationId":"490G00005189","stopLetter":"MD","topMostParentId":"490G00005189"},{"icsId":"1013297","id":"490013297S2","lat":51.527271,"lon":-0.197031,"name":"Chippenham Road / Shirland Road","parentId":"490G00013297","stationId":"490G00013297","stopLetter":"MM","topMostParentId":"490G00013297"},{"icsId":"1006473","id":"490006473W","lat":51.525056,"lon":-0.198055,"name":"Elgin Avenue / Chippenham Road","parentId":"490G00006473","stationId":"490G00006473","stopLetter":"MN","topMostParentId":"490G00006473"},{"icsId":"1019459","id":"490007861W2","lat":51.524499,"lon":-0.200398,"name":"Harrow Road","parentId":"490G00019459","stationId":"490G00019459","stopLetter":"F","topMostParentId":"490G00019459"},{"icsId":"1018986","id":"490007861K","lat":51.523123,"lon":-0.201591,"name":"Great Western Road / Harrow Road","parentId":"490G00018986","stationId":"490G00018986","stopLetter":"K","topMostParentId":"490G00018986"},{"icsId":"1000259","id":"490000259B","lat":51.520274,"lon":-0.19993,"name":"Westbourne Park Station","parentId":"490G00259A","stationId":"490G00259A","stopLetter":"B","topMostParentId":"940GZZLUWSP","zone":"2"},{"icsId":"1007420","id":"490008697N","lat":51.518924,"lon":-0.197533,"name":"Shrewsbury Road / Brunel Estate","parentId":"490G00007420","stationId":"490G00007420","stopLetter":"N","topMostParentId":"490G00007420"},{"icsId":"1012948","id":"490012948S","lat":51.517983,"lon":-0.195942,"name":"St Stephens Gardens","parentId":"490G00012948","stationId":"490G00012948","stopLetter":"->S","topMostParentId":"490G00012948"},{"icsId":"1014402","id":"490014402Z","lat":51.515498,"lon":-0.195161,"name":"Westbourne Grove","parentId":"490G00014402","stationId":"490G00014402","stopLetter":"Z","topMostParentId":"490G00014402"},{"icsId":"1005089","id":"490005089D","lat":51.514586,"lon":-0.195514,"name":"Pembridge Villas","parentId":"490G00005089","stationId":"490G00005089","stopLetter":"PW","topMostParentId":"490G00005089"},{"icsId":"1005085","id":"490005085S","lat":51.512835,"lon":-0.197428,"name":"Chepstow Crescent","parentId":"490G00005085","stationId":"490G00005085","stopLetter":"PX","topMostParentId":"490G00005085"},{"icsId":"1000167","id":"490015039C","lat":51.50926,"lon":-0.197079,"name":"Notting Hill Gate Station","parentId":"490G00167G","stationId":"490G00167G","stopLetter":"C","topMostParentId":"940GZZLUNHG","zone":"1+2"},{"icsId":"1019161","id":"490000167K","lat":51.509095,"lon":-0.193973,"name":"Palace Gardens Terr / Notting Hill Gte","parentId":"490G00019161","stationId":"490G00019161","stopLetter":"K","topMostParentId":"490G00019161"},{"icsId":"1012055","id":"490012055S","lat":51.506873,"lon":-0.194522,"name":"Sheffield Terrace","parentId":"490G00012055","stationId":"490G00012055","stopLetter":"P","topMostParentId":"490G00012055"},{"icsId":"1010536","id":"490010536K","lat":51.503676,"lon":-0.191867,"name":"York House Place / Kensington High St","parentId":"490G00010536","stationId":"490G00010536","stopLetter":"K","topMostParentId":"490G00010536"},{"icsId":"1000110","id":"490000110E","lat":51.501326,"lon":-0.192234,"name":"High Street Kensington Station","parentId":"490G00110R","stationId":"490G00110R","stopLetter":"E","topMostParentId":"940GZZLUHSK","zone":"1"},{"icsId":"1010984","id":"490010984T","lat":51.499808,"lon":-0.196487,"name":"Phillimore Gardens","parentId":"490G00010984","stationId":"490G00010984","stopLetter":"T","topMostParentId":"490G00010984"},{"icsId":"1005529","id":"490005528V","lat":51.498613,"lon":-0.198277,"name":"Earls Court Road / Pembroke Place","parentId":"490G00005529","stationId":"490G00005529","stopLetter":"V","topMostParentId":"490G00005529"},{"icsId":"1010898","id":"490011943S","lat":51.496479,"lon":-0.196935,"name":"Pembroke Road","parentId":"490G00010898","stationId":"490G00010898","stopLetter":"L","topMostParentId":"490G00010898"},{"icsId":"1019786","id":"490006305H","lat":51.495149,"lon":-0.195835,"name":"Cromwell Road","parentId":"490G00019786","stationId":"490G00019786","stopLetter":"H","topMostParentId":"490G00019786"},{"icsId":"1010187","id":"490010187K","lat":51.493312,"lon":-0.194453,"name":"Nevern Place","parentId":"490G000671","stationId":"490G000671","stopLetter":"K","topMostParentId":"490G000671"},{"icsId":"1000064","id":"490000064A","lat":51.491997,"lon":-0.192574,"name":"Earls Court Station","parentId":"490G00064A","stationId":"490G00064A","stopLetter":"A","topMostParentId":"940GZZLUECT","zone":"1+2"},{"icsId":"1015228","id":"490015228L","lat":51.490197,"lon":-0.190744,"name":"Earls Court Road / Old Brompton Road","parentId":"490G00015228","stationId":"490G00015228","stopLetter":"L","topMostParentId":"490G00015228"},{"icsId":"1011479","id":"490011479S","lat":51.487324,"lon":-0.188107,"name":"Redcliffe Square","parentId":"490G00011479","stationId":"490G00011479","stopLetter":"HU","topMostParentId":"490G00011479"},{"icsId":"1019758","id":"490007055HK","lat":51.484456,"lon":-0.184663,"name":"Fulham Road / Chelsea & Westminster Hosp","parentId":"490G00019758","stationId":"490G00019758","stopLetter":"HK","topMostParentId":"490G00019758"},{"icsId":"1015066","id":"490015066S","lat":51.482358,"lon":-0.182168,"name":"Edith Grove / King's Road","parentId":"490G00015066","stationId":"490G00015066","stopLetter":"HN","topMostParentId":"490G00015066"},{"icsId":"1005086","id":"490005076E","lat":51.482446,"lon":-0.179155,"name":"Hobury Street / Worlds End","parentId":"490G00005086","stationId":"490G00005086","stopLetter":"QH","topMostParentId":"490G00005086"},{"icsId":"1019014","id":"490015145S","lat":51.483875,"lon":-0.175079,"name":"Beaufort Street / King's Road","parentId":"490G00019014","stationId":"490G00019014","stopLetter":"QL","topMostParentId":"490G00019014"},{"icsId":"1005152","id":"490005152S","lat":51.482743,"lon":-0.173944,"name":"Cheyne Walk","parentId":"490G00005152","stationId":"490G00005152","stopLetter":"BA","topMostParentId":"490G00005152"},{"icsId":"1010771","id":"490010771S","lat":51.47861,"lon":-0.170134,"name":"Parkgate Road","parentId":"490G00010771","stationId":"490G00010771","stopLetter":"BE","topMostParentId":"490G00010771"},{"icsId":"1010979","id":"490010979S","lat":51.475926,"lon":-0.167592,"name":"Petworth Street","parentId":"490G00010979","stationId":"490G00010979","stopLetter":"BF","topMostParentId":"490G00010979"},{"icsId":"1013443","id":"490013443W1","lat":51.47241,"lon":-0.164162,"name":"The Latchmere","parentId":"490G00013443","stationId":"490G00013443","stopLetter":"LC","topMostParentId":"490G00013443"},{"icsId":"1004568","id":"490004568W","lat":51.471506,"lon":-0.167841,"name":"Bullen Street","parentId":"490G00004568","stationId":"490G00004568","stopLetter":"LD","topMostParentId":"490G00004568"},{"icsId":"1003687","id":"490003687W2","lat":51.470433,"lon":-0.170591,"name":"Battersea High Street","parentId":"490G00003687","stationId":"490G00003687","stopLetter":"LE","topMostParentId":"490G00003687"},{"icsId":"1006722","id":"490006722S","lat":51.468051,"lon":-0.170614,"name":"Falcon Grove","parentId":"490G00006722","stationId":"490G00006722","topMostParentId":"490G00006722"},{"icsId":"1009849","id":"490009843G","lat":51.465812,"lon":-0.168904,"name":"Clapham Junction Station  / Falcon Road","parentId":"490G00009849","stationId":"490G00009849","stopLetter":"G","topMostParentId":"490G00009849"},{"icsId":"1001069","id":"490015060L","lat":51.463101,"lon":-0.169804,"name":"Clapham Junction Station","parentId":"490G01069M","stationId":"490G01069M","stopLetter":"L","topMostParentId":"490G01069M"}]}]}