{"direction":"outbound","lineId":"n343","lineName":"N343","mode":"bus","stopPointSequences":[{"stopPoint":[{"icsId":"1013766","id":"490013766G","lat":51.508644,"lon":-0.126232,"name":"Trafalgar Square / Charing Cross Stn","parentId":"490G000803","stationId":"490G000803","stopLetter":"G","topMostParentId":"HUBCHX"},{"icsId":"1012247","id":"490012247A","lat":51.510367,"lon":-0.122069,"name":"Southampton Street / Covent Garden","parentId":"490G00012247","stationId":"490G00012247","stopLetter":"A","topMostParentId":"490G00012247"},{"icsId":"1019704","id":"490019704K","lat":51.513339,"lon":-0.116211,"name":"Aldwych / The Royal Courts Of Justice","parentId":"490G00019704","stationId":"490G00019704","stopLetter":"K","topMostParentId":"490G00019704"},{"icsId":"1003193","id":"490003193S","lat":51.51186,"lon":-0.11705,"name":"Aldwych / Somerset House","parentId":"490G000386","stationId":"490G000386","stopLetter":"S","topMostParentId":"490G000386"},{"icsId":"1014271","id":"490014271N","lat":51.507076,"lon":-0.115403,"name":"Waterloo Bridge / South Bank","parentId":"490G000819","stationId":"490G000819","stopLetter":"N","topMostParentId":"HUBWAT"},{"icsId":"1014275","id":"490014275M","lat":51.505478,"lon":-0.112197,"name":"Waterloo Road","parentId":"490G00014275","stationId":"490G00014275","stopLetter":"M","topMostParentId":"HUBWAT"},{"icsId":"1005457","id":"490005457E","lat":51.506513,"lon":-0.109446,"name":"Coin Street","parentId":"490G00005457","stationId":"490G00005457","stopLetter":"SJ","topMostParentId":"490G00005457"},{"icsId":"1008808","id":"490008808SF","lat":51.507214,"lon":-0.106664,"name":"Kings Reach Building","parentId":"490G000626","stationId":"490G000626","stopLetter":"SF","topMostParentId":"490G000626"},{"icsId":"1004063","id":"490004063SM","lat":51.506849,"lon":-0.103524,"name":"Blackfriars Road","parentId":"490G00004063","stationId":"490G00004063","stopLetter":"SM","topMostParentId":"HUBBFR"},{"icsId":"1009011","id":"490009011SW","lat":51.505328,"lon":-0.097924,"name":"Lavington Street","parentId":"490G00009011","stationId":"490G00009011","stopLetter":"SW","topMostParentId":"490G00009011"},{"icsId":"1012348","id":"490012348E","lat":51.50489,"lon":-0.094714,"name":"Southwark Street / Southwark Bridge Road","parentId":"490G000754","stationId":"490G000754","stopLetter":"BV","topMostParentId":"490G000754"},{"icsId":"1013424","id":"490013424E","lat":51.504884,"lon":-0.091616,"name":"The Hop Exchange","parentId":"490G00013424","stationId":"490G00013424","stopLetter":"->E","topMostParentId":"490G00013424"},{"icsId":"1019954","id":"490000139A","lat":51.504979,"lon":-0.087491,"name":"London Bridge Station","parentId":"490G000970","stationId":"490G000970","stopLetter":"D","topMostParentId":"HUBLBG"},{"icsId":"1019864","id":"490013910S","lat":51.504037,"lon":-0.09096,"name":"Southwark Street","parentId":"490G00019864","stationId":"490G00019864","topMostParentId":"490G00019864"},{"icsId":"1013910","id":"490013910H","lat":51.502403,"lon":-0.092224,"name":"Union Street","parentId":"490G00013910","stationId":"490G00013910","stopLetter":"H","topMostParentId":"490G00013910"},{"icsId":"1000026","id":"490000026A","lat":51.500641,"lon":-0.093926,"name":"Borough Station","parentId":"490G00026B","stationId":"490G00026B","stopLetter":"A","topMostParentId":"940GZZLUBOR","zone":"1"},{"icsId":"1003548","id":"490003548B","lat":51.498402,"lon":-0.097794,"name":"Inner London Crown Court","parentId":"490G00003548","stationId":"490G00003548","stopLetter":"B","topMostParentId":"490G00003548"},{"icsId":"1009297","id":"490000073G","lat":51.496934,"lon":-0.099325,"name":"Elephant & Castle / Newington Causeway","parentId":"490G000644","stationId":"490G000644","stopLetter":"G","topMostParentId":"490G000644"},{"icsId":"1000073","id":"490000073R","lat":51.493256,"lon":-0.099305,"name":"Elephant & Castle Station","parentId":"490G00073G","stationId":"490G00073G","stopLetter":"R","topMostParentId":"HUBEPH","zone":"1+2"},{"icsId":"1007739","id":"490007739S","lat":51.492567,"lon":-0.098397,"name":"Hampton Street","parentId":"490G00007739","stationId":"490G00007739","stopLetter":"->S","topMostParentId":"490G00007739"},{"icsId":"1015379","id":"490015379S","lat":51.491749,"lon":-0.091272,"name":"Larcom Street","parentId":"490G00015379","stationId":"490G00015379","stopLetter":"RZ","topMostParentId":"490G00015379"},{"icsId":"1003557","id":"490003557S","lat":51.491384,"lon":-0.089818,"name":"Balfour Street","parentId":"490G00003557","stationId":"490G00003557","stopLetter":"K","topMostParentId":"490G00003557"},{"icsId":"1019184","id":"490013658S1","lat":51.490148,"lon":-0.087349,"name":"East Street","parentId":"490G00019184","stationId":"490G00019184","stopLetter":"L","topMostParentId":"490G00019184"},{"icsId":"1003274","id":"490003274S","lat":51.487061,"lon":-0.084453,"name":"Alsace Road","parentId":"490G00003274","stationId":"490G00003274","stopLetter":"M","topMostParentId":"490G00003274"},{"icsId":"1003143","id":"490003143W","lat":51.484069,"lon":-0.085155,"name":"Albany Road / Wells Way","parentId":"490G00003143","stationId":"490G00003143","stopLetter":"P","topMostParentId":"490G00003143"},{"icsId":"1012710","id":"490012710S","lat":51.480881,"lon":-0.085403,"name":"St George's Way / Burgess Park","parentId":"490G00012710","stationId":"490G00012710","stopLetter":"G","topMostParentId":"490G00012710"},{"icsId":"1011974","id":"490011974S","lat":51.477988,"lon":-0.082831,"name":"Sedgmoor Place","parentId":"490G00011974","stationId":"490G00011974","stopLetter":"A","topMostParentId":"490G00011974"},{"icsId":"1012249","id":"490012249S","lat":51.476981,"lon":-0.080109,"name":"Southampton Way Estate","parentId":"490G00012249","stationId":"490G00012249","stopLetter":"B","topMostParentId":"490G00012249"},{"icsId":"1010883","id":"490010883S","lat":51.475436,"lon":-0.078028,"name":"Southampton Way / Peckham Road","parentId":"490G00010883","stationId":"490G00010883","stopLetter":"C","topMostParentId":"490G00010883"},{"icsId":"1014252","id":"490014252E","lat":51.473989,"lon":-0.073654,"name":"Harris Academy","parentId":"490G00014252","stationId":"490G00014252","stopLetter":"Q","topMostParentId":"490G00014252"},{"icsId":"1010878","id":"490011842B","lat":51.473422,"lon":-0.07038,"name":"Peckham Library","parentId":"490G00010878","stationId":"490G00010878","stopLetter":"B","topMostParentId":"490G00010878"},{"icsId":"1005382","id":"490005382K","lat":51.47328,"lon":-0.065577,"name":"Clayton Road","parentId":"490G00005382","stationId":"490G00005382","stopLetter":"K","topMostParentId":"490G00005382"},{"icsId":"1007758","id":"490007758P","lat":51.471978,"lon":-0.069491,"name":"The Aylesham Centre","parentId":"490G00007758","stationId":"490G00007758","stopLetter":"P","topMostParentId":"490G00007758"},{"icsId":"1001223","id":"490001223V","lat":51.469318,"lon":-0.06799,"name":"Peckham Rye Station","parentId":"490G01223U","stationId":"490G01223U","stopLetter":"V","topMostParentId":"910GPCKHMRY"},{"icsId":"1010269","id":"490010269S1","lat":51.466137,"lon":-0.065951,"name":"Nigel Road","parentId":"490G00010269","stationId":"490G00010269","stopLetter":"EA","topMostParentId":"490G00010269"},{"icsId":"1010886","id":"490010886S","lat":51.463153,"lon":-0.064925,"name":"Peckham Rye / Nunhead Lane","parentId":"490G00010886","stationId":"490G00010886","stopLetter":"EC","topMostParentId":"490G00010886"},{"icsId":"1012221","id":"490012221E","lat":51.460773,"lon":-0.061297,"name":"Solomon's Passage","parentId":"490G00012221","stationId":"490G00012221","stopLetter":"EF","topMostParentId":"490G00012221"},{"icsId":"1011841","id":"490011841E","lat":51.459374,"lon":-0.057772,"name":"Rye Hill Park","parentId":"490G00011841","stationId":"490G00011841","stopLetter":"EH","topMostParentId":"490G00011841"},{"icsId":"1012957","id":"490012957E","lat":51.458067,"lon":-0.05374,"name":"Stuart Road","parentId":"490G00012957","stationId":"490G00012957","stopLetter":"EJ","topMostParentId":"490G00012957"},{"icsId":"1013043","id":"490013043E","lat":51.456367,"lon":-0.050501,"name":"Surrey Road","parentId":"490G00013043","stationId":"490G00013043","stopLetter":"->E","topMostParentId":"490G00013043"},{"icsId":"1008494","id":"490008493E1","lat":51.456932,"lon":-0.045525,"name":"Merttins Road","parentId":"490G00008494","stationId":"490G00008494","topMostParentId":"490G00008494"},{"icsId":"1012820","id":"490012820N","lat":51.457916,"lon":-0.044174,"name":"St Norbert Road","parentId":"490G00012820","stationId":"490G00012820","stopLetter":"->N","topMostParentId":"490G00012820"},{"icsId":"1013851","id":"490013851N","lat":51.460257,"lon":-0.043786,"name":"Turnham Road","parentId":"490G00013851","stationId":"490G00013851","stopLetter":"->N","topMostParentId":"490G00013851"},{"icsId":"1004389","id":"490004389BN","lat":51.461424,"lon":-0.043678,"name":"Brockill Crescent","parentId":"490G00004389","stationId":"490G00004389","stopLetter":"BN","topMostParentId":"490G00004389"},{"icsId":"1012604","id":"490012604BL","lat":51.464055,"lon":-0.043983,"name":"St Asaph Road","parentId":"490G00012604","stationId":"490G00012604","stopLetter":"BL","topMostParentId":"490G00012604"},{"icsId":"1006190","id":"490006190BK","lat":51.465789,"lon":-0.043894,"name":"Avignon Road / Drakefell Road","parentId":"490G00006190","stationId":"490G00006190","stopLetter":"BK","topMostParentId":"490G00006190"},{"icsId":"1008859","id":"490008859N","lat":51.4675,"lon":-0.044052,"name":"Kitto Road","parentId":"490G00008859","stationId":"490G00008859","stopLetter":"->N","topMostParentId":"490G00008859"},{"icsId":"1003358","id":"490003358N","lat":51.471087,"lon":-0.040745,"name":"Arbuthnot Road","parentId":"490G00003358","stationId":"490G00003358","stopLetter":"->N","topMostParentId":"490G00003358"},{"icsId":"1010594","id":"490010594N","lat":51.472043,"lon":-0.040358,"name":"Ommaney Road","parentId":"490G00010594","stationId":"490G00010594","stopLetter":"->N","topMostParentId":"490G00010594"},{"icsId":"1010210","id":"490000156N","lat":51.474168,"lon":-0.041074,"name":"New Cross / Jerningham Road","parentId":"490G00010210","stationId":"490G00010210","stopLetter":"N","topMostParentId":"490G00010210"}]}]}