{"direction":"outbound","lineId":"n44","lineName":"N44","mode":"bus","stopPointSequences":[{"stopPoint":[{"icsId":"1003193","id":"490003193R","lat":51.5121,"lon":-0.116291,"name":"Aldwych / Somerset House","parentId":"490G000386","stationId":"490G000386","stopLetter":"R","topMostParentId":"490G000386"},{"icsId":"1011938","id":"490011938U","lat":51.510773,"lon":-0.120481,"name":"Savoy Street","parentId":"490G000737","stationId":"490G000737","stopLetter":"U","topMostParentId":"490G000737"},{"icsId":"1003112","id":"490003112J","lat":51.509674,"lon":-0.123193,"name":"Bedford Street","parentId":"490G00003112","stationId":"490G00003112","stopLetter":"J","topMostParentId":"490G00003112"},{"icsId":"1013766","id":"490013766K","lat":51.508007,"lon":-0.126345,"name":"Trafalgar Square / Charing Cross Stn","parentId":"490G000803","stationId":"490G000803","stopLetter":"K","topMostParentId":"HUBCHX"},{"icsId":"1014585","id":"490014585N","lat":51.506273,"lon":-0.126992,"name":"Whitehall / Trafalgar Square","parentId":"490G000832","stationId":"490G000832","stopLetter":"N","topMostParentId":"490G000832"},{"icsId":"1008376","id":"490008376S","lat":51.504325,"lon":-0.126092,"name":"Horse Guards Parade","parentId":"490G00008376","stationId":"490G00008376","stopLetter":"->S","topMostParentId":"490G00008376"},{"icsId":"1015048","id":"490015048T","lat":51.50248,"lon":-0.125995,"name":"Westminster Stn  / Parliament Square","parentId":"490G000852","stationId":"490G000852","topMostParentId":"HUBWSM"},{"icsId":"1019865","id":"490014495V","lat":51.498691,"lon":-0.131438,"name":"Great Smith Street / Westminster Abbey","parentId":"490G00019865","stationId":"490G00019865","stopLetter":"V","topMostParentId":"490G00019865"},{"icsId":"1000221","id":"490010260SD","lat":51.497585,"lon":-0.134797,"name":"St James's Park Station","parentId":"490G00221V","stationId":"490G00221V","stopLetter":"SD","topMostParentId":"940GZZLUSJP","zone":"1"},{"icsId":"1003384","id":"490003384SB","lat":51.49715,"lon":-0.137451,"name":"Westminster City Hall","parentId":"490G000394","stationId":"490G000394","stopLetter":"SB","topMostParentId":"490G000394"},{"icsId":"1014502","id":"490014496M","lat":51.496626,"lon":-0.141276,"name":"Westminster Cathedral / Victoria Stn","parentId":"490G000830","stationId":"490G000830","stopLetter":"M","topMostParentId":"490G000830"},{"icsId":"1000248","id":"490014050R","lat":51.495774,"lon":-0.145388,"name":"Victoria Station","parentId":"490G00248G","stationId":"490G00248G","stopLetter":"R","topMostParentId":"HUBVIC","zone":"1"},{"icsId":"1014051","id":"490014051V","lat":51.492085,"lon":-0.148116,"name":"Victoria Coach Station","parentId":"490G000813","stationId":"490G000813","stopLetter":"V","topMostParentId":"490G000813"},{"icsId":"1006399","id":"490017850S","lat":51.489053,"lon":-0.150299,"name":"Ebury Bridge Road","parentId":"490G00006399","stationId":"490G00006399","stopLetter":"->S","topMostParentId":"490G00006399"},{"icsId":"1009205","id":"490009205E","lat":51.486185,"lon":-0.150343,"name":"Lister Hospital","parentId":"490G00009205","stationId":"490G00009205","stopLetter":"CB","topMostParentId":"490G00009205"},{"icsId":"1005064","id":"490005064S","lat":51.482618,"lon":-0.149364,"name":"Battersea Park / Chelsea Gate","parentId":"490G00005064","stationId":"490G00005064","stopLetter":"CC","topMostParentId":"490G00005064"},{"icsId":"1012235","id":"490012235S","lat":51.479643,"lon":-0.148894,"name":"Sopwith Way","parentId":"490G00012235","stationId":"490G00012235","stopLetter":"F","topMostParentId":"490G00012235"},{"icsId":"1001016","id":"490001016C","lat":51.476909,"lon":-0.148284,"name":"Battersea Park Station","parentId":"490G01016A","stationId":"490G01016A","stopLetter":"C","topMostParentId":"910GBATRSPK"},{"icsId":"1013341","id":"490013341M","lat":51.475472,"lon":-0.15069,"name":"Battersea Medical Centre","parentId":"490G000784","stationId":"490G000784","stopLetter":"M","topMostParentId":"490G000784"},{"icsId":"1003690","id":"490003690W","lat":51.47442,"lon":-0.155254,"name":"Battersea Park Library","parentId":"490G00003690","stationId":"490G00003690","stopLetter":"LC","topMostParentId":"490G00003690"},{"icsId":"1003685","id":"490003685W","lat":51.47321,"lon":-0.161278,"name":"Harris Academy/Battersea","parentId":"490G00003685","stationId":"490G00003685","stopLetter":"LA","topMostParentId":"490G00003685"},{"icsId":"1013443","id":"490013443W1","lat":51.47241,"lon":-0.164162,"name":"The Latchmere","parentId":"490G00013443","stationId":"490G00013443","stopLetter":"LC","topMostParentId":"490G00013443"},{"icsId":"1004568","id":"490004568W","lat":51.471506,"lon":-0.167841,"name":"Bullen Street","parentId":"490G00004568","stationId":"490G00004568","stopLetter":"LD","topMostParentId":"490G00004568"},{"icsId":"1003687","id":"490003687W2","lat":51.470433,"lon":-0.170591,"name":"Battersea High Street","parentId":"490G00003687","stationId":"490G00003687","stopLetter":"LE","topMostParentId":"490G00003687"},{"icsId":"1003543","id":"490003543LL","lat":51.469842,"lon":-0.174171,"name":"Badric Court","parentId":"490G00003543","stationId":"490G00003543","stopLetter":"LL","topMostParentId":"490G00003543"},{"icsId":"1009262","id":"490015547W1","lat":51.467267,"lon":-0.178046,"name":"York Gardens","parentId":"490G00009262","stationId":"490G00009262","stopLetter":"L","topMostParentId":"490G00009262"},{"icsId":"1011065","id":"490011065W2","lat":51.46608,"lon":-0.179173,"name":"Hope Street / Plantation Wharf Pier","parentId":"490G00011065","stationId":"490G00011065","stopLetter":"P","topMostParentId":"490G00011065"},{"icsId":"1005045","id":"490005045W","lat":51.464672,"lon":-0.181158,"name":"Chatfield Road","parentId":"490G00005045","stationId":"490G00005045","stopLetter":"TH","topMostParentId":"490G00005045"},{"icsId":"1010963","id":"490010963W","lat":51.463299,"lon":-0.183674,"name":"Petergate","parentId":"490G00010963","stationId":"490G00010963","stopLetter":"TJ","topMostParentId":"490G00010963"},{"icsId":"1012212","id":"490012212W","lat":51.461791,"lon":-0.186743,"name":"Swandon Way","parentId":"490G00012212","stationId":"490G00012212","stopLetter":"TB","topMostParentId":"490G00012212"},{"icsId":"1001311","id":"490001311W","lat":51.460339,"lon":-0.188225,"name":"Wandsworth Town Station","parentId":"490G01311E","stationId":"490G01311E","stopLetter":"BB","topMostParentId":"910GWDWTOWN"},{"icsId":"1013707","id":"490013707J","lat":51.459536,"lon":-0.189783,"name":"Tonsley Street","parentId":"490G00013707","stationId":"490G00013707","stopLetter":"J","topMostParentId":"490G00013707"},{"icsId":"1014195","id":"490014195M","lat":51.457876,"lon":-0.190022,"name":"Wandsworth Town Hall","parentId":"490G00014195","stationId":"490G00014195","stopLetter":"M","topMostParentId":"490G00014195"},{"icsId":"1019847","id":"490014184S","lat":51.455766,"lon":-0.192566,"name":"Southside Shopping Centre","parentId":"490G00019847","stationId":"490G00019847","stopLetter":"S","topMostParentId":"490G00019847"},{"icsId":"1009631","id":"490009631S","lat":51.453914,"lon":-0.192006,"name":"Mapleton Road","parentId":"490G00009631","stationId":"490G00009631","stopLetter":"->S","topMostParentId":"490G00009631"},{"icsId":"1013484","id":"490013484S","lat":51.451591,"lon":-0.190083,"name":"The Old Sergeant","parentId":"490G00013484","stationId":"490G00013484","stopLetter":"->S","topMostParentId":"490G00013484"},{"icsId":"1013088","id":"490013088S","lat":51.44855,"lon":-0.189397,"name":"Swaffield Road","parentId":"490G00013088","stationId":"490G00013088","stopLetter":"->S","topMostParentId":"490G00013088"},{"icsId":"1008074","id":"490008074S","lat":51.446075,"lon":-0.189279,"name":"Henry Prince Estate","parentId":"490G00008074","stationId":"490G00008074","stopLetter":"K","topMostParentId":"490G00008074"},{"icsId":"1006307","id":"490001088S","lat":51.443178,"lon":-0.189207,"name":"Earlsfield Road","parentId":"490G00006307","stationId":"490G00006307","stopLetter":"E","topMostParentId":"490G00006307"},{"icsId":"1001088","id":"490006306D","lat":51.440498,"lon":-0.186824,"name":"Earlsfield Station","parentId":"490G01088N","stationId":"490G01088N","stopLetter":"D","topMostParentId":"910GERLFLD"},{"icsId":"1008502","id":"490008502S","lat":51.438914,"lon":-0.186771,"name":"Isis Street","parentId":"490G00008502","stationId":"490G00008502","stopLetter":"P","topMostParentId":"490G00008502"},{"icsId":"1014127","id":"490014127S2","lat":51.437267,"lon":-0.186649,"name":"Waldron Road","parentId":"490G00014127","stationId":"490G00014127","stopLetter":"SF","topMostParentId":"490G00014127"},{"icsId":"1004621","id":"490004621S","lat":51.435804,"lon":-0.186247,"name":"Burntwood Lane","parentId":"490G00004621","stationId":"490G00004621","stopLetter":"SG","topMostParentId":"490G00004621"},{"icsId":"1012997","id":"490012997S","lat":51.433411,"lon":-0.184457,"name":"Summerstown","parentId":"490G00012997","stationId":"490G00012997","stopLetter":"SH","topMostParentId":"490G00012997"},{"icsId":"1007123","id":"490008430E","lat":51.432738,"lon":-0.179909,"name":"Wimbledon Road","parentId":"490G00007123","stationId":"490G00007123","stopLetter":"SJ","topMostParentId":"490G00007123"},{"icsId":"1012920","id":"490012920E","lat":51.431749,"lon":-0.176452,"name":"Streatham Cemetery","parentId":"490G00012920","stationId":"490G00012920","stopLetter":"SK","topMostParentId":"490G00012920"},{"icsId":"1006718","id":"490006718H1","lat":51.429891,"lon":-0.173246,"name":"Fairlight Road","parentId":"490G00006718","stationId":"490G00006718","stopLetter":"HS","topMostParentId":"490G00006718"},{"icsId":"1000234","id":"490000234M","lat":51.428474,"lon":-0.168872,"name":"Tooting Broadway Station","parentId":"490G00234M","stationId":"490G00234M","stopLetter":"M","topMostParentId":"940GZZLUTBY","zone":"3"},{"icsId":"1003995","id":"490000234E","lat":51.426715,"lon":-0.166209,"name":"Mitcham Road / Tooting Broadway Stn","parentId":"490G000417","stationId":"490G000417","stopLetter":"E","topMostParentId":"490G000417"},{"icsId":"1013709","id":"490013709R","lat":51.425418,"lon":-0.164377,"name":"Tooting / The Mitre","parentId":"490G00013709","stationId":"490G00013709","stopLetter":"TJ","topMostParentId":"490G00013709"},{"icsId":"1003295","id":"490003295U","lat":51.423671,"lon":-0.161887,"name":"Amen Corner","parentId":"490G00003295","stationId":"490G00003295","stopLetter":"TL","topMostParentId":"490G00003295"},{"icsId":"1001296","id":"490001296S","lat":51.420482,"lon":-0.160993,"name":"Tooting Station","parentId":"490G01296S","stationId":"490G01296S","stopLetter":"TT","topMostParentId":"910GTOOTING"},{"icsId":"1007316","id":"490007316S","lat":51.417285,"lon":-0.161826,"name":"Gorringe Park Avenue","parentId":"490G00007316","stationId":"490G00007316","stopLetter":"TU","topMostParentId":"490G00007316"},{"icsId":"1009286","id":"490009286S","lat":51.415188,"lon":-0.16168,"name":"London Road / Figge's Marsh","parentId":"490G00009286","stationId":"490G00009286","stopLetter":"M","topMostParentId":"490G00009286"},{"icsId":"1013565","id":"490013565S2","lat":51.411883,"lon":-0.16141,"name":"Eveline Road","parentId":"490G00013565","stationId":"490G00013565","stopLetter":"N","topMostParentId":"490G00013565"},{"icsId":"1006171","id":"490006164B","lat":51.407705,"lon":-0.163361,"name":"Downe Road / Mitcham Library","parentId":"490G06164B","stationId":"490G06164B","stopLetter":"B","topMostParentId":"490G06164B"},{"icsId":"1009949","id":"490009949X","lat":51.406221,"lon":-0.163895,"name":"Mitcham Fair Green","parentId":"490G00009949","stationId":"490G00009949","stopLetter":"E","topMostParentId":"490G00009949"},{"icsId":"1007213","id":"490007213M","lat":51.403416,"lon":-0.165704,"name":"Glebe Court","parentId":"490G00007213","stationId":"490G00007213","stopLetter":"K","topMostParentId":"490G00007213"},{"icsId":"1009944","id":"490009944X","lat":51.400335,"lon":-0.169349,"name":"Mitcham / Cricket Green","parentId":"490G00009944","stationId":"490G00009944","stopLetter":"Q","topMostParentId":"490G00009944"},{"icsId":"1002058","id":"490002058Z","lat":51.397245,"lon":-0.173038,"name":"Mitcham Tram Stop","parentId":"490G02058Y","stationId":"490G02058Y","stopLetter":"W","topMostParentId":"940GZZCRMCH"},{"icsId":"1014182","id":"490014182S","lat":51.394008,"lon":-0.174216,"name":"Wandle Road","parentId":"490G00014182","stationId":"490G00014182","stopLetter":"->S","topMostParentId":"490G00014182"},{"icsId":"1010960","id":"490010960S","lat":51.391626,"lon":-0.177142,"name":"Peterborough Road","parentId":"490G00010960","stationId":"490G00010960","stopLetter":"->S","topMostParentId":"490G00010960"},{"icsId":"1007519","id":"490007519S","lat":51.389449,"lon":-0.180003,"name":"Green Wrythe Lane","parentId":"490G00007519","stationId":"490G00007519","stopLetter":"BB","topMostParentId":"490G00007519"},{"icsId":"1009860","id":"490009860S2","lat":51.388344,"lon":-0.181786,"name":"Middleton Road","parentId":"490G00009860","stationId":"490G00009860","stopLetter":"->S","topMostParentId":"490G00009860"},{"icsId":"1010186","id":"490010186S","lat":51.386776,"lon":-0.185671,"name":"Netley Road","parentId":"490G00010186","stationId":"490G00010186","topMostParentId":"490G00010186"},{"icsId":"1015405","id":"490015405RJ","lat":51.384928,"lon":-0.188891,"name":"Bishopsford Road / Rose Hill Roundabout","parentId":"490G00015405","stationId":"490G00015405","stopLetter":"RJ","topMostParentId":"490G00015405"},{"icsId":"1015407","id":"490015407S1","lat":51.383065,"lon":-0.190488,"name":"Rose Hill / Rose Hill Roundabout","parentId":"490G00015407","stationId":"490G00015407","stopLetter":"RP","topMostParentId":"490G00015407"},{"icsId":"1011692","id":"490011692S","lat":51.378997,"lon":-0.192043,"name":"Rosehill Park West","parentId":"490G00011692","stationId":"490G00011692","stopLetter":"RU","topMostParentId":"490G00011692"},{"icsId":"1011691","id":"490011691P","lat":51.375801,"lon":-0.192973,"name":"Cranleigh Gardens","parentId":"490G00011691","stationId":"490G00011691","stopLetter":"Q","topMostParentId":"490G00011691"},{"icsId":"1013072","id":"490013072B","lat":51.369797,"lon":-0.194934,"name":"Sutton Green","parentId":"490G00013072","stationId":"490G00013072","stopLetter":"B","topMostParentId":"490G00013072"},{"icsId":"1013062","id":"490013062C","lat":51.367873,"lon":-0.194966,"name":"High Street / Marshalls Road","parentId":"490G00013062","stationId":"490G00013062","stopLetter":"C","topMostParentId":"490G00013062"},{"icsId":"1003892","id":"490003892E","lat":51.367067,"lon":-0.193403,"name":"Benhill Avenue","parentId":"490G00003892","stationId":"490G00003892","stopLetter":"E","topMostParentId":"490G00003892"},{"icsId":"1009575","id":"490009575I","lat":51.365482,"lon":-0.192675,"name":"Manor Place","parentId":"490G00009575","stationId":"490G00009575","stopLetter":"I","topMostParentId":"490G00009575"},{"icsId":"1013679","id":"490013679J","lat":51.363743,"lon":-0.191896,"name":"Times Square","parentId":"490G00013679","stationId":"490G00013679","stopLetter":"J","topMostParentId":"490G00013679"},{"icsId":"1013081","id":"490013081K","lat":51.361853,"lon":-0.191195,"name":"Sutton Police Station","parentId":"490G00013081","stationId":"490G00013081","stopLetter":"K","topMostParentId":"490G00013081"},{"icsId":"1015833","id":"490015833S","lat":51.36127,"lon":-0.189538,"name":"Chalk Pit Way","parentId":"490G00015833","stationId":"490G00015833","stopLetter":"AA","topMostParentId":"490G00015833"},{"icsId":"1001286","id":"490001286O","lat":51.359137,"lon":-0.191187,"name":"Sutton Station","parentId":"490G01286N","stationId":"490G01286N","stopLetter":"O","topMostParentId":"910GSUTTON"},{"icsId":"1013060","id":"490013060Q","lat":51.359042,"lon":-0.190875,"name":"Sutton Station  / The Quadrant","parentId":"490G000777","stationId":"490G000777","stopLetter":"Q","topMostParentId":"490G000777"}]}]}