{"direction":"outbound","lineId":"n5","lineName":"N5","mode":"bus","stopPointSequences":[{"stopPoint":[{"icsId":"1000070","id":"490000070D","lat":51.612947,"lon":-0.274637,"name":"Edgware Bus Station","parentId":"490G00070C","stationId":"490G00070C","stopLetter":"D","topMostParentId":"940GZZLUEGW","zone":"5"},{"icsId":"1012618","id":"490012618J","lat":51.612072,"lon":-0.277515,"name":"Manor Park Crescent","parentId":"490G00012618","stationId":"490G00012618","stopLetter":"J","topMostParentId":"490G00012618"},{"icsId":"1014573","id":"490014573N","lat":51.61018,"lon":-0.278482,"name":"Whitchurch Lane","parentId":"490G00014573","stationId":"490G00014573","stopLetter":"N","topMostParentId":"490G00014573"},{"icsId":"1006004","id":"490006004HD","lat":51.607719,"lon":-0.2756,"name":"Deansbrook Road","parentId":"490G00006004","stationId":"490G00006004","stopLetter":"HD","topMostParentId":"490G00006004"},{"icsId":"1006425","id":"490006425HA","lat":51.605174,"lon":-0.273112,"name":"Edgware Community Hospital","parentId":"490G00006425","stationId":"490G00006425","stopLetter":"HA","topMostParentId":"490G00006425"},{"icsId":"1004617","id":"490004617A","lat":51.603601,"lon":-0.270717,"name":"North Road","parentId":"490G000433","stationId":"490G000433","stopLetter":"A","topMostParentId":"490G000433"},{"icsId":"1014307","id":"490014307L","lat":51.601279,"lon":-0.266357,"name":"Watling Avenue","parentId":"490G00014307","stationId":"490G00014307","stopLetter":"L","topMostParentId":"490G00014307"},{"icsId":"1000034","id":"490000034N","lat":51.602576,"lon":-0.264041,"name":"Burnt Oak Station","parentId":"490G00034M","stationId":"490G00034M","stopLetter":"N","topMostParentId":"940GZZLUBTK","zone":"4"},{"icsId":"1006942","id":"490007607E","lat":51.60434,"lon":-0.25993,"name":"Gunter Grove","parentId":"490G00006942","stationId":"490G00006942","stopLetter":"U","topMostParentId":"490G00006942"},{"icsId":"1005759","id":"490005753S","lat":51.605081,"lon":-0.256479,"name":"Cressingham Road","parentId":"490G00005759","stationId":"490G00005759","stopLetter":"QX","topMostParentId":"490G00005759"},{"icsId":"1010719","id":"490010719E","lat":51.602109,"lon":-0.254384,"name":"Pageant Avenue","parentId":"490G00010719","stationId":"490G00010719","stopLetter":"QB","topMostParentId":"490G00010719"},{"icsId":"1010315","id":"490010315E","lat":51.601211,"lon":-0.251444,"name":"North Acre","parentId":"490G00010315","stationId":"490G00010315","stopLetter":"QC","topMostParentId":"490G00010315"},{"icsId":"1011298","id":"490011298W2","lat":51.601611,"lon":-0.245739,"name":"Quakers Course","parentId":"490G00011298","stationId":"490G00011298","stopLetter":"QD","topMostParentId":"490G00011298"},{"icsId":"1007070","id":"490007070S","lat":51.597316,"lon":-0.245327,"name":"Cherry Close","parentId":"490G00007070","stationId":"490G00007070","stopLetter":"QH","topMostParentId":"490G00007070"},{"icsId":"1000054","id":"490000054CA","lat":51.595651,"lon":-0.248828,"name":"Colindale Station","parentId":"490G00054CB","stationId":"490G00054CB","stopLetter":"CA","topMostParentId":"940GZZLUCND","zone":"4"},{"icsId":"1003132","id":"490003132CC","lat":51.593805,"lon":-0.252912,"name":"Ajax Avenue","parentId":"490G00003132","stationId":"490G00003132","stopLetter":"CC","topMostParentId":"490G00003132"},{"icsId":"1005481","id":"490005481CE","lat":51.591622,"lon":-0.256692,"name":"Colindale Avenue","parentId":"490G00005481","stationId":"490G00005481","stopLetter":"CE","topMostParentId":"490G00005481"},{"icsId":"1005483","id":"490005483CF","lat":51.590191,"lon":-0.254769,"name":"Colindeep Lane","parentId":"490G00005483","stationId":"490G00005483","stopLetter":"CF","topMostParentId":"490G00005483"},{"icsId":"1012043","id":"490012043CG","lat":51.587942,"lon":-0.251665,"name":"Sheaveshill Avenue","parentId":"490G00012043","stationId":"490G00012043","stopLetter":"CG","topMostParentId":"490G00012043"},{"icsId":"1008762","id":"490008762S","lat":51.584729,"lon":-0.248511,"name":"Kingsbury Road","parentId":"490G00008762","stationId":"490G00008762","stopLetter":"HA","topMostParentId":"490G00008762"},{"icsId":"1014471","id":"490014471S","lat":51.581558,"lon":-0.244476,"name":"Hendon Magistrates Court","parentId":"490G00014471","stationId":"490G00014471","stopLetter":"HB","topMostParentId":"490G00014471"},{"icsId":"1014561","id":"490014561S","lat":51.579324,"lon":-0.2412,"name":"West Hendon Broadway / Herbert Road","parentId":"490G00014561","stationId":"490G00014561","stopLetter":"HC","topMostParentId":"490G00014561"},{"icsId":"1001148","id":"490001148A","lat":51.579343,"lon":-0.23889,"name":"Hendon Station","parentId":"490G01148B","stationId":"490G01148B","stopLetter":"HD","topMostParentId":"910GHDON"},{"icsId":"1003476","id":"490003476E1","lat":51.582342,"lon":-0.233202,"name":"Audley Road","parentId":"490G00003476","stationId":"490G00003476","topMostParentId":"490G00003476"},{"icsId":"1008060","id":"490008060D","lat":51.582741,"lon":-0.228077,"name":"Hendon Way","parentId":"490G000591","stationId":"490G000591","stopLetter":"D","topMostParentId":"490G000591"},{"icsId":"1000106","id":"490000106A","lat":51.582843,"lon":-0.225894,"name":"Hendon Central Station","parentId":"490G00106A","stationId":"490G00106A","stopLetter":"A","topMostParentId":"940GZZLUHCL","zone":"3+4"},{"icsId":"1004295","id":"490004295Y","lat":51.584331,"lon":-0.219672,"name":"Brent Green","parentId":"490G00004295","stationId":"490G00004295","stopLetter":"Y","topMostParentId":"490G00004295"},{"icsId":"1007464","id":"490007464S","lat":51.583163,"lon":-0.215561,"name":"Brent Street / Green Lane","parentId":"490G00007464","stationId":"490G00007464","stopLetter":"L","topMostParentId":"490G00007464"},{"icsId":"1010331","id":"490010331E","lat":51.581475,"lon":-0.212813,"name":"North Circular Road","parentId":"490G00010331","stationId":"490G00010331","stopLetter":"M","topMostParentId":"490G00010331"},{"icsId":"1007270","id":"490007270E","lat":51.580524,"lon":-0.210584,"name":"Golders Manor Drive","parentId":"490G00007270","stationId":"490G00007270","stopLetter":"N","topMostParentId":"490G00007270"},{"icsId":"1008152","id":"490008152S","lat":51.578513,"lon":-0.207805,"name":"Highfield Avenue","parentId":"490G00008152","stationId":"490G00008152","stopLetter":"P","topMostParentId":"490G00008152"},{"icsId":"1014904","id":"490014904E","lat":51.575988,"lon":-0.204412,"name":"Woodstock Avenue","parentId":"490G00014904","stationId":"490G00014904","stopLetter":"R","topMostParentId":"490G00014904"},{"icsId":"1015322","id":"490015322GR","lat":51.57365,"lon":-0.200348,"name":"Hoop Lane","parentId":"490G00015322","stationId":"490G00015322","stopLetter":"S","topMostParentId":"490G00015322"},{"icsId":"1006838","id":"490006838GT","lat":51.572188,"lon":-0.197058,"name":"Finchley Road","parentId":"490G00006838","stationId":"490G00006838","stopLetter":"GT","topMostParentId":"490G00006838"},{"icsId":"1000087","id":"490000087GJ","lat":51.571496,"lon":-0.193564,"name":"Golders Green Station","parentId":"490G00087GK","stationId":"490G00087GK","stopLetter":"GJ","topMostParentId":"940GZZLUGGN","zone":"3"},{"icsId":"1014346","id":"490014346E","lat":51.56986,"lon":-0.186587,"name":"Wellgarth Road","parentId":"490G00014346","stationId":"490G00014346","stopLetter":"->E","topMostParentId":"490G00014346"},{"icsId":"1009562","id":"490009562E","lat":51.568264,"lon":-0.184025,"name":"Hampstead Way","parentId":"490G00009562","stationId":"490G00009562","topMostParentId":"490G00009562"},{"icsId":"1008490","id":"490008490E","lat":51.563842,"lon":-0.180075,"name":"Inverforth House","parentId":"490G00008490","stationId":"490G00008490","stopLetter":"L","topMostParentId":"490G00008490"},{"icsId":"1008547","id":"490008531S1","lat":51.562018,"lon":-0.179628,"name":"Whitestone Pond / Jack Straw's Castle","parentId":"490G00008547","stationId":"490G00008547","stopLetter":"P","topMostParentId":"490G00008547"},{"icsId":"1000098","id":"490000098S","lat":51.556918,"lon":-0.17836,"name":"Hampstead Station","parentId":"490G00098S","stationId":"490G00098S","stopLetter":"Q","topMostParentId":"940GZZLUHTD","zone":"2+3"},{"icsId":"1010970","id":"490000098A","lat":51.555925,"lon":-0.176943,"name":"Hampstead Station / Hampstead High St","parentId":"490G00010970","stationId":"490G00010970","stopLetter":"R","topMostParentId":"490G00010970"},{"icsId":"1011000","id":"490011000S","lat":51.554945,"lon":-0.172943,"name":"Pilgrim's Lane","parentId":"490G00011000","stationId":"490G00011000","stopLetter":"S","topMostParentId":"490G00011000"},{"icsId":"1015255","id":"490015255F","lat":51.552268,"lon":-0.167295,"name":"Haverstock Hill / Pond Street","parentId":"490G00015255","stationId":"490G00015255","stopLetter":"F","topMostParentId":"490G00015255"},{"icsId":"1000020","id":"490000020L","lat":51.550751,"lon":-0.165192,"name":"Belsize Park Station","parentId":"490G00020L","stationId":"490G00020L","stopLetter":"L","topMostParentId":"940GZZLUBZP","zone":"2"},{"icsId":"1006180","id":"490006180S","lat":51.550029,"lon":-0.163866,"name":"Downside Crescent","parentId":"490G00006180","stationId":"490G00006180","stopLetter":"M","topMostParentId":"490G00006180"},{"icsId":"1013939","id":"490013939S","lat":51.548754,"lon":-0.161725,"name":"Upper Park Road","parentId":"490G00013939","stationId":"490G00013939","stopLetter":"N","topMostParentId":"490G00013939"},{"icsId":"1012668","id":"490012664S","lat":51.546444,"lon":-0.157203,"name":"Haverstock Hill / Steele's Village","parentId":"490G00012668","stationId":"490G00012668","stopLetter":"P","topMostParentId":"490G00012668"},{"icsId":"1000043","id":"490000043CD","lat":51.544645,"lon":-0.153742,"name":"Chalk Farm Station","parentId":"490G00043CD","stationId":"490G00043CD","stopLetter":"CD","topMostParentId":"940GZZLUCFM","zone":"2"},{"icsId":"1004964","id":"490004963CE","lat":51.542854,"lon":-0.148522,"name":"Chalk Farm Road / Morrisons","parentId":"490G00004964","stationId":"490G00004964","stopLetter":"CE","topMostParentId":"490G00004964"},{"icsId":"1007927","id":"490007927M","lat":51.542884,"lon":-0.143545,"name":"Hawley Road","parentId":"490G00007927","stationId":"490G00007927","stopLetter":"M","topMostParentId":"490G00007927"},{"icsId":"1004713","id":"490004713D","lat":51.541972,"lon":-0.14103,"name":"Camden Gardens","parentId":"490G00004713","stationId":"490G00004713","stopLetter":"D","topMostParentId":"490G00004713"},{"icsId":"1000036","id":"490000036S","lat":51.5397,"lon":-0.141281,"name":"Camden Town Station","parentId":"490G00036N","stationId":"490G00036N","stopLetter":"S","topMostParentId":"940GZZLUCTN","zone":"2"},{"icsId":"1011168","id":"490011168S1","lat":51.536963,"lon":-0.13933,"name":"Pratt Street","parentId":"490G00011168","stationId":"490G00011168","stopLetter":"W","topMostParentId":"490G00011168"},{"icsId":"1000152","id":"490000152G","lat":51.534138,"lon":-0.138105,"name":"Mornington Cres Stn / Camden Tn Library","parentId":"490G00152G","stationId":"490G00152G","stopLetter":"G","topMostParentId":"940GZZLUMTC","zone":"2"},{"icsId":"1003174","id":"490003174S","lat":51.531996,"lon":-0.135755,"name":"Aldenham Street","parentId":"490G00003174","stationId":"490G00003174","stopLetter":"S","topMostParentId":"490G00003174"},{"icsId":"1000077","id":"490000077B","lat":51.528611,"lon":-0.132131,"name":"Euston Station","parentId":"490G00077B","stationId":"490G00077B","stopLetter":"B","topMostParentId":"HUBEUS","zone":"1"},{"icsId":"1009504","id":"490000077F","lat":51.527074,"lon":-0.132179,"name":"Euston Bus Station","parentId":"490G000652","stationId":"490G000652","stopLetter":"F","topMostParentId":"HUBEUS"},{"icsId":"1000078","id":"490000078P","lat":51.525695,"lon":-0.135335,"name":"Euston Square Station","parentId":"490G00078P","stationId":"490G00078P","stopLetter":"P","topMostParentId":"940GZZLUESQ","zone":"1"},{"icsId":"1020147","id":"4900020147W","lat":51.525222,"lon":-0.13671,"name":"University Coll Hosp / Warren St Stn","parentId":"490G00020147","stationId":"490G00020147","stopLetter":"W","topMostParentId":"490G00020147"},{"icsId":"1002121","id":"490002121ZT","lat":51.522568,"lon":-0.136083,"name":"Capper Street","parentId":"490G000343","stationId":"490G000343","stopLetter":"N","topMostParentId":"490G000343"},{"icsId":"1000089","id":"490005084Z","lat":51.520578,"lon":-0.134204,"name":"Goodge Street Station","parentId":"490G00089B","stationId":"490G00089B","topMostParentId":"940GZZLUGDG","zone":"1"},{"icsId":"1002124","id":"490002124ZZ","lat":51.518072,"lon":-0.131582,"name":"Stephen Street","parentId":"490G000346","stationId":"490G000346","stopLetter":"B","topMostParentId":"490G000346"},{"icsId":"1004695","id":"490004695D","lat":51.513412,"lon":-0.129207,"name":"Cambridge Circus","parentId":"490G00004695","stationId":"490G00004695","stopLetter":"D","topMostParentId":"490G00004695"},{"icsId":"1000135","id":"490000135B","lat":51.511591,"lon":-0.128331,"name":"Leicester Square Station","parentId":"490G00135B","stationId":"490G00135B","stopLetter":"J","topMostParentId":"940GZZLULSQ","zone":"1"},{"icsId":"1016161","id":"490016161S","lat":51.509848,"lon":-0.127869,"name":"St Martin's Place","parentId":"490G00016161","stationId":"490G00016161","stopLetter":"K","topMostParentId":"490G00016161"},{"icsId":"1013767","id":"490013767D","lat":51.508189,"lon":-0.127058,"name":"Trafalgar Square / Charing Cross Stn","parentId":"490G000804","stationId":"490G000804","stopLetter":"D","topMostParentId":"490G000804"},{"icsId":"1014585","id":"490014585N","lat":51.506273,"lon":-0.126992,"name":"Whitehall / Trafalgar Square","parentId":"490G000832","stationId":"490G000832","stopLetter":"N","topMostParentId":"490G000832"}]}]}