{"direction":"outbound","lineId":"n551","lineName":"N551","mode":"bus","stopPointSequences":[{"stopPoint":[{"icsId":"1013767","id":"490013767B","lat":51.507645,"lon":-0.129544,"name":"Trafalgar Square","parentId":"490G000804","stationId":"490G000804","stopLetter":"B","topMostParentId":"490G000804"},{"icsId":"1013766","id":"490013766F","lat":51.508167,"lon":-0.126194,"name":"Trafalgar Square / Charing Cross Stn","parentId":"490G000803","stationId":"490G000803","stopLetter":"F","topMostParentId":"HUBCHX"},{"icsId":"1012247","id":"490012247A","lat":51.510367,"lon":-0.122069,"name":"Southampton Street / Covent Garden","parentId":"490G00012247","stationId":"490G00012247","stopLetter":"A","topMostParentId":"490G00012247"},{"icsId":"1003191","id":"490003191D","lat":51.512368,"lon":-0.119003,"name":"Aldwych","parentId":"490G000385","stationId":"490G000385","stopLetter":"D","topMostParentId":"490G000385"},{"icsId":"1011757","id":"490011757L","lat":51.513196,"lon":-0.114602,"name":"The Royal Courts Of Justice","parentId":"490G000731","stationId":"490G000731","stopLetter":"L","topMostParentId":"490G000731"},{"icsId":"1006826","id":"490006826E","lat":51.514253,"lon":-0.10875,"name":"Fetter Lane","parentId":"490G00006826","stationId":"490G00006826","stopLetter":"->E","topMostParentId":"490G00006826"},{"icsId":"1019205","id":"490012105HA","lat":51.514234,"lon":-0.105912,"name":"Ludgate Circus","parentId":"490G00019205","stationId":"490G00019205","stopLetter":"E","topMostParentId":"490G00019205"},{"icsId":"1009443","id":"490009443G","lat":51.513954,"lon":-0.101888,"name":"Ludgate Hill / Old Bailey","parentId":"490G00009443","stationId":"490G00009443","stopLetter":"G","topMostParentId":"490G00009443"},{"icsId":"1012873","id":"490012873A","lat":51.513192,"lon":-0.097625,"name":"St Paul's Cathedral","parentId":"490G00012873","stationId":"490G00012873","stopLetter":"SK","topMostParentId":"490G00012873"},{"icsId":"1000143","id":"490000143E","lat":51.512671,"lon":-0.09488,"name":"Mansion House Station","parentId":"490G00143E","stationId":"490G00143E","stopLetter":"ME","topMostParentId":"940GZZLUMSH","zone":"1"},{"icsId":"1013195","id":"490013195J","lat":51.512926,"lon":-0.091742,"name":"Bank Station  / Queen Victoria Street","parentId":"490G000780","stationId":"490G000780","stopLetter":"MD","topMostParentId":"HUBBAN"},{"icsId":"1007620","id":"490000013C","lat":51.513825,"lon":-0.08787,"name":"Bank Station  / Threadneedle Street","parentId":"490G000559","stationId":"490G000559","stopLetter":"C","topMostParentId":"HUBBAN"},{"icsId":"1010177","id":"490010159N","lat":51.515469,"lon":-0.084458,"name":"Great Winchester Street","parentId":"490G00010177","stationId":"490G00010177","stopLetter":"Z","topMostParentId":"490G00010177"},{"icsId":"1004043","id":"490004043P","lat":51.516205,"lon":-0.082178,"name":"Wormwood Street","parentId":"490G00004043","stationId":"490G00004043","stopLetter":"P","topMostParentId":"490G00004043"},{"icsId":"1019038","id":"490000003B","lat":51.514956,"lon":-0.07514,"name":"St Botolph Street","parentId":"490G00019038","stationId":"490G00019038","stopLetter":"B","topMostParentId":"490G00019038"},{"icsId":"1000003","id":"490000003R","lat":51.514081,"lon":-0.074932,"name":"Aldgate Station","parentId":"490G00003N","stationId":"490G00003N","stopLetter":"R","topMostParentId":"940GZZLUALD","zone":"1"},{"icsId":"1005818","id":"490005818K","lat":51.512751,"lon":-0.075564,"name":"Minories","parentId":"490G000477","stationId":"490G000477","stopLetter":"H","topMostParentId":"490G000477"},{"icsId":"1015074","id":"490015074Z","lat":51.509824,"lon":-0.073065,"name":"Tower Hill / Tower Gateway Station","parentId":"490G000857","stationId":"490G000857","stopLetter":"TE","topMostParentId":"490G000857"},{"icsId":"1014944","id":"490014944E","lat":51.508443,"lon":-0.071682,"name":"St Katharine Docks","parentId":"490G00014944","stationId":"490G00014944","stopLetter":"TS","topMostParentId":"490G00014944"},{"icsId":"1018662","id":"4900018662E","lat":51.509387,"lon":-0.064566,"name":"Wellclose Street","parentId":"490G00018662","stationId":"490G00018662","stopLetter":"->E","topMostParentId":"490G00018662"},{"icsId":"1013687","id":"490013687E","lat":51.509617,"lon":-0.059426,"name":"Tobacco Dock","parentId":"490G000801","stationId":"490G000801","stopLetter":"N","topMostParentId":"490G000801"},{"icsId":"1012457","id":"490012457E","lat":51.509757,"lon":-0.052676,"name":"St Paul's Church","parentId":"490G00012457","stationId":"490G00012457","topMostParentId":"490G00012457"},{"icsId":"1007010","id":"490007010E","lat":51.510027,"lon":-0.046208,"name":"Free Trade Wharf","parentId":"490G00007010","stationId":"490G00007010","stopLetter":"LP","topMostParentId":"490G00007010"},{"icsId":"1004657","id":"490004657N","lat":51.511327,"lon":-0.042233,"name":"Cable Street","parentId":"490G00004657","stationId":"490G00004657","stopLetter":"LR","topMostParentId":"490G00004657"},{"icsId":"1001180","id":"490001180E","lat":51.512841,"lon":-0.040237,"name":"Limehouse Station","parentId":"490G01180W","stationId":"490G01180W","stopLetter":"LB","topMostParentId":"HUBLHS","zone":"2"},{"icsId":"1009403","id":"490009403E","lat":51.512595,"lon":-0.034713,"name":"Lowell Street","parentId":"490G00009403","stationId":"490G00009403","stopLetter":"LC","topMostParentId":"490G00009403"},{"icsId":"1011873","id":"490011873E","lat":51.512469,"lon":-0.032542,"name":"Salmon Lane","parentId":"490G00011873","stationId":"490G00011873","stopLetter":"LD","topMostParentId":"490G00011873"},{"icsId":"1009158","id":"490009158E","lat":51.512578,"lon":-0.029943,"name":"Burdett Road","parentId":"490G000639","stationId":"490G000639","stopLetter":"LE","topMostParentId":"490G000639"},{"icsId":"1013965","id":"490013965E","lat":51.511463,"lon":-0.02512,"name":"University Of Cumbria In London","parentId":"490G00013965","stationId":"490G00013965","stopLetter":"WS","topMostParentId":"490G00013965"},{"icsId":"1013936","id":"490013936E","lat":51.510906,"lon":-0.021412,"name":"Upper North Street","parentId":"490G00013936","stationId":"490G00013936","stopLetter":"C","topMostParentId":"490G00013936"},{"icsId":"1011114","id":"490011114BC","lat":51.511035,"lon":-0.017861,"name":"Poplar Recreation Grd / Poplar Stn","parentId":"490G00011114","stationId":"490G00011114","stopLetter":"D","topMostParentId":"490G00011114"},{"icsId":"1005222","id":"490015270B","lat":51.511201,"lon":-0.014899,"name":"Chrisp Street Market","parentId":"490G000454","stationId":"490G000454","stopLetter":"B","topMostParentId":"490G000454"},{"icsId":"1003701","id":"490003701C","lat":51.511308,"lon":-0.011681,"name":"Bazely Street","parentId":"490G000400","stationId":"490G000400","stopLetter":"C","topMostParentId":"490G000400"},{"icsId":"1007047","id":"490007047E","lat":51.511857,"lon":-0.005892,"name":"Brunswick Road","parentId":"490G00007047","stationId":"490G00007047","stopLetter":"E","topMostParentId":"490G00007047"},{"icsId":"1011851","id":"490004532F","lat":51.512307,"lon":-0.003783,"name":"Nutmeg Lane","parentId":"490G000734","stationId":"490G000734","stopLetter":"F","topMostParentId":"490G000734"},{"icsId":"1020304","id":"490003047E","lat":51.512809,"lon":-0.001037,"name":"Abbott Road","parentId":"490G00020304","stationId":"490G00020304","stopLetter":"->E","topMostParentId":"490G00020304"},{"icsId":"1015119","id":"490000039H","lat":51.515168,"lon":0.005639,"name":"Stephenson Street","parentId":"490G00015119","stationId":"490G00015119","stopLetter":"H","topMostParentId":"490G00015119"},{"icsId":"1000039","id":"490000039B","lat":51.513654,"lon":0.008974,"name":"Canning Town Bus Station","parentId":"490G00039A","stationId":"490G00039A","stopLetter":"B","topMostParentId":"HUBCAN","zone":"2/3"},{"icsId":"1000345","id":"490000345Z","lat":51.513246,"lon":0.011262,"name":"Hallsville Road","topMostParentId":"490000345Z"},{"icsId":"1011647","id":"490011647E","lat":51.513689,"lon":0.015317,"name":"Rogers Road","parentId":"490G00011647","stationId":"490G00011647","topMostParentId":"490G00011647"},{"icsId":"1008709","id":"490008709S","lat":51.512425,"lon":0.014569,"name":"Keir Hardie Recreation Ground","parentId":"490G00008709","stationId":"490G00008709","topMostParentId":"490G00008709"},{"icsId":"1013157","id":"490013157E","lat":51.511309,"lon":0.014577,"name":"Tarling Road","parentId":"490G00013157","stationId":"490G00013157","topMostParentId":"490G00013157"},{"icsId":"1000385","id":"490010121E","lat":51.51105,"lon":0.018154,"name":"The Appleby Centre","parentId":"490G000038","stationId":"490G000038","stopLetter":"->E","topMostParentId":"490G000038"},{"icsId":"1004322","id":"490004322E","lat":51.509871,"lon":0.021864,"name":"Bridgeland Road","parentId":"490G000424","stationId":"490G000424","stopLetter":"G","topMostParentId":"490G000424"},{"icsId":"1001079","id":"490015080D","lat":51.509985,"lon":0.025169,"name":"Custom House Station","parentId":"490G15080D","stationId":"490G15080D","stopLetter":"D","topMostParentId":"940GZZDLCUS","zone":"3"},{"icsId":"1001079","id":"490001079B","lat":51.510013,"lon":0.028254,"name":"Custom House Station","parentId":"490G01079B","stationId":"490G01079B","stopLetter":"B","topMostParentId":"940GZZDLCUS","zone":"3"},{"icsId":"1015386","id":"490015386E","lat":51.509931,"lon":0.032977,"name":"Prince Regent Station","parentId":"490G000890","stationId":"490G000890","stopLetter":"K","topMostParentId":"490G000890"},{"icsId":"1011201","id":"490011201L","lat":51.51023,"lon":0.033855,"name":"Victoria Dock Road","parentId":"490G00011201","stationId":"490G00011201","stopLetter":"L","topMostParentId":"490G00011201"},{"icsId":"1013781","id":"490013781N","lat":51.512264,"lon":0.032217,"name":"Tree Road","parentId":"490G00013781","stationId":"490G00013781","stopLetter":"P","topMostParentId":"490G00013781"},{"icsId":"1010220","id":"490016785N","lat":51.515178,"lon":0.031669,"name":"Newham Way","parentId":"490G00010220","stationId":"490G00010220","stopLetter":"S","topMostParentId":"490G00010220"},{"icsId":"1005505","id":"490005505E","lat":51.517028,"lon":0.03547,"name":"Colman Road","parentId":"490G00005505","stationId":"490G00005505","stopLetter":"H","topMostParentId":"490G00005505"},{"icsId":"1003753","id":"490003753E","lat":51.516826,"lon":0.039295,"name":"Beckton School","parentId":"490G00003753","stationId":"490G00003753","stopLetter":"J","topMostParentId":"490G00003753"},{"icsId":"1003748","id":"490003748E","lat":51.516586,"lon":0.044343,"name":"Beckton District Park","parentId":"490G00003748","stationId":"490G00003748","stopLetter":"CA","topMostParentId":"490G00003748"},{"icsId":"1006142","id":"490006142E","lat":51.516495,"lon":0.046472,"name":"Dove Approach","parentId":"490G00006142","stationId":"490G00006142","stopLetter":"BA","topMostParentId":"490G00006142"},{"icsId":"1013097","id":"490013097E","lat":51.51623,"lon":0.05335,"name":"Swallow Street","parentId":"490G00013097","stationId":"490G00013097","stopLetter":"BB","topMostParentId":"490G00013097"},{"icsId":"1008776","id":"490008776E","lat":51.51614,"lon":0.056445,"name":"Kingsford Way","parentId":"490G00008776","stationId":"490G00008776","stopLetter":"BC","topMostParentId":"490G00008776"},{"icsId":"1006317","id":"490006317B","lat":51.513789,"lon":0.060245,"name":"Beckton Bus Station","parentId":"490G000496","stationId":"490G000496","stopLetter":"B","topMostParentId":"490G000496"},{"icsId":"1002011","id":"490002011H","lat":51.514148,"lon":0.060794,"name":"Beckton Station","parentId":"490G02011G","stationId":"490G02011G","stopLetter":"H","topMostParentId":"940GZZDLBEC","zone":"3"},{"icsId":"1006389","id":"490006389E","lat":51.512092,"lon":0.064737,"name":"Covelees Wall","parentId":"490G00006389","stationId":"490G00006389","stopLetter":"G","topMostParentId":"490G00006389"},{"icsId":"1008378","id":"490008378S","lat":51.511978,"lon":0.066591,"name":"Horse Leaze","parentId":"490G00008378","stationId":"490G00008378","stopLetter":"A","topMostParentId":"490G00008378"},{"icsId":"1007094","id":"490007094S","lat":51.509704,"lon":0.069601,"name":"Gallions Reach Roundabout","parentId":"490G000530","stationId":"490G000530","stopLetter":"B","topMostParentId":"490G000530"},{"icsId":"1002039","id":"490002039E","lat":51.508445,"lon":0.072152,"name":"Gallions Reach Station","parentId":"490G02039A","stationId":"490G02039A","stopLetter":"C","topMostParentId":"940GZZDLGAL","zone":"3"},{"icsId":"1018714","id":"490018714N","lat":51.509834,"lon":0.074982,"name":"Armada Point","parentId":"490G00018714","stationId":"490G00018714","stopLetter":"G","topMostParentId":"490G00018714"},{"icsId":"1018760","id":"490018760E","lat":51.51082,"lon":0.079206,"name":"Beckton DLR Depot","parentId":"490G00018760","stationId":"490G00018760","stopLetter":"->E","topMostParentId":"490G00018760"},{"icsId":"1000425","id":"490018760N","lat":51.51275,"lon":0.080908,"name":"Hornet Way","parentId":"490G000074","stationId":"490G000074","stopLetter":"->N","topMostParentId":"490G000074"},{"icsId":"1016872","id":"490016872AP","lat":51.516507,"lon":0.079494,"name":"Gallions Reach Shopping Park","parentId":"490G00016872","stationId":"490G00016872","stopLetter":"AP","topMostParentId":"490G00016872"}]}]}