{"direction":"outbound","lineId":"p12","lineName":"P12","mode":"bus","stopPointSequences":[{"stopPoint":[{"icsId":"1013042","id":"490013042H","lat":51.493955,"lon":-0.046607,"name":"Surrey Quays Shopping Centre","parentId":"490G000775","stationId":"490G000775","stopLetter":"H","topMostParentId":"490G000775"},{"icsId":"1013040","id":"490013040F","lat":51.495214,"lon":-0.045545,"name":"Surrey Quays Leisure Park","parentId":"490G00013040","stationId":"490G00013040","stopLetter":"F","topMostParentId":"490G00013040"},{"icsId":"1015602","id":"490015602N","lat":51.497576,"lon":-0.045905,"name":"Canada Street","parentId":"490G000912","stationId":"490G000912","stopLetter":"U","topMostParentId":"490G000912"},{"icsId":"1004733","id":"490004733C","lat":51.497776,"lon":-0.049844,"name":"Canada Water Bus Station","parentId":"490G000438","stationId":"490G000438","stopLetter":"C","topMostParentId":"HUBZCW"},{"icsId":"1010176","id":"490010176N","lat":51.497477,"lon":-0.054049,"name":"Neptune Street / St Olaves Estate","parentId":"490G000670","stationId":"490G000670","stopLetter":"R","topMostParentId":"490G000670"},{"icsId":"1012349","id":"490012349C","lat":51.498799,"lon":-0.057264,"name":"Southwark Park","parentId":"490G00012349","stationId":"490G00012349","stopLetter":"C","topMostParentId":"490G00012349"},{"icsId":"1008847","id":"490008847G","lat":51.497979,"lon":-0.060439,"name":"Kirby Estate","parentId":"490G00008847","stationId":"490G00008847","stopLetter":"G","topMostParentId":"490G00008847"},{"icsId":"1019060","id":"490019060S","lat":51.496301,"lon":-0.060093,"name":"Gataker Street","parentId":"490G00019060","stationId":"490G00019060","topMostParentId":"490G00019060"},{"icsId":"1013562","id":"490013562S","lat":51.49475,"lon":-0.058747,"name":"Stalham Street","parentId":"490G00013562","stationId":"490G00013562","stopLetter":"PE","topMostParentId":"490G00013562"},{"icsId":"1011450","id":"490011450S","lat":51.49263,"lon":-0.058376,"name":"Raymouth Road","parentId":"490G00011450","stationId":"490G00011450","stopLetter":"PF","topMostParentId":"490G00011450"},{"icsId":"1012353","id":"490012353W","lat":51.492252,"lon":-0.064874,"name":"Southwark Park Road / St James's Road","parentId":"490G00012353","stationId":"490G00012353","stopLetter":"PG","topMostParentId":"490G00012353"},{"icsId":"1006639","id":"490006639S","lat":51.490228,"lon":-0.065349,"name":"Esmeralda Road","parentId":"490G00006639","stationId":"490G00006639","stopLetter":"JX","topMostParentId":"490G00006639"},{"icsId":"1004873","id":"490004873S","lat":51.487686,"lon":-0.065543,"name":"Catlin Street","parentId":"490G00004873","stationId":"490G00004873","stopLetter":"JY","topMostParentId":"490G00004873"},{"icsId":"1012072","id":"490012072E","lat":51.487696,"lon":-0.060717,"name":"Sheppard Drive","parentId":"490G00012072","stationId":"490G00012072","stopLetter":"RK","topMostParentId":"490G00012072"},{"icsId":"1001256","id":"490001256E","lat":51.487957,"lon":-0.057451,"name":"South Bermondsey Station","parentId":"490G01256W","stationId":"490G01256W","stopLetter":"IM","topMostParentId":"910GSBRMNDS"},{"icsId":"1009923","id":"490009923S","lat":51.486573,"lon":-0.054269,"name":"Millwall Football Ground","parentId":"490G00009923","stationId":"490G00009923","stopLetter":"IN","topMostParentId":"490G00009923"},{"icsId":"1009560","id":"490009560S","lat":51.482164,"lon":-0.053592,"name":"Manor Grove","parentId":"490G00009560","stationId":"490G00009560","stopLetter":"->S","topMostParentId":"490G00009560"},{"icsId":"1014116","id":"490014116S","lat":51.479365,"lon":-0.054,"name":"Wagner Street","parentId":"490G00014116","stationId":"490G00014116","stopLetter":"->S","topMostParentId":"490G00014116"},{"icsId":"1008461","id":"490008461WA","lat":51.479129,"lon":-0.056026,"name":"Old Kent Road / Ilderton Road","parentId":"490G000603","stationId":"490G000603","stopLetter":"WA","topMostParentId":"490G000603"},{"icsId":"1005526","id":"490005526WB","lat":51.480329,"lon":-0.058985,"name":"Commercial Way","parentId":"490G00005526","stationId":"490G00005526","stopLetter":"WB","topMostParentId":"490G00005526"},{"icsId":"1004813","id":"490004813S","lat":51.479459,"lon":-0.059627,"name":"Caroline Gardens","parentId":"490G00004813","stationId":"490G00004813","stopLetter":"SC","topMostParentId":"490G00004813"},{"icsId":"1005430","id":"490005430S","lat":51.477272,"lon":-0.058438,"name":"Clifton Way","parentId":"490G00005430","stationId":"490G00005430","stopLetter":"->S","topMostParentId":"490G00005430"},{"icsId":"1001233","id":"490001233QB","lat":51.473597,"lon":-0.059184,"name":"Queen's Road Peckham Station","parentId":"490G01233QN","stationId":"490G01233QN","stopLetter":"QB","topMostParentId":"910GPCKHMQD"},{"icsId":"1004799","id":"490004799QC","lat":51.473936,"lon":-0.061747,"name":"Carlton Grove","parentId":"490G00004799","stationId":"490G00004799","stopLetter":"QC","topMostParentId":"490G00004799"},{"icsId":"1005382","id":"490005382K","lat":51.47328,"lon":-0.065577,"name":"Clayton Road","parentId":"490G00005382","stationId":"490G00005382","stopLetter":"K","topMostParentId":"490G00005382"},{"icsId":"1010269","id":"490010269S1","lat":51.466137,"lon":-0.065951,"name":"Nigel Road","parentId":"490G00010269","stationId":"490G00010269","stopLetter":"EA","topMostParentId":"490G00010269"},{"icsId":"1010886","id":"490010886S","lat":51.463153,"lon":-0.064925,"name":"Peckham Rye / Nunhead Lane","parentId":"490G00010886","stationId":"490G00010886","stopLetter":"EC","topMostParentId":"490G00010886"},{"icsId":"1004773","id":"490004773E","lat":51.463329,"lon":-0.063104,"name":"Carden Road","parentId":"490G00004773","stationId":"490G00004773","stopLetter":"ES","topMostParentId":"490G00004773"},{"icsId":"1009174","id":"490009174E","lat":51.464455,"lon":-0.059903,"name":"Linden Grove","parentId":"490G00009174","stationId":"490G00009174","topMostParentId":"490G00009174"},{"icsId":"1003656","id":"490003656E","lat":51.465986,"lon":-0.057376,"name":"Barset Road","parentId":"490G00003656","stationId":"490G00003656","stopLetter":"->E","topMostParentId":"490G00003656"},{"icsId":"1008722","id":"490008722S","lat":51.466678,"lon":-0.055144,"name":"Kimberley Avenue","parentId":"490G00008722","stationId":"490G00008722","stopLetter":"ND","topMostParentId":"490G00008722"},{"icsId":"1001217","id":"490001217NB","lat":51.466467,"lon":-0.051107,"name":"Nunhead Station","parentId":"490G01217NB","stationId":"490G01217NB","stopLetter":"NB","topMostParentId":"910GNUNHEAD"},{"icsId":"1008526","id":"490008526S","lat":51.465774,"lon":-0.049985,"name":"Ivydale Road / Linden Grove","parentId":"490G00008526","stationId":"490G00008526","stopLetter":"->S","topMostParentId":"490G00008526"},{"icsId":"1010876","id":"490010876S","lat":51.464263,"lon":-0.048912,"name":"Peckham 7th Day Adventist Church","parentId":"490G00010876","stationId":"490G00010876","stopLetter":"->S","topMostParentId":"490G00010876"},{"icsId":"1009165","id":"490009165S","lat":51.461242,"lon":-0.046781,"name":"Limesford Road","parentId":"490G00009165","stationId":"490G00009165","stopLetter":"->S","topMostParentId":"490G00009165"},{"icsId":"1003855","id":"490003855S","lat":51.458673,"lon":-0.045897,"name":"Bellwood Road","parentId":"490G00003855","stationId":"490G00003855","stopLetter":"->S","topMostParentId":"490G00003855"},{"icsId":"1008494","id":"490008493E1","lat":51.456932,"lon":-0.045525,"name":"Merttins Road","parentId":"490G00008494","stationId":"490G00008494","topMostParentId":"490G00008494"},{"icsId":"1015712","id":"490015712S","lat":51.455289,"lon":-0.046258,"name":"Brockley Way","parentId":"490G00015712","stationId":"490G00015712","stopLetter":"->S","topMostParentId":"490G00015712"},{"icsId":"1008614","id":"490008614S","lat":51.453568,"lon":-0.048721,"name":"Camberwell New Cemetery","parentId":"490G00008614","stationId":"490G00008614","stopLetter":"U","topMostParentId":"490G00008614"},{"icsId":"1015711","id":"490015711S","lat":51.450348,"lon":-0.055709,"name":"Buckstone Close","parentId":"490G00015711","stationId":"490G00015711","stopLetter":"V","topMostParentId":"490G00015711"},{"icsId":"1004279","id":"490004279E","lat":51.449232,"lon":-0.054619,"name":"Netherby Road","parentId":"490G00004279","stationId":"490G00004279","stopLetter":"Q","topMostParentId":"490G00004279"},{"icsId":"1008063","id":"490008063E","lat":51.449243,"lon":-0.051985,"name":"Hengrave Road","parentId":"490G00008063","stationId":"490G00008063","stopLetter":"W","topMostParentId":"490G00008063"},{"icsId":"1001154","id":"490001154E","lat":51.449588,"lon":-0.044659,"name":"Honor Oak Park Station","parentId":"490G01154E","stationId":"490G01154E","stopLetter":"HB","topMostParentId":"910GHONROPK"},{"icsId":"1004399","id":"490004397E","lat":51.448692,"lon":-0.040538,"name":"Brockley Rise / Chandos","parentId":"490G00004399","stationId":"490G00004399","stopLetter":"HE","topMostParentId":"490G00004399"}]}]}