{"direction":"outbound","lineId":"p5","lineName":"P5","mode":"bus","stopPointSequences":[{"stopPoint":[{"icsId":"1009297","id":"490000073H","lat":51.496275,"lon":-0.099727,"name":"Elephant & Castle / Newington Causeway","parentId":"490G000644","stationId":"490G000644","stopLetter":"H","topMostParentId":"490G000644"},{"icsId":"1000073","id":"490000073R","lat":51.493256,"lon":-0.099305,"name":"Elephant & Castle Station","parentId":"490G00073G","stationId":"490G00073G","stopLetter":"R","topMostParentId":"HUBEPH","zone":"1+2"},{"icsId":"1008975","id":"490008975A","lat":51.490792,"lon":-0.097103,"name":"Larcom Street","parentId":"490G00008975","stationId":"490G00008975","stopLetter":"A","topMostParentId":"490G00008975"},{"icsId":"1006380","id":"490006380S","lat":51.488478,"lon":-0.095787,"name":"East Street","parentId":"490G00006380","stationId":"490G00006380","stopLetter":"U","topMostParentId":"490G00006380"},{"icsId":"1014180","id":"490014180W","lat":51.487602,"lon":-0.096659,"name":"Penrose Street / Walworth Road","parentId":"490G00014180","stationId":"490G00014180","stopLetter":"T","topMostParentId":"490G00014180"},{"icsId":"1013258","id":"490013258S","lat":51.486249,"lon":-0.098084,"name":"St Pauls Primary School","parentId":"490G00013258","stationId":"490G00013258","stopLetter":"->S","topMostParentId":"490G00013258"},{"icsId":"1006457","id":"490009368S","lat":51.484699,"lon":-0.099574,"name":"Chapter Road","parentId":"490G00006457","stationId":"490G00006457","stopLetter":"->S","topMostParentId":"490G00006457"},{"icsId":"1006941","id":"490012972S","lat":51.483639,"lon":-0.101318,"name":"Forsyth Gardens","parentId":"490G00006941","stationId":"490G00006941","stopLetter":"->S","topMostParentId":"490G00006941"},{"icsId":"1004968","id":"490004968S","lat":51.481778,"lon":-0.100776,"name":"Dale Road","parentId":"490G00004968","stationId":"490G00004968","stopLetter":"S","topMostParentId":"490G00004968"},{"icsId":"1004255","id":"490004255S","lat":51.480565,"lon":-0.102497,"name":"Bethwin Road","parentId":"490G00004255","stationId":"490G00004255","stopLetter":"T","topMostParentId":"490G00004255"},{"icsId":"1000981","id":"490000981Z","lat":51.478687,"lon":-0.10426,"name":"Langton Road","parentId":"490G000261","stationId":"490G000261","topMostParentId":"490G000261"},{"icsId":"1010138","id":"490010138Z","lat":51.475122,"lon":-0.105128,"name":"Patmos Road","parentId":"490G00010138","stationId":"490G00010138","topMostParentId":"490G00010138"},{"icsId":"1000982","id":"490000982Y","lat":51.474155,"lon":-0.106493,"name":"Mostyn Road","parentId":"490G000262","stationId":"490G000262","stopLetter":"->S","topMostParentId":"490G000262"},{"icsId":"1004630","id":"490004630Z","lat":51.471676,"lon":-0.107243,"name":"Burton Road","parentId":"490G00004630","stationId":"490G00004630","stopLetter":"->S","topMostParentId":"490G00004630"},{"icsId":"1009154","id":"490009154S","lat":51.469603,"lon":-0.106364,"name":"Lilford Road","parentId":"490G00009154","stationId":"490G00009154","stopLetter":"->S","topMostParentId":"490G00009154"},{"icsId":"1008345","id":"490008345S","lat":51.467607,"lon":-0.105281,"name":"Loughborough Road / Hopton House","parentId":"490G00008345","stationId":"490G00008345","topMostParentId":"490G00008345"},{"icsId":"1001184","id":"490001184S","lat":51.466167,"lon":-0.103584,"name":"Loughborough Junction Station","parentId":"490G01184N","stationId":"490G01184N","stopLetter":"D","topMostParentId":"910GLBGHJN"},{"icsId":"1005463","id":"490005463S","lat":51.463891,"lon":-0.103477,"name":"Loughborough Park / Coldharbour Lane","parentId":"490G00005463","stationId":"490G00005463","stopLetter":"L","topMostParentId":"490G00005463"},{"icsId":"1010013","id":"490010013W2","lat":51.461416,"lon":-0.104501,"name":"Moorland Road","parentId":"490G00010013","stationId":"490G00010013","stopLetter":"W","topMostParentId":"490G00010013"},{"icsId":"1006553","id":"490006553W","lat":51.459112,"lon":-0.106568,"name":"Loughborough Park / Elveden House","parentId":"490G00006553","stationId":"490G00006553","topMostParentId":"490G00006553"},{"icsId":"1008300","id":"490008300N","lat":51.459604,"lon":-0.108088,"name":"Hollybush Walk","parentId":"490G00008300","stationId":"490G00008300","topMostParentId":"490G00008300"},{"icsId":"1005462","id":"490005462N","lat":51.461215,"lon":-0.109864,"name":"Somerleyton Road / Coldharbour Lane","parentId":"490G00005462","stationId":"490G00005462","stopLetter":"Q","topMostParentId":"490G00005462"},{"icsId":"1006467","id":"490006467W","lat":51.461592,"lon":-0.113707,"name":"Electric Lane","parentId":"490G000499","stationId":"490G000499","stopLetter":"M","topMostParentId":"490G000499"},{"icsId":"1008919","id":"490008919V","lat":51.46088,"lon":-0.116961,"name":"Lambeth Town Hall","parentId":"490G000627","stationId":"490G000627","stopLetter":"V","topMostParentId":"490G000627"},{"icsId":"1003071","id":"490003071W","lat":51.459997,"lon":-0.120236,"name":"Belvedere Place","parentId":"490G00003071","stationId":"490G00003071","stopLetter":"B","topMostParentId":"490G00003071"},{"icsId":"1012222","id":"490012222W","lat":51.459518,"lon":-0.124589,"name":"Solon Road","parentId":"490G00012222","stationId":"490G00012222","stopLetter":"C","topMostParentId":"490G00012222"},{"icsId":"1003070","id":"490003070N","lat":51.460691,"lon":-0.129305,"name":"Clapham Park Road","parentId":"490G00003070","stationId":"490G00003070","stopLetter":"N","topMostParentId":"490G00003070"},{"icsId":"1013784","id":"490013784N","lat":51.461924,"lon":-0.129428,"name":"Tremadoc Road","parentId":"490G00013784","stationId":"490G00013784","stopLetter":"P","topMostParentId":"490G00013784"},{"icsId":"1000051","id":"490000051N1","lat":51.464652,"lon":-0.12959,"name":"Clapham North Station","parentId":"490G00051G","stationId":"490G00051G","topMostParentId":"940GZZLUCPN","zone":"2"},{"icsId":"1016814","id":"490000051C","lat":51.465863,"lon":-0.129411,"name":"Clapham Road / Bedford Road","parentId":"490G00016814","stationId":"490G00016814","stopLetter":"C","topMostParentId":"490G00016814"},{"icsId":"1013907","id":"490013907N","lat":51.468401,"lon":-0.127277,"name":"Union Road","parentId":"490G00013907","stationId":"490G00013907","stopLetter":"J","topMostParentId":"490G00013907"},{"icsId":"1012834","id":"490000223F","lat":51.471939,"lon":-0.123057,"name":"Clapham Road / Stockwell Station","parentId":"490G000769","stationId":"490G000769","stopLetter":"F","topMostParentId":"490G000769"},{"icsId":"1019445","id":"4900019445","lat":51.472588,"lon":-0.123145,"name":"Binfield Road / Stockwell Station","parentId":"490G00019445","stationId":"490G00019445","stopLetter":"C","topMostParentId":"490G00019445"},{"icsId":"1012831","id":"490012831N","lat":51.474288,"lon":-0.125423,"name":"Stockwell Bus Garage","parentId":"490G00012831","stationId":"490G00012831","stopLetter":"N","topMostParentId":"490G00012831"},{"icsId":"1008978","id":"490008978N2","lat":51.474593,"lon":-0.132135,"name":"Larkhall Park","parentId":"490G00008978","stationId":"490G00008978","stopLetter":"N","topMostParentId":"490G00008978"},{"icsId":"1016690","id":"490016690W","lat":51.473852,"lon":-0.134181,"name":"Blore Close","parentId":"490G00016690","stationId":"490G00016690","topMostParentId":"490G00016690"},{"icsId":"1006017","id":"490006017W","lat":51.474629,"lon":-0.136094,"name":"Condell Road","parentId":"490G00006017","stationId":"490G00006017","stopLetter":"R","topMostParentId":"490G00006017"},{"icsId":"1012706","id":"490012706W","lat":51.476775,"lon":-0.138166,"name":"Corunna Road","parentId":"490G00012706","stationId":"490G00012706","stopLetter":"S","topMostParentId":"490G00012706"},{"icsId":"1011936","id":"490011936S","lat":51.477463,"lon":-0.141825,"name":"Ascalon Street","parentId":"490G00011936","stationId":"490G00011936","stopLetter":"T","topMostParentId":"490G00011936"},{"icsId":"1016686","id":"490016686E","lat":51.476495,"lon":-0.142023,"name":"Patmore Estate / Drury House","parentId":"490G00016686","stationId":"490G00016686","stopLetter":"U","topMostParentId":"490G00016686"}]}]}