{"direction":"outbound","lineId":"r10","lineName":"R10","mode":"bus","stopPointSequences":[{"stopPoint":[{"icsId":"1001232","id":"490001220E","lat":51.373548,"lon":0.089562,"name":"Orpington Bus Station","parentId":"490G00001232","stationId":"490G00001232","stopLetter":"E","topMostParentId":"490G00001232"},{"icsId":"1013818","id":"490013818H","lat":51.371871,"lon":0.091353,"name":"Tubbenden Lane","parentId":"490G00013818","stationId":"490G00013818","stopLetter":"H","topMostParentId":"490G00013818"},{"icsId":"1019892","id":"490015411R","lat":51.373987,"lon":0.097714,"name":"High Street / Orpington War Memorial","parentId":"490G00019892","stationId":"490G00019892","stopLetter":"R","topMostParentId":"490G00019892"},{"icsId":"1010641","id":"490010641X","lat":51.375406,"lon":0.100337,"name":"Orpington / Walnuts Centre","parentId":"490G00010641","stationId":"490G00010641","stopLetter":"X","topMostParentId":"490G00010641"},{"icsId":"1019892","id":"490015411S","lat":51.374282,"lon":0.098317,"name":"High Street / Orpington War Memorial","parentId":"490G00019892","stationId":"490G00019892","stopLetter":"S","topMostParentId":"490G00019892"},{"icsId":"1008209","id":"490008209M","lat":51.371507,"lon":0.097098,"name":"Hillcrest Road","parentId":"490G00008209","stationId":"490G00008209","stopLetter":"M","topMostParentId":"490G00008209"},{"icsId":"1013749","id":"490013749S","lat":51.367952,"lon":0.095743,"name":"Sevenoaks Road / Tower Road","parentId":"490G00013749","stationId":"490G00013749","stopLetter":"D","topMostParentId":"490G00013749"},{"icsId":"1012592","id":"490010639E","lat":51.36474,"lon":0.093341,"name":"Sevenoaks Road / Orpington Hospital","parentId":"490G00012592","stationId":"490G00012592","stopLetter":"E","topMostParentId":"490G00012592"},{"icsId":"1010639","id":"490010639S1","lat":51.362914,"lon":0.091362,"name":"Sevenoaks Road / Cloonmore Avenue","parentId":"490G00010639","stationId":"490G00010639","stopLetter":"F","topMostParentId":"490G00010639"},{"icsId":"1005748","id":"490005748S","lat":51.36083,"lon":0.089184,"name":"Crescent Way","parentId":"490G00005748","stationId":"490G00005748","stopLetter":"G","topMostParentId":"490G00005748"},{"icsId":"1006755","id":"490006755EF","lat":51.356424,"lon":0.089156,"name":"Glentrammon Road","parentId":"490G00006755","stationId":"490G00006755","stopLetter":"E","topMostParentId":"490G00006755"},{"icsId":"1007494","id":"490007494PA","lat":51.352263,"lon":0.089527,"name":"High Street / Green Street Green","parentId":"490G00007494","stationId":"490G00007494","stopLetter":"G","topMostParentId":"490G00007494"}]}]}