{"direction":"outbound","lineId":"r11","lineName":"R11","mode":"bus","stopPointSequences":[{"stopPoint":[{"icsId":"1012139","id":"490012139HE","lat":51.419828,"lon":0.09954,"name":"Sidcup / Queen Mary's Hospital","parentId":"490G00012139","stationId":"490G00012139","stopLetter":"HE","topMostParentId":"490G00012139"},{"icsId":"1012150","id":"490012139HJ","lat":51.420321,"lon":0.099131,"name":"Queen Mary's Hospital","parentId":"490G00012150","stationId":"490G00012150","stopLetter":"HJ","topMostParentId":"490G00012150"},{"icsId":"1013421","id":"490013421N","lat":51.423405,"lon":0.100667,"name":"The Green","parentId":"490G00013421","stationId":"490G00013421","stopLetter":"X","topMostParentId":"490G00013421"},{"icsId":"1012140","id":"490012140T","lat":51.426421,"lon":0.101985,"name":"Sidcup High Street / Station Road","parentId":"490G00012140","stationId":"490G00012140","stopLetter":"T","topMostParentId":"490G00012140"},{"icsId":"1005299","id":"490005299Y","lat":51.424926,"lon":0.106563,"name":"Church Road","parentId":"490G00005299","stationId":"490G00005299","stopLetter":"Y","topMostParentId":"490G00005299"},{"icsId":"1008885","id":"490008885E","lat":51.421651,"lon":0.111173,"name":"Knoll Road","parentId":"490G00008885","stationId":"490G00008885","stopLetter":"->E","topMostParentId":"490G00008885"},{"icsId":"1009854","id":"490009854E","lat":51.420212,"lon":0.114688,"name":"Middleton Avenue","parentId":"490G00009854","stationId":"490G00009854","stopLetter":"->E","topMostParentId":"490G00009854"},{"icsId":"1011463","id":"490011463S","lat":51.417984,"lon":0.11752,"name":"Cray Road / Foots Cray High Street","parentId":"490G00011463","stationId":"490G00011463","stopLetter":"FP","topMostParentId":"490G00011463"},{"icsId":"1009746","id":"490009746S","lat":51.416246,"lon":0.115181,"name":"Mayfield Villas","parentId":"490G00009746","stationId":"490G00009746","stopLetter":"FQ","topMostParentId":"490G00009746"},{"icsId":"1005780","id":"490005780S","lat":51.414101,"lon":0.113443,"name":"Crittall's Corner","parentId":"490G00005780","stationId":"490G00005780","stopLetter":"FR","topMostParentId":"490G00005780"},{"icsId":"1016701","id":"490016701S","lat":51.411309,"lon":0.112667,"name":"Kemnal Technology College","parentId":"490G00016701","stationId":"490G00016701","stopLetter":"M","topMostParentId":"490G00016701"},{"icsId":"1009865","id":"490009865W","lat":51.40902,"lon":0.111929,"name":"Midfield Way / Sevenoaks Way","parentId":"490G00009865","stationId":"490G00009865","stopLetter":"E","topMostParentId":"490G00009865"},{"icsId":"1005849","id":"490005849W","lat":51.408796,"lon":0.106382,"name":"Croxley Green","parentId":"490G00005849","stationId":"490G00005849","stopLetter":"J","topMostParentId":"490G00005849"},{"icsId":"1009864","id":"490009864W","lat":51.408702,"lon":0.103631,"name":"Midfield Way / Chipperfield Road","parentId":"490G00009864","stationId":"490G00009864","stopLetter":"K","topMostParentId":"490G00009864"},{"icsId":"1004272","id":"490004272W","lat":51.408434,"lon":0.099018,"name":"Breakspears Drive","parentId":"490G00004272","stationId":"490G00004272","stopLetter":"L","topMostParentId":"490G00004272"},{"icsId":"1003782","id":"490003782S","lat":51.406932,"lon":0.096504,"name":"Beddington Road","parentId":"490G00003782","stationId":"490G00003782","stopLetter":"M","topMostParentId":"490G00003782"},{"icsId":"1005216","id":"490005216E","lat":51.404847,"lon":0.099472,"name":"Chorleywood Crescent","parentId":"490G00005216","stationId":"490G00005216","stopLetter":"N","topMostParentId":"490G00005216"},{"icsId":"1012882","id":"490012882N","lat":51.403542,"lon":0.10351,"name":"Kings Church","parentId":"490G00012882","stationId":"490G00012882","stopLetter":"P","topMostParentId":"490G00012882"},{"icsId":"1011437","id":"490011437E","lat":51.400482,"lon":0.103657,"name":"Ravenscourt Road","parentId":"490G00011437","stationId":"490G00011437","stopLetter":"R","topMostParentId":"490G00011437"},{"icsId":"1009296","id":"490009296S","lat":51.3985,"lon":0.10634,"name":"Longbury Drive","parentId":"490G00009296","stationId":"490G00009296","stopLetter":"S","topMostParentId":"490G00009296"},{"icsId":"1001271","id":"490001271SB","lat":51.395711,"lon":0.107405,"name":"St Mary Cray Station","parentId":"490G01271SB","stationId":"490G01271SB","stopLetter":"SB","topMostParentId":"910GSTMRYC"},{"icsId":"1010455","id":"490010455SG","lat":51.393038,"lon":0.111537,"name":"Nugent Retail Park","parentId":"490G00010455","stationId":"490G00010455","stopLetter":"SG","topMostParentId":"490G00010455"},{"icsId":"1012563","id":"490012563SH","lat":51.390414,"lon":0.11041,"name":"Stanley Way","parentId":"490G00012563","stationId":"490G00012563","stopLetter":"SH","topMostParentId":"490G00012563"},{"icsId":"1008673","id":"490011155ST","lat":51.38878,"lon":0.109746,"name":"Kent Road","parentId":"490G00008673","stationId":"490G00008673","stopLetter":"ST","topMostParentId":"490G00008673"},{"icsId":"1004801","id":"490004801S1","lat":51.38163,"lon":0.105781,"name":"High Street / Carlton Parade","parentId":"490G00004801","stationId":"490G00004801","stopLetter":"P","topMostParentId":"490G00004801"},{"icsId":"1010635","id":"490010635W","lat":51.37927,"lon":0.102526,"name":"High Street / Church Hill","parentId":"490G00010635","stationId":"490G00010635","stopLetter":"W","topMostParentId":"490G00010635"},{"icsId":"1014142","id":"490014142U","lat":51.377089,"lon":0.100285,"name":"Walnuts Centre","parentId":"490G00014142","stationId":"490G00014142","stopLetter":"U","topMostParentId":"490G00014142"},{"icsId":"1019892","id":"490015411S","lat":51.374282,"lon":0.098317,"name":"High Street / Orpington War Memorial","parentId":"490G00019892","stationId":"490G00019892","stopLetter":"S","topMostParentId":"490G00019892"},{"icsId":"1008209","id":"490008209M","lat":51.371507,"lon":0.097098,"name":"Hillcrest Road","parentId":"490G00008209","stationId":"490G00008209","stopLetter":"M","topMostParentId":"490G00008209"},{"icsId":"1013749","id":"490013749S","lat":51.367952,"lon":0.095743,"name":"Sevenoaks Road / Tower Road","parentId":"490G00013749","stationId":"490G00013749","stopLetter":"D","topMostParentId":"490G00013749"},{"icsId":"1012592","id":"490010639E","lat":51.36474,"lon":0.093341,"name":"Sevenoaks Road / Orpington Hospital","parentId":"490G00012592","stationId":"490G00012592","stopLetter":"E","topMostParentId":"490G00012592"},{"icsId":"1010640","id":"490010640W","lat":51.362487,"lon":0.094575,"name":"Orpington Hospital","parentId":"490G00010640","stationId":"490G00010640","stopLetter":"H","topMostParentId":"490G00010640"},{"icsId":"1010639","id":"490010639S1","lat":51.362914,"lon":0.091362,"name":"Sevenoaks Road / Cloonmore Avenue","parentId":"490G00010639","stationId":"490G00010639","stopLetter":"F","topMostParentId":"490G00010639"},{"icsId":"1005748","id":"490005748S","lat":51.36083,"lon":0.089184,"name":"Crescent Way","parentId":"490G00005748","stationId":"490G00005748","stopLetter":"G","topMostParentId":"490G00005748"},{"icsId":"1006755","id":"490006755EF","lat":51.356424,"lon":0.089156,"name":"Glentrammon Road","parentId":"490G00006755","stationId":"490G00006755","stopLetter":"E","topMostParentId":"490G00006755"},{"icsId":"1007494","id":"490007494PA","lat":51.352263,"lon":0.089527,"name":"High Street / Green Street Green","parentId":"490G00007494","stationId":"490G00007494","stopLetter":"G","topMostParentId":"490G00007494"},{"icsId":"1007496","id":"490007495BD","lat":51.350685,"lon":0.089239,"name":"High Street / Worlds End Lane","parentId":"490G00007496","stationId":"490G00007496","stopLetter":"M","topMostParentId":"490G00007496"}]}]}