{"direction":"outbound","lineId":"r3","lineName":"R3","mode":"bus","stopPointSequences":[{"stopPoint":[{"icsId":"1006756","id":"490006756W1","lat":51.365297,"lon":0.057854,"name":"Princess Royal University Hospital","parentId":"490G000511","stationId":"490G000511","stopLetter":"HB","topMostParentId":"490G000511"},{"icsId":"1009243","id":"490009243E","lat":51.366807,"lon":0.054273,"name":"Locksbottom / St Michael's Church","parentId":"490G00009243","stationId":"490G00009243","stopLetter":"HJ","topMostParentId":"490G00009243"},{"icsId":"1012600","id":"490012600E","lat":51.368913,"lon":0.058304,"name":"Crofton Road / Starts Hill Road","parentId":"490G00012600","stationId":"490G00012600","stopLetter":"HN","topMostParentId":"490G00012600"},{"icsId":"1007255","id":"490007255E","lat":51.37102,"lon":0.063269,"name":"Glyndebourne Park","parentId":"490G00007255","stationId":"490G00007255","stopLetter":"CM","topMostParentId":"490G00007255"},{"icsId":"1010512","id":"490010512W2","lat":51.373517,"lon":0.070551,"name":"Oakwood Road / St Paul's Church","parentId":"490G00010512","stationId":"490G00010512","stopLetter":"CN","topMostParentId":"490G00010512"},{"icsId":"1005788","id":"490005788N","lat":51.374183,"lon":0.075624,"name":"Crofton Lane / Crofton Road","parentId":"490G00005788","stationId":"490G00005788","stopLetter":"CE","topMostParentId":"490G00005788"},{"icsId":"1012952","id":"490012952N","lat":51.375778,"lon":0.076458,"name":"St Thomas Drive","parentId":"490G00012952","stationId":"490G00012952","stopLetter":"CF","topMostParentId":"490G00012952"},{"icsId":"1011033","id":"490011033N","lat":51.378841,"lon":0.07868,"name":"Place Farm Avenue","parentId":"490G00011033","stationId":"490G00011033","stopLetter":"CH","topMostParentId":"490G00011033"},{"icsId":"1005792","id":"490005792N","lat":51.380809,"lon":0.07979,"name":"Crofton School","parentId":"490G00005792","stationId":"490G00005792","topMostParentId":"490G00005792"},{"icsId":"1015900","id":"490015900NW","lat":51.383926,"lon":0.074398,"name":"Rycroft Road","parentId":"490G00015900","stationId":"490G00015900","topMostParentId":"490G00015900"},{"icsId":"1020294","id":"490020294W","lat":51.385605,"lon":0.06792,"name":"Chesham Avenue  Woodhurst Avenue","parentId":"490G00020294","stationId":"490G00020294","stopLetter":"->W","topMostParentId":"490G00020294"},{"icsId":"1005110","id":"490005110S","lat":51.386698,"lon":0.063054,"name":"Faringdon Avenue  Chesham Avenue","parentId":"490G00005110","stationId":"490G00005110","topMostParentId":"490G00005110"},{"icsId":"1008890","id":"490008890SW","lat":51.385132,"lon":0.061633,"name":"Faringdon Avenue  Birch Row","parentId":"490G00008890","stationId":"490G00008890","topMostParentId":"490G00008890"},{"icsId":"1008973","id":"490008973S","lat":51.382481,"lon":0.058941,"name":"Faringdon Avenue  Larch Way","parentId":"490G00008973","stationId":"490G00008973","stopLetter":"->S","topMostParentId":"490G00008973"},{"icsId":"1003262","id":"490003262W","lat":51.382379,"lon":0.056551,"name":"Almond Way","parentId":"490G00003262","stationId":"490G00003262","stopLetter":"->W","topMostParentId":"490G00003262"},{"icsId":"1014577","id":"490014577N2","lat":51.384635,"lon":0.056135,"name":"Whitebeam Avenue  Larch Way","parentId":"490G00014577","stationId":"490G00014577","stopLetter":"->N","topMostParentId":"490G00014577"},{"icsId":"1015902","id":"490015902SE","lat":51.386101,"lon":0.058126,"name":"Ash Row","parentId":"490G00015902","stationId":"490G00015902","topMostParentId":"490G00015902"},{"icsId":"1010696","id":"490010696NE","lat":51.387079,"lon":0.062884,"name":"Oxhawth Crescent","parentId":"490G00010696","stationId":"490G00010696","topMostParentId":"490G00010696"},{"icsId":"1010698","id":"490010693E","lat":51.388635,"lon":0.064923,"name":"Southborough Lane / Baptist Church","parentId":"490G00010698","stationId":"490G00010698","stopLetter":"R","topMostParentId":"490G00010698"},{"icsId":"1005738","id":"490005738E","lat":51.388949,"lon":0.068028,"name":"Crescent Drive","parentId":"490G00005738","stationId":"490G00005738","stopLetter":"S","topMostParentId":"490G00005738"},{"icsId":"1010976","id":"490010976B","lat":51.388926,"lon":0.072885,"name":"Queensway / Petts Wood Station","parentId":"490G000703","stationId":"490G000703","stopLetter":"B","topMostParentId":"490G000703"},{"icsId":"1015681","id":"490015681NB1","lat":51.387513,"lon":0.077004,"name":"Fairway / Tudor Way","parentId":"490G00015681","stationId":"490G00015681","topMostParentId":"490G00015681"},{"icsId":"1015388","id":"490015388D","lat":51.389235,"lon":0.074236,"name":"Station Square / Petts Wood Station","parentId":"490G000891","stationId":"490G000891","stopLetter":"D","topMostParentId":"490G000891"},{"icsId":"1014868","id":"490014868F","lat":51.390424,"lon":0.075626,"name":"Woodland Way","parentId":"490G00014868","stationId":"490G00014868","stopLetter":"F","topMostParentId":"490G00014868"},{"icsId":"1005819","id":"490005819E","lat":51.390672,"lon":0.080381,"name":"Crossway","parentId":"490G00005819","stationId":"490G00005819","stopLetter":"->E","topMostParentId":"490G00005819"},{"icsId":"1010978","id":"490010978E","lat":51.390863,"lon":0.085363,"name":"Petts Wood Road","parentId":"490G00010978","stationId":"490G00010978","stopLetter":"R","topMostParentId":"490G00010978"},{"icsId":"1008906","id":"490008906E","lat":51.391156,"lon":0.089099,"name":"Ladywood Avenue","parentId":"490G00008906","stationId":"490G00008906","stopLetter":"S","topMostParentId":"490G00008906"},{"icsId":"1005202","id":"490005202E","lat":51.391027,"lon":0.09227,"name":"Poverest Road / Chislehurst Road","parentId":"490G00005202","stationId":"490G00005202","stopLetter":"T","topMostParentId":"490G00005202"},{"icsId":"1005268","id":"490005268E","lat":51.390715,"lon":0.096151,"name":"Poverest Road / Church Hill Wood","parentId":"490G00005268","stationId":"490G00005268","stopLetter":"U","topMostParentId":"490G00005268"},{"icsId":"1018672","id":"490018672Y","lat":51.391448,"lon":0.096903,"name":"Church Hill Wood","parentId":"490G00018672","stationId":"490G00018672","topMostParentId":"490G00018672"},{"icsId":"1012076","id":"490012076Y","lat":51.392033,"lon":0.094371,"name":"Sherborne Road","parentId":"490G00012076","stationId":"490G00012076","stopLetter":"->W","topMostParentId":"490G00012076"},{"icsId":"1004400","id":"490004400Y","lat":51.392909,"lon":0.091651,"name":"Sefton Road","parentId":"490G00004400","stationId":"490G00004400","stopLetter":"->N","topMostParentId":"490G00004400"},{"icsId":"1011976","id":"490011976Y","lat":51.394318,"lon":0.092823,"name":"Sefton Close","parentId":"490G00011976","stationId":"490G00011976","stopLetter":"->E","topMostParentId":"490G00011976"},{"icsId":"1003302","id":"490003302Y","lat":51.394359,"lon":0.096533,"name":"Dorney Rise","parentId":"490G00003302","stationId":"490G00003302","stopLetter":"->E","topMostParentId":"490G00003302"},{"icsId":"1018673","id":"490018673Z","lat":51.394067,"lon":0.10181,"name":"Amherst Drive","parentId":"490G00018673","stationId":"490G00018673","stopLetter":"->E","topMostParentId":"490G00018673"},{"icsId":"1000398","id":"490000398Y","lat":51.393684,"lon":0.10461,"name":"Amherst Close","parentId":"490G000048","stationId":"490G000048","stopLetter":"->E","topMostParentId":"490G000048"},{"icsId":"1018674","id":"490018674S1","lat":51.392122,"lon":0.104984,"name":"Sidmouth Road","parentId":"490G00018674","stationId":"490G00018674","topMostParentId":"490G00018674"},{"icsId":"1003486","id":"490003486S","lat":51.390513,"lon":0.104392,"name":"Austin Road","parentId":"490G00003486","stationId":"490G00003486","stopLetter":"->S","topMostParentId":"490G00003486"},{"icsId":"1009653","id":"490009653E","lat":51.389196,"lon":0.105166,"name":"Marion Crescent","parentId":"490G00009653","stationId":"490G00009653","stopLetter":"SW","topMostParentId":"490G00009653"},{"icsId":"1008673","id":"490008673S","lat":51.387056,"lon":0.110601,"name":"Kent Road","parentId":"490G00008673","stationId":"490G00008673","stopLetter":"SR","topMostParentId":"490G00008673"},{"icsId":"1009428","id":"490009428S","lat":51.384296,"lon":0.109568,"name":"Lower Road","parentId":"490G00009428","stationId":"490G00009428","stopLetter":"N","topMostParentId":"490G00009428"},{"icsId":"1004801","id":"490004801S1","lat":51.38163,"lon":0.105781,"name":"High Street / Carlton Parade","parentId":"490G00004801","stationId":"490G00004801","stopLetter":"P","topMostParentId":"490G00004801"},{"icsId":"1010635","id":"490010635W","lat":51.37927,"lon":0.102526,"name":"High Street / Church Hill","parentId":"490G00010635","stationId":"490G00010635","stopLetter":"W","topMostParentId":"490G00010635"},{"icsId":"1014142","id":"490014142U","lat":51.377089,"lon":0.100285,"name":"Walnuts Centre","parentId":"490G00014142","stationId":"490G00014142","stopLetter":"U","topMostParentId":"490G00014142"},{"icsId":"1019892","id":"490015411S","lat":51.374282,"lon":0.098317,"name":"High Street / Orpington War Memorial","parentId":"490G00019892","stationId":"490G00019892","stopLetter":"S","topMostParentId":"490G00019892"},{"icsId":"1013818","id":"490013818J","lat":51.371761,"lon":0.091449,"name":"Tubbenden Lane","parentId":"490G00013818","stationId":"490G00013818","stopLetter":"J","topMostParentId":"490G00013818"},{"icsId":"1001220","id":"490001220G","lat":51.373205,"lon":0.089661,"name":"Orpington Station","parentId":"490G01220G","stationId":"490G01220G","stopLetter":"G","topMostParentId":"910GORPNGTN"}]}]}