{"direction":"outbound","lineId":"s4","lineName":"S4","mode":"bus","stopPointSequences":[{"stopPoint":[{"icsId":"1009186","id":"490009186S","lat":51.359134,"lon":-0.12918,"name":"Wilson's School","parentId":"490G00009186","stationId":"490G00009186","stopLetter":"N","topMostParentId":"490G00009186"},{"icsId":"1012665","id":"490012665S","lat":51.357108,"lon":-0.128444,"name":"St Elphege's School","parentId":"490G00012665","stationId":"490G00012665","stopLetter":"P","topMostParentId":"490G00012665"},{"icsId":"1008775","id":"490008775S","lat":51.35401,"lon":-0.129245,"name":"Spitfire Road","parentId":"490G00008775","stationId":"490G00008775","stopLetter":"Q","topMostParentId":"490G00008775"},{"icsId":"1011729","id":"490011729W","lat":51.352736,"lon":-0.132284,"name":"Roundshaw / Phoenix Centre","parentId":"490G00011729","stationId":"490G00011729","stopLetter":"R","topMostParentId":"490G00011729"},{"icsId":"1013472","id":"490013472W","lat":51.352725,"lon":-0.137225,"name":"The Newlands","parentId":"490G00013472","stationId":"490G00013472","stopLetter":"S","topMostParentId":"490G00013472"},{"icsId":"1014138","id":"490014138N","lat":51.348467,"lon":-0.148297,"name":"Woodcote Green","parentId":"490G00014138","stationId":"490G00014138","stopLetter":"X","topMostParentId":"490G00014138"},{"icsId":"1007680","id":"490007680N","lat":51.351033,"lon":-0.14795,"name":"Hall Road","parentId":"490G00007680","stationId":"490G00007680","stopLetter":"Y","topMostParentId":"490G00007680"},{"icsId":"1004100","id":"490004100N","lat":51.353522,"lon":-0.148366,"name":"Blenheim Gardens","parentId":"490G00004100","stationId":"490G00004100","stopLetter":"Z","topMostParentId":"490G00004100"},{"icsId":"1012466","id":"490012466G","lat":51.356512,"lon":-0.149194,"name":"Woodcote Road / Stafford Road","parentId":"490G00012466","stationId":"490G00012466","stopLetter":"G","topMostParentId":"490G00012466"},{"icsId":"1003775","id":"490003775K","lat":51.358958,"lon":-0.149799,"name":"Wallington Town Centre","parentId":"490G000407","stationId":"490G000407","stopLetter":"K","topMostParentId":"490G000407"},{"icsId":"1001306","id":"490001306D","lat":51.360502,"lon":-0.150756,"name":"Wallington Station","parentId":"490G01306B","stationId":"490G01306B","stopLetter":"D","topMostParentId":"910GWALNGTN"},{"icsId":"1012554","id":"490012554W","lat":51.354902,"lon":-0.161768,"name":"Stanley Road","parentId":"490G00012554","stationId":"490G00012554","stopLetter":"->W","topMostParentId":"490G00012554"},{"icsId":"1005765","id":"490005765W","lat":51.35368,"lon":-0.169314,"name":"Crichton Road","parentId":"490G00005765","stationId":"490G00005765","topMostParentId":"490G00005765"},{"icsId":"1014520","id":"490014520S","lat":51.347093,"lon":-0.181696,"name":"West Way","parentId":"490G00014520","stationId":"490G00014520","stopLetter":"->S","topMostParentId":"490G00014520"},{"icsId":"1011008","id":"490011008S","lat":51.344102,"lon":-0.184844,"name":"Pine Walk","parentId":"490G00011008","stationId":"490G00011008","stopLetter":"->S","topMostParentId":"490G00011008"},{"icsId":"1003589","id":"490003589S","lat":51.341504,"lon":-0.187818,"name":"Banstead Road South / Downs Road","parentId":"490G00003589","stationId":"490G00003589","stopLetter":"->S","topMostParentId":"490G00003589"},{"icsId":"1011767","id":"490011767L","lat":51.343228,"lon":-0.190564,"name":"Royal Marsden Hospital","parentId":"490G00011767","stationId":"490G00011767","stopLetter":"L","topMostParentId":"490G00011767"},{"icsId":"1011768","id":"490011768W","lat":51.34266,"lon":-0.193372,"name":"Royal Marsden Hospital / Downs Road","parentId":"490G00011768","stationId":"490G00011768","stopLetter":"N","topMostParentId":"490G00011768"},{"icsId":"1001020","id":"490001020D","lat":51.343665,"lon":-0.197856,"name":"Belmont Station","parentId":"490G01020N1","stationId":"490G01020N1","stopLetter":"D","topMostParentId":"910GBELM"},{"icsId":"1003860","id":"490003860W","lat":51.343949,"lon":-0.201736,"name":"Belmont / Station Road","parentId":"490G00003860","stationId":"490G00003860","stopLetter":"->W","topMostParentId":"490G00003860"},{"icsId":"1001286","id":"490001286Z","lat":51.359324,"lon":-0.19164,"name":"Sutton Station","parentId":"490G01286N","stationId":"490G01286N","stopLetter":"AC","topMostParentId":"910GSUTTON"},{"icsId":"1013082","id":"490013082R","lat":51.360058,"lon":-0.192602,"name":"Sutton Post Office","parentId":"490G00013082","stationId":"490G00013082","stopLetter":"R","topMostParentId":"490G00013082"},{"icsId":"1013064","id":"490013064V","lat":51.361913,"lon":-0.194497,"name":"Sutton Civic Centre","parentId":"490G00013064","stationId":"490G00013064","stopLetter":"V","topMostParentId":"490G00013064"},{"icsId":"1011856","id":"490011856W","lat":51.365479,"lon":-0.195405,"name":"St Nicholas Centre","parentId":"490G00011856","stationId":"490G00011856","stopLetter":"W","topMostParentId":"490G00011856"},{"icsId":"1013061","id":"490013061E","lat":51.367771,"lon":-0.194137,"name":"Sutton / Marshall's Road","parentId":"490G00013061","stationId":"490G00013061","stopLetter":"X","topMostParentId":"490G00013061"},{"icsId":"1013651","id":"490013651F","lat":51.366879,"lon":-0.192276,"name":"Benhill Avenue / Throwley Way","parentId":"490G00013651","stationId":"490G00013651","stopLetter":"F","topMostParentId":"490G00013651"},{"icsId":"1003895","id":"490003895E","lat":51.366785,"lon":-0.189679,"name":"Benhill Wood Road","parentId":"490G00003895","stationId":"490G00003895","stopLetter":"->E","topMostParentId":"490G00003895"},{"icsId":"1019948","id":"490015354E","lat":51.365983,"lon":-0.186694,"name":"Lind Road","parentId":"490G00019948","stationId":"490G00019948","stopLetter":"->E","topMostParentId":"490G00019948"},{"icsId":"1018216","id":"490018216N","lat":51.367189,"lon":-0.186158,"name":"Thicket Crescent","parentId":"490G00018216","stationId":"490G00018216","stopLetter":"->N","topMostParentId":"490G00018216"},{"id":"490001991Y","lat":51.369684,"lon":-0.184709,"name":"Edinburgh Road","parentId":"490G000313","stationId":"490G000313","stopLetter":"->E","topMostParentId":"490G000313"},{"icsId":"1012718","id":"490012718HA","lat":51.380794,"lon":-0.183809,"name":"St Helier Hospital","parentId":"490G00012718","stationId":"490G00012718","stopLetter":"HA","topMostParentId":"490G00012718"},{"icsId":"1015406","id":"490015406RL","lat":51.383769,"lon":-0.189526,"name":"Wrythe Lane / Rose Hill Roundabout","parentId":"490G00015406","stationId":"490G00015406","stopLetter":"RL","topMostParentId":"490G00015406"},{"icsId":"1004766","id":"490004766N","lat":51.386524,"lon":-0.192623,"name":"Canterbury Road","parentId":"490G00004766","stationId":"490G00004766","stopLetter":"RC","topMostParentId":"490G00004766"},{"icsId":"1001267","id":"490001267N","lat":51.389266,"lon":-0.19664,"name":"St Helier Station","parentId":"490G01267B","stationId":"490G01267B","stopLetter":"MS","topMostParentId":"910GSHLIER"}]}]}