{"direction":"outbound","lineId":"u5","lineName":"U5","mode":"bus","stopPointSequences":[{"stopPoint":[{"icsId":"1005185","id":"490005185N","lat":51.54753,"lon":-0.476763,"name":"York Road","parentId":"490G00005185","stationId":"490G00005185","stopLetter":"W","topMostParentId":"490G00005185"},{"icsId":"1000246","id":"490000246K","lat":51.546631,"lon":-0.478192,"name":"Uxbridge Station","parentId":"490G00246H","stationId":"490G00246H","stopLetter":"K","topMostParentId":"940GZZLUUXB","zone":"6"},{"icsId":"1013969","id":"490013969B","lat":51.547966,"lon":-0.481291,"name":"Uxbridge High Street","parentId":"490G00013969","stationId":"490G00013969","stopLetter":"B","topMostParentId":"490G00013969"},{"icsId":"1005845","id":"490010686Q","lat":51.545769,"lon":-0.482403,"name":"Crown Walk","parentId":"490G00005845","stationId":"490G00005845","stopLetter":"Q","topMostParentId":"490G00005845"},{"icsId":"1008257","id":"490008257S","lat":51.54297,"lon":-0.481515,"name":"Hinton Road","parentId":"490G00008257","stationId":"490G00008257","stopLetter":"V","topMostParentId":"490G00008257"},{"icsId":"1014592","id":"490014592S","lat":51.54059,"lon":-0.481767,"name":"Whitehall School","parentId":"490G00014592","stationId":"490G00014592","stopLetter":"U","topMostParentId":"490G00014592"},{"icsId":"1005688","id":"490005688S","lat":51.538318,"lon":-0.482031,"name":"Cowley Mill Road","parentId":"490G00005688","stationId":"490G00005688","stopLetter":"BU","topMostParentId":"490G00005688"},{"icsId":"1006802","id":"490006802S","lat":51.533404,"lon":-0.482367,"name":"Ferndale Crescent","parentId":"490G00006802","stationId":"490G00006802","stopLetter":"BV","topMostParentId":"490G00006802"},{"icsId":"1012611","id":"490012611E","lat":51.530314,"lon":-0.48123,"name":"Station Road","parentId":"490G00012611","stationId":"490G00012611","stopLetter":"BR","topMostParentId":"490G00012611"},{"icsId":"1005397","id":"490005397E","lat":51.530458,"lon":-0.477736,"name":"Cleveland Road","parentId":"490G00005397","stationId":"490G00005397","stopLetter":"BP","topMostParentId":"490G00005397"},{"icsId":"1005286","id":"490005286S1","lat":51.529372,"lon":-0.475134,"name":"Huxley Close","parentId":"490G00005286","stationId":"490G00005286","stopLetter":"X","topMostParentId":"490G00005286"},{"icsId":"1012757","id":"490012757S","lat":51.528013,"lon":-0.474329,"name":"St Laurence Church","parentId":"490G00012757","stationId":"490G00012757","stopLetter":"->S","topMostParentId":"490G00012757"},{"icsId":"1010994","id":"490010994E","lat":51.527204,"lon":-0.47094,"name":"Pield Heath","parentId":"490G00010994","stationId":"490G00010994","stopLetter":"->E","topMostParentId":"490G00010994"},{"icsId":"1015584","id":"490010995E","lat":51.527416,"lon":-0.46717,"name":"Peel Way","parentId":"490G00015584","stationId":"490G00015584","stopLetter":"HE","topMostParentId":"490G00015584"},{"icsId":"1008225","id":"490008225E","lat":51.527105,"lon":-0.462019,"name":"Hillingdon Hospital","parentId":"490G00008225","stationId":"490G00008225","stopLetter":"HB","topMostParentId":"490G00008225"},{"icsId":"1005477","id":"490005477E","lat":51.526128,"lon":-0.459472,"name":"Colham Road","parentId":"490G00005477","stationId":"490G00005477","stopLetter":"A","topMostParentId":"490G00005477"},{"icsId":"1005478","id":"490005478S","lat":51.52306,"lon":-0.456606,"name":"Violet Avenue","parentId":"490G00005478","stationId":"490G00005478","stopLetter":"H","topMostParentId":"490G00005478"},{"icsId":"1003823","id":"490003823S","lat":51.520879,"lon":-0.455527,"name":"Moorcroft Lane","parentId":"490G00003823","stationId":"490G00003823","stopLetter":"J","topMostParentId":"490G00003823"},{"icsId":"1010843","id":"490010843S","lat":51.518958,"lon":-0.456529,"name":"Park View Road","parentId":"490G00010843","stationId":"490G00010843","stopLetter":"K","topMostParentId":"490G00010843"},{"icsId":"1003348","id":"490003348W","lat":51.517437,"lon":-0.463282,"name":"Apple Tree Avenue","parentId":"490G00003348","stationId":"490G00003348","stopLetter":"L","topMostParentId":"490G00003348"},{"icsId":"1010663","id":"490010663W","lat":51.517105,"lon":-0.470889,"name":"Otterfield Road","parentId":"490G00010663","stationId":"490G00010663","stopLetter":"A","topMostParentId":"490G00010663"},{"icsId":"1015006","id":"490006729S","lat":51.515088,"lon":-0.474112,"name":"Yiewsley Library","parentId":"490G00015006","stationId":"490G00015006","stopLetter":"W","topMostParentId":"490G00015006"},{"icsId":"1015005","id":"490015005B","lat":51.512423,"lon":-0.472486,"name":"Yiewsley High Street","parentId":"490G00015005","stationId":"490G00015005","stopLetter":"B","topMostParentId":"490G00015005"},{"icsId":"1001325","id":"490001325F","lat":51.510204,"lon":-0.47331,"name":"West Drayton Station","parentId":"490G01325Z1","stationId":"490G01325Z1","stopLetter":"F","topMostParentId":"910GWDRYTON"},{"icsId":"1006815","id":"490006815H","lat":51.508387,"lon":-0.47327,"name":"Ferrers Avenue","parentId":"490G00006815","stationId":"490G00006815","stopLetter":"H","topMostParentId":"490G00006815"},{"icsId":"1004259","id":"490004259J","lat":51.507329,"lon":-0.471475,"name":"Brandville Road","parentId":"490G00004259","stationId":"490G00004259","stopLetter":"J","topMostParentId":"490G00004259"},{"icsId":"1005291","id":"490005291S","lat":51.504779,"lon":-0.468319,"name":"Church Road","parentId":"490G00005291","stationId":"490G00005291","topMostParentId":"490G00005291"},{"icsId":"1008811","id":"490008811E","lat":51.504441,"lon":-0.465102,"name":"Kings Road","parentId":"490G00008811","stationId":"490G00008811","topMostParentId":"490G00008811"},{"icsId":"1010401","id":"490010401E","lat":51.504446,"lon":-0.460059,"name":"North Road","parentId":"490G00010401","stationId":"490G00010401","stopLetter":"->E","topMostParentId":"490G00010401"},{"icsId":"1010114","id":"490010114S","lat":51.504621,"lon":-0.457575,"name":"Mulberry Parade","parentId":"490G00010114","stationId":"490G00010114","stopLetter":"->S","topMostParentId":"490G00010114"},{"icsId":"1012829","id":"490012829E","lat":51.505367,"lon":-0.452132,"name":"Lavender Rise / Stockley Road","parentId":"490G00012829","stationId":"490G00012829","stopLetter":"->E","topMostParentId":"490G00012829"},{"icsId":"1008499","id":"490008499E","lat":51.511673,"lon":-0.45163,"name":"Iron Bridge Road","parentId":"490G00008499","stationId":"490G00008499","stopLetter":"A","topMostParentId":"490G00008499"},{"icsId":"1012827","id":"490012827E","lat":51.511716,"lon":-0.446066,"name":"Bennetsfield Road","parentId":"490G00012827","stationId":"490G00012827","stopLetter":"B","topMostParentId":"490G00012827"},{"icsId":"1011730","id":"490011730S","lat":51.509415,"lon":-0.444098,"name":"Roundwood Avenue","parentId":"490G00011730","stationId":"490G00011730","stopLetter":"C","topMostParentId":"490G00011730"},{"icsId":"1012825","id":"490012825E","lat":51.509402,"lon":-0.441749,"name":"Furzeground Way","parentId":"490G00012825","stationId":"490G00012825","stopLetter":"D","topMostParentId":"490G00012825"},{"icsId":"1013560","id":"490013560E1","lat":51.509685,"lon":-0.437359,"name":"The Square","parentId":"490G00013560","stationId":"490G00013560","stopLetter":"E","topMostParentId":"490G00013560"},{"icsId":"1013095","id":"490013095S","lat":51.507758,"lon":-0.431704,"name":"Swallowfield Way","parentId":"490G00013095","stationId":"490G00013095","stopLetter":"->S","topMostParentId":"490G00013095"},{"icsId":"1010381","id":"490010381E","lat":51.502639,"lon":-0.42688,"name":"North Hyde Road","parentId":"490G00010381","stationId":"490G00010381","stopLetter":"Z","topMostParentId":"490G00010381"},{"icsId":"1006702","id":"490006702N","lat":51.5019,"lon":-0.423347,"name":"Fairey Corner","parentId":"490G00006702","stationId":"490G00006702","stopLetter":"K","topMostParentId":"490G00006702"},{"icsId":"1001144","id":"490001144N","lat":51.503431,"lon":-0.420917,"name":"Hayes and Harlington Station","parentId":"490G01144N","stationId":"490G01144N","stopLetter":"L","topMostParentId":"910GHAYESAH"},{"icsId":"1004127","id":"490004127R","lat":51.50388,"lon":-0.420844,"name":"Blyth Road","parentId":"490G000420","stationId":"490G000420","stopLetter":"Z4","topMostParentId":"490G000420"}]}]}