{"direction":"outbound","lineId":"x26","lineName":"X26","mode":"bus","stopPointSequences":[{"stopPoint":[{"icsId":"1014420","id":"490014420X","lat":51.378915,"lon":-0.101559,"name":"West Croydon Bus Station","parentId":"490G000824","stationId":"490G000824","stopLetter":"B3","topMostParentId":"HUBWCY"},{"icsId":"1019808","id":"490001089E8","lat":51.375028,"lon":-0.094234,"name":"Dingwall Road / East Croydon Station","parentId":"490G000951","stationId":"490G000951","stopLetter":"E8","topMostParentId":"490G000951"},{"icsId":"1014137","id":"490014137W","lat":51.367528,"lon":-0.152614,"name":"Croydon Road / Wallington Green","parentId":"490G00014137","stationId":"490G00014137","stopLetter":"GW","topMostParentId":"490G00014137"},{"icsId":"1004821","id":"490004821E","lat":51.365587,"lon":-0.159559,"name":"Carshalton High Street","parentId":"490G00004821","stationId":"490G00004821","stopLetter":"E","topMostParentId":"490G00004821"},{"icsId":"1013082","id":"490013082S","lat":51.359958,"lon":-0.19308,"name":"Sutton Post Office","parentId":"490G00013082","stationId":"490G00013082","stopLetter":"S","topMostParentId":"490G00013082"},{"icsId":"1005056","id":"490005056D","lat":51.358439,"lon":-0.216609,"name":"Cheam Broadway","parentId":"490G00005056","stationId":"490G00005056","stopLetter":"D","topMostParentId":"490G00005056"},{"icsId":"1010323","id":"490010323G","lat":51.370568,"lon":-0.227732,"name":"North Cheam / Queen Victoria","parentId":"490G00010323","stationId":"490G00010323","stopLetter":"G","topMostParentId":"490G00010323"},{"icsId":"1001346","id":"490001346C","lat":51.381482,"lon":-0.246682,"name":"Worcester Park Station","parentId":"490G01346A","stationId":"490G01346A","stopLetter":"C","topMostParentId":"910GWRCSTRP"},{"icsId":"1015206","id":"490015206L","lat":51.398583,"lon":-0.256723,"name":"New Malden / The Fountain","parentId":"490G000880","stationId":"490G000880","stopLetter":"L","topMostParentId":"490G000880"},{"icsId":"1001173","id":"490001173T","lat":51.411817,"lon":-0.300596,"name":"Kingston Station","parentId":"490G01173Q","stationId":"490G01173Q","stopLetter":"T","topMostParentId":"910GKGSTON"},{"icsId":"1003909","id":"490003909P1","lat":51.411491,"lon":-0.305411,"name":"Wood Street","parentId":"490G00003909","stationId":"490G00003909","stopLetter":"P1","topMostParentId":"490G00003909"},{"icsId":"1004377","id":"490004377F","lat":51.425952,"lon":-0.336867,"name":"Broad Street / Teddington","parentId":"490G00004377","stationId":"490G00004377","stopLetter":"F","topMostParentId":"490G00004377"},{"icsId":"1000103","id":"490000103F","lat":51.467345,"lon":-0.422854,"name":"Hatton Cross Station","parentId":"490G00103G","stationId":"490G00103G","stopLetter":"E","topMostParentId":"940GZZLUHNX","zone":"5+6"},{"icsId":"1008016","id":"490008016S","lat":51.471545,"lon":-0.452586,"name":"Heathrow Central Bus Station","parentId":"910GHTRWCBS","stationId":"910GHTRWCBS","topMostParentId":"HUBH13"}]}]}