{"direction":"inbound","lineId":"1","lineName":"1","mode":"bus","stopPointSequences":[{"stopPoint":[{"icsId":"1004733","id":"490004733C","lat":51.497776,"lon":-0.049844,"name":"Canada Water Bus Station","parentId":"490G000438","stationId":"490G000438","stopLetter":"C","topMostParentId":"HUBZCW"},{"icsId":"1011723","id":"490011723E","lat":51.495008,"lon":-0.050452,"name":"Rotherhithe Police Station","parentId":"490G00011723","stationId":"490G00011723","stopLetter":"E","topMostParentId":"490G00011723"},{"icsId":"1013042","id":"490013042J","lat":51.494021,"lon":-0.046259,"name":"Surrey Quays Shopping Centre","parentId":"490G000775","stationId":"490G000775","stopLetter":"J","topMostParentId":"490G000775"},{"icsId":"1000229","id":"490000229L","lat":51.493423,"lon":-0.046011,"name":"Surrey Quays Station","parentId":"490G00229S","stationId":"490G00229S","stopLetter":"L","topMostParentId":"910GSURREYQ"},{"icsId":"1011722","id":"490011722Q","lat":51.491064,"lon":-0.049079,"name":"Warndon Street","parentId":"490G00011722","stationId":"490G00011722","stopLetter":"Q","topMostParentId":"490G00011722"},{"icsId":"1005603","id":"490005603W","lat":51.490643,"lon":-0.054038,"name":"Corbetts Lane","parentId":"490G00005603","stationId":"490G00005603","stopLetter":"RE","topMostParentId":"490G00005603"},{"icsId":"1011719","id":"490011719A","lat":51.488926,"lon":-0.057309,"name":"Rotherhithe New Rd / Sth Bermondsey Stn","parentId":"490G000728","stationId":"490G000728","stopLetter":"RF","topMostParentId":"490G000728"},{"icsId":"1009482","id":"490009482N","lat":51.490198,"lon":-0.059776,"name":"Lynton Road","parentId":"490G00009482","stationId":"490G00009482","stopLetter":"GP","topMostParentId":"490G00009482"},{"icsId":"1003311","id":"490003311N","lat":51.491579,"lon":-0.060625,"name":"Anchor Street","parentId":"490G00003311","stationId":"490G00003311","stopLetter":"GQ","topMostParentId":"490G00003311"},{"icsId":"1012353","id":"490012353W","lat":51.492252,"lon":-0.064874,"name":"Southwark Park Road / St James's Road","parentId":"490G00012353","stationId":"490G00012353","stopLetter":"PG","topMostParentId":"490G00012353"},{"icsId":"1011538","id":"490011538W","lat":51.492688,"lon":-0.069523,"name":"Reverdy Road","parentId":"490G00011538","stationId":"490G00011538","stopLetter":"PH","topMostParentId":"490G00011538"},{"icsId":"1003275","id":"490003275W","lat":51.493624,"lon":-0.07444,"name":"Alscot Road","parentId":"490G00003275","stationId":"490G00003275","stopLetter":"U","topMostParentId":"490G00003275"},{"icsId":"1012367","id":"490012367W","lat":51.495376,"lon":-0.077665,"name":"Spa Road","parentId":"490G00012367","stationId":"490G00012367","stopLetter":"V","topMostParentId":"490G00012367"},{"icsId":"1007362","id":"490007362S","lat":51.496405,"lon":-0.082275,"name":"Grange Road / Caledonian Market","parentId":"490G00007362","stationId":"490G00007362","stopLetter":"J","topMostParentId":"490G00007362"},{"icsId":"1019012","id":"490015272BJ","lat":51.495155,"lon":-0.083955,"name":"Bricklayer's Arms / Tower Bridge Road","parentId":"490G00019012","stationId":"490G00019012","stopLetter":"BJ","topMostParentId":"490G00019012"},{"icsId":"1003658","id":"490003658BS","lat":51.494035,"lon":-0.09024,"name":"Bricklayer's Arms / New Kent Road","parentId":"490G00003658","stationId":"490G00003658","stopLetter":"BS","topMostParentId":"490G00003658"},{"icsId":"1011632","id":"490011632BT","lat":51.49417,"lon":-0.094672,"name":"Rodney Place","parentId":"490G00011632","stationId":"490G00011632","stopLetter":"BT","topMostParentId":"490G00011632"},{"icsId":"1009298","id":"490000073N","lat":51.495008,"lon":-0.099218,"name":"Elephant & Castle / New Kent Road","parentId":"490G000645","stationId":"490G000645","stopLetter":"N","topMostParentId":"HUBEPH"},{"icsId":"1009281","id":"490009281A","lat":51.496136,"lon":-0.101706,"name":"Elephant & Castle / London Road","parentId":"490G000642","stationId":"490G000642","stopLetter":"A","topMostParentId":"490G000642"},{"icsId":"1012693","id":"490012693N1","lat":51.49967,"lon":-0.107236,"name":"St George's Circus","parentId":"490G00012693","stationId":"490G00012693","stopLetter":"P","topMostParentId":"490G00012693"},{"icsId":"1013485","id":"490013485N","lat":51.501291,"lon":-0.109085,"name":"The Old Vic","parentId":"490G00013485","stationId":"490G00013485","stopLetter":"Q","topMostParentId":"490G00013485"},{"icsId":"1003713","id":"490000254K","lat":51.504361,"lon":-0.113742,"name":"Waterloo Station / Tenison Way","parentId":"490G000402","stationId":"490G000402","stopLetter":"K","topMostParentId":"HUBWAT"},{"icsId":"1014271","id":"490014270P","lat":51.506261,"lon":-0.115004,"name":"Waterloo Bridge / South Bank","parentId":"490G000819","stationId":"490G000819","stopLetter":"P","topMostParentId":"HUBWAT"},{"icsId":"1008932","id":"490008932T","lat":51.510523,"lon":-0.118935,"name":"Lancaster Place","parentId":"490G00008932","stationId":"490G00008932","stopLetter":"T","topMostParentId":"490G00008932"},{"icsId":"1003195","id":"490003191F","lat":51.513142,"lon":-0.117948,"name":"Aldwych / Kingsway","parentId":"490G00003195","stationId":"490G00003195","stopLetter":"F","topMostParentId":"490G00003195"},{"icsId":"1000112","id":"490000112P","lat":51.516928,"lon":-0.120213,"name":"Holborn Station","parentId":"490G00112L","stationId":"490G00112L","stopLetter":"P","topMostParentId":"940GZZLUHBN","zone":"1"},{"icsId":"1006203","id":"490006203RA","lat":51.516366,"lon":-0.12384,"name":"Drury Lane","parentId":"490G00006203","stationId":"490G00006203","stopLetter":"S","topMostParentId":"490G00006203"},{"icsId":"1000235","id":"490000235N","lat":51.516022,"lon":-0.12874,"name":"Tottenham Court Road","parentId":"490G00235Z","stationId":"490G00235Z","stopLetter":"T","topMostParentId":"940GZZLUTCR","zone":"1"}]}]}