{"direction":"inbound","lineId":"109","lineName":"109","mode":"bus","stopPointSequences":[{"stopPoint":[{"icsId":"1007523","id":"490007523G","lat":51.465396,"lon":-0.113723,"name":"Brixton Road / Brixton Police Station","parentId":"490G000549","stationId":"490G000549","stopLetter":"G","topMostParentId":"490G000549"},{"icsId":"1000031","id":"490000031P","lat":51.461796,"lon":-0.115253,"name":"Brixton Station","parentId":"490G00031N","stationId":"490G00031N","stopLetter":"P","topMostParentId":"HUBBRX","zone":"2"},{"icsId":"1011793","id":"490011793S","lat":51.458793,"lon":-0.116931,"name":"Rush Common","parentId":"490G00011793","stationId":"490G00011793","stopLetter":"BA","topMostParentId":"490G00011793"},{"icsId":"1004362","id":"490004362S1","lat":51.456342,"lon":-0.118328,"name":"Brixton Water Lane","parentId":"490G00004362","stationId":"490G00004362","stopLetter":"BB","topMostParentId":"490G00004362"},{"icsId":"1004101","id":"490004101S","lat":51.454058,"lon":-0.120005,"name":"Blenheim Gardens","parentId":"490G00004101","stationId":"490G00004101","stopLetter":"BC","topMostParentId":"490G00004101"},{"icsId":"1008544","id":"490008544S","lat":51.452216,"lon":-0.121203,"name":"Jebb Avenue / Brixton Prison","parentId":"490G00008544","stationId":"490G00008544","stopLetter":"BD","topMostParentId":"490G00008544"},{"icsId":"1015218","id":"490015218S","lat":51.44882,"lon":-0.12366,"name":"New Park Road","parentId":"490G00015218","stationId":"490G00015218","stopLetter":"BE","topMostParentId":"490G00015218"},{"icsId":"1008310","id":"490008310S","lat":51.447781,"lon":-0.123947,"name":"Holmewood Road","parentId":"490G00008310","stationId":"490G00008310","stopLetter":"BF","topMostParentId":"490G00008310"},{"icsId":"1019763","id":"490005234S","lat":51.444291,"lon":-0.124421,"name":"Streatham Hill / Christchurch Road","parentId":"490G00019763","stationId":"490G00019763","stopLetter":"BH","topMostParentId":"490G00019763"},{"icsId":"1013186","id":"490013186S","lat":51.442024,"lon":-0.124384,"name":"Telford Avenue","parentId":"490G00013186","stationId":"490G00013186","stopLetter":"W","topMostParentId":"490G00013186"},{"icsId":"1019944","id":"490001281D","lat":51.439403,"lon":-0.12583,"name":"Streatham Hill Stn  / Streatham Hill","parentId":"490G000969","stationId":"490G000969","stopLetter":"D","topMostParentId":"490G000969"},{"icsId":"1009076","id":"490009076F","lat":51.437186,"lon":-0.127172,"name":"Leigham Court Road","parentId":"490G000632","stationId":"490G000632","stopLetter":"F","topMostParentId":"490G000632"},{"icsId":"1010078","id":"490010078J","lat":51.435927,"lon":-0.127742,"name":"Mount Ephraim Road","parentId":"490G00010078","stationId":"490G00010078","stopLetter":"J","topMostParentId":"490G00010078"},{"icsId":"1008765","id":"490008765L","lat":51.434447,"lon":-0.127961,"name":"Kingscourt Road","parentId":"490G00008765","stationId":"490G00008765","stopLetter":"L","topMostParentId":"490G00008765"},{"icsId":"1003758","id":"490003758N","lat":51.432347,"lon":-0.128823,"name":"Becmead Avenue","parentId":"490G00003758","stationId":"490G00003758","stopLetter":"N","topMostParentId":"490G00003758"},{"icsId":"1012761","id":"490012761U","lat":51.428566,"lon":-0.130805,"name":"St Leonard's Church","parentId":"490G00012761","stationId":"490G00012761","stopLetter":"SA","topMostParentId":"490G00012761"},{"icsId":"1001279","id":"490001279S2","lat":51.425299,"lon":-0.130636,"name":"Streatham Station","parentId":"490G01279S3","stationId":"490G01279S3","stopLetter":"SC","topMostParentId":"910GSTRETHM"},{"icsId":"1012929","id":"490012929S5","lat":51.424011,"lon":-0.129984,"name":"Streatham United Reformed Church","parentId":"490G00012929","stationId":"490G00012929","stopLetter":"SD","topMostParentId":"490G00012929"},{"icsId":"1012924","id":"490012924S","lat":51.42111,"lon":-0.128491,"name":"Streatham Common / Greyhound Lane","parentId":"490G00012924","stationId":"490G00012924","stopLetter":"CH","topMostParentId":"490G00012924"},{"icsId":"1003389","id":"490003389S","lat":51.417116,"lon":-0.126152,"name":"Arragon Gardens","parentId":"490G00003389","stationId":"490G00003389","stopLetter":"CJ","topMostParentId":"490G00003389"},{"icsId":"1008080","id":"490008080L","lat":51.414875,"lon":-0.123828,"name":"Hermitage Lane","parentId":"490G00008080","stationId":"490G00008080","stopLetter":"L","topMostParentId":"490G00008080"},{"icsId":"1001209","id":"490001209A","lat":51.413074,"lon":-0.124232,"name":"Norbury Station","parentId":"490G01209B","stationId":"490G01209B","stopLetter":"A","topMostParentId":"910GNORBURY"},{"icsId":"1009285","id":"490012715D","lat":51.409923,"lon":-0.122305,"name":"St Helen's Road","parentId":"490G00009285","stationId":"490G00009285","stopLetter":"D","topMostParentId":"490G00009285"},{"icsId":"1013884","id":"490013884F","lat":51.408223,"lon":-0.121742,"name":"Tylecroft Road","parentId":"490G00013884","stationId":"490G00013884","stopLetter":"F","topMostParentId":"490G00013884"},{"icsId":"1006414","id":"490006414S","lat":51.404584,"lon":-0.119677,"name":"Ederline Avenue","parentId":"490G00006414","stationId":"490G00006414","stopLetter":"U","topMostParentId":"490G00006414"},{"icsId":"1019843","id":"490007099S","lat":51.400407,"lon":-0.117692,"name":"London Road / Galpins Road","parentId":"490G00019843","stationId":"490G00019843","stopLetter":"F","topMostParentId":"490G00019843"},{"icsId":"1008030","id":"490008030S","lat":51.398534,"lon":-0.116431,"name":"Heathview Road","parentId":"490G00008030","stationId":"490G00008030","stopLetter":"U","topMostParentId":"490G00008030"},{"icsId":"1008939","id":"490008939S","lat":51.39719,"lon":-0.115624,"name":"Langdale Road","parentId":"490G00008939","stationId":"490G00008939","stopLetter":"V","topMostParentId":"490G00008939"},{"icsId":"1005501","id":"490005501T","lat":51.395387,"lon":-0.114764,"name":"Colliers Water Lane","parentId":"490G00005501","stationId":"490G00005501","stopLetter":"T","topMostParentId":"490G00005501"},{"icsId":"1013632","id":"490013632G","lat":51.39236,"lon":-0.113336,"name":"Thornton Heath Pond","parentId":"490G00013632","stationId":"490G00013632","stopLetter":"G","topMostParentId":"490G00013632"},{"icsId":"1006250","id":"490006250E","lat":51.391277,"lon":-0.112518,"name":"Dunheved Road North","parentId":"490G00006250","stationId":"490G00006250","stopLetter":"E","topMostParentId":"490G00006250"},{"icsId":"1009732","id":"490009732C","lat":51.388767,"lon":-0.111371,"name":"Croydon University Hospital","parentId":"490G00009732","stationId":"490G00009732","stopLetter":"C","topMostParentId":"490G00009732"},{"icsId":"1004368","id":"490004368S","lat":51.385451,"lon":-0.109797,"name":"Broad Green Avenue","parentId":"490G00004368","stationId":"490G00004368","stopLetter":"LA","topMostParentId":"490G00004368"},{"icsId":"1004367","id":"490004367S","lat":51.382698,"lon":-0.106964,"name":"Sumner Road","parentId":"490G00004367","stationId":"490G00004367","stopLetter":"LB","topMostParentId":"490G00004367"},{"icsId":"1005856","id":"490005856W4","lat":51.381272,"lon":-0.105543,"name":"Montague Road","parentId":"490G00005856","stationId":"490G00005856","stopLetter":"LC","topMostParentId":"490G00005856"},{"icsId":"1001324","id":"490001324W6","lat":51.378751,"lon":-0.103133,"name":"West Croydon Station","parentId":"490G01324W2","stationId":"490G01324W2","stopLetter":"WB","topMostParentId":"HUBWCY"},{"icsId":"1011116","id":"490011116W8","lat":51.3781,"lon":-0.101248,"name":"Poplar Walk","parentId":"490G000709","stationId":"490G000709","stopLetter":"WE","topMostParentId":"490G000709"},{"icsId":"1014614","id":"490014614E10","lat":51.376832,"lon":-0.098441,"name":"Whitgift Centre","parentId":"490G00014614","stationId":"490G00014614","stopLetter":"WK","topMostParentId":"490G00014614"},{"icsId":"1010839","id":"490010839C3","lat":51.373487,"lon":-0.097933,"name":"Park Street","parentId":"490G00010839","stationId":"490G00010839","stopLetter":"KH","topMostParentId":"490G00010839"}]}]}