{"direction":"inbound","lineId":"11","lineName":"11","mode":"bus","stopPointSequences":[{"stopPoint":[{"icsId":"1003172","id":"490003172A","lat":51.516688,"lon":-0.084781,"name":"All Hallows Church","parentId":"490G00003172","stationId":"490G00003172","stopLetter":"U","topMostParentId":"490G00003172"},{"icsId":"1010177","id":"490010177S","lat":51.515332,"lon":-0.084319,"name":"Great Winchester Street","parentId":"490G00010177","stationId":"490G00010177","stopLetter":"R","topMostParentId":"490G00010177"},{"icsId":"1009037","id":"490012823W","lat":51.514475,"lon":-0.085854,"name":"Threadneedle Street","parentId":"490G00009037","stationId":"490G00009037","stopLetter":"LJ","topMostParentId":"490G00009037"},{"icsId":"1013195","id":"490013195H","lat":51.512924,"lon":-0.091108,"name":"Bank Station  / Queen Victoria Street","parentId":"490G000780","stationId":"490G000780","stopLetter":"H","topMostParentId":"HUBBAN"},{"icsId":"1010200","id":"490010200C","lat":51.512912,"lon":-0.096959,"name":"St Paul's Churchyard","parentId":"490G00010200","stationId":"490G00010200","stopLetter":"SH","topMostParentId":"490G00010200"},{"icsId":"1012873","id":"490012873B","lat":51.513387,"lon":-0.099635,"name":"St Paul's Cathedral","parentId":"490G00012873","stationId":"490G00012873","stopLetter":"SJ","topMostParentId":"490G00012873"},{"icsId":"1019767","id":"490009443F","lat":51.514124,"lon":-0.103524,"name":"City Thameslink Stn  / Ludgate Circus","parentId":"490G00019767","stationId":"490G00019767","stopLetter":"F","topMostParentId":"490G00019767"},{"icsId":"1012105","id":"490012105HB","lat":51.514084,"lon":-0.106639,"name":"Shoe Lane","parentId":"490G00012105","stationId":"490G00012105","stopLetter":"H","topMostParentId":"490G00012105"},{"icsId":"1006826","id":"490006826W","lat":51.51414,"lon":-0.108395,"name":"Fetter Lane","parentId":"490G00006826","stationId":"490G00006826","stopLetter":"->W","topMostParentId":"490G00006826"},{"icsId":"1015067","id":"490015067W","lat":51.513876,"lon":-0.110438,"name":"Chancery Lane","parentId":"490G00015067","stationId":"490G00015067","stopLetter":"->W","topMostParentId":"490G00015067"},{"icsId":"1011757","id":"490011757P","lat":51.512963,"lon":-0.113531,"name":"The Royal Courts Of Justice","parentId":"490G000731","stationId":"490G000731","stopLetter":"P","topMostParentId":"490G000731"},{"icsId":"1003193","id":"490003193R","lat":51.5121,"lon":-0.116291,"name":"Aldwych / Somerset House","parentId":"490G000386","stationId":"490G000386","stopLetter":"R","topMostParentId":"490G000386"},{"icsId":"1011938","id":"490011938U","lat":51.510773,"lon":-0.120481,"name":"Savoy Street","parentId":"490G000737","stationId":"490G000737","stopLetter":"U","topMostParentId":"490G000737"},{"icsId":"1003112","id":"490003112J","lat":51.509674,"lon":-0.123193,"name":"Bedford Street","parentId":"490G00003112","stationId":"490G00003112","stopLetter":"J","topMostParentId":"490G00003112"},{"icsId":"1013766","id":"490013766K","lat":51.508007,"lon":-0.126345,"name":"Trafalgar Square / Charing Cross Stn","parentId":"490G000803","stationId":"490G000803","stopLetter":"K","topMostParentId":"HUBCHX"},{"icsId":"1014585","id":"490014585N","lat":51.506273,"lon":-0.126992,"name":"Whitehall / Trafalgar Square","parentId":"490G000832","stationId":"490G000832","stopLetter":"N","topMostParentId":"490G000832"},{"icsId":"1008376","id":"490008376S","lat":51.504325,"lon":-0.126092,"name":"Horse Guards Parade","parentId":"490G00008376","stationId":"490G00008376","stopLetter":"->S","topMostParentId":"490G00008376"},{"icsId":"1015048","id":"490015048T","lat":51.50248,"lon":-0.125995,"name":"Westminster Stn  / Parliament Square","parentId":"490G000852","stationId":"490G000852","topMostParentId":"HUBWSM"},{"icsId":"1019865","id":"490014495V","lat":51.498691,"lon":-0.131438,"name":"Great Smith Street / Westminster Abbey","parentId":"490G00019865","stationId":"490G00019865","stopLetter":"V","topMostParentId":"490G00019865"},{"icsId":"1000221","id":"490010260SD","lat":51.497585,"lon":-0.134797,"name":"St James's Park Station","parentId":"490G00221V","stationId":"490G00221V","stopLetter":"SD","topMostParentId":"940GZZLUSJP","zone":"1"},{"icsId":"1003384","id":"490003384SB","lat":51.49715,"lon":-0.137451,"name":"Westminster City Hall","parentId":"490G000394","stationId":"490G000394","stopLetter":"SB","topMostParentId":"490G000394"},{"icsId":"1014502","id":"490014496M","lat":51.496626,"lon":-0.141276,"name":"Westminster Cathedral / Victoria Stn","parentId":"490G000830","stationId":"490G000830","stopLetter":"M","topMostParentId":"490G000830"},{"icsId":"1000248","id":"490000248G","lat":51.496535,"lon":-0.143484,"name":"Victoria Station","parentId":"490G00248G","stationId":"490G00248G","stopLetter":"G","topMostParentId":"HUBVIC","zone":"1"},{"icsId":"1014051","id":"490014051V","lat":51.492085,"lon":-0.148116,"name":"Victoria Coach Station","parentId":"490G000813","stationId":"490G000813","stopLetter":"V","topMostParentId":"490G000813"},{"icsId":"1020327","id":"490006399W","lat":51.490738,"lon":-0.151628,"name":"Pimlico Road / Ebury Bridge Road","parentId":"490G00020327","stationId":"490G00020327","stopLetter":"Q","topMostParentId":"490G00020327"},{"icsId":"1011764","id":"490011763N","lat":51.489951,"lon":-0.156471,"name":"Royal Hospital Road","parentId":"490G00011764","stationId":"490G00011764","stopLetter":"L","topMostParentId":"490G00011764"},{"icsId":"1000206","id":"490000206K","lat":51.491451,"lon":-0.157491,"name":"Sloane Square Station","parentId":"490G00206H","stationId":"490G00206H","stopLetter":"K","topMostParentId":"940GZZLUSSQ","zone":"1"},{"icsId":"1006224","id":"490006224G","lat":51.491129,"lon":-0.1605,"name":"Duke Of York Square","parentId":"490G00006224","stationId":"490G00006224","stopLetter":"G","topMostParentId":"490G00006224"},{"icsId":"1014150","id":"490014150KA","lat":51.490204,"lon":-0.162266,"name":"Walpole Street","parentId":"490G00014150","stationId":"490G00014150","stopLetter":"KA","topMostParentId":"490G00014150"},{"icsId":"1009666","id":"490009666KB","lat":51.489002,"lon":-0.164763,"name":"Markham Street","parentId":"490G00009666","stationId":"490G00009666","stopLetter":"KB","topMostParentId":"490G00009666"},{"icsId":"1005073","id":"490005073KC","lat":51.488312,"lon":-0.166634,"name":"Chelsea Old Town Hall","parentId":"490G00005073","stationId":"490G00005073","stopLetter":"KC","topMostParentId":"490G00005073"},{"icsId":"1004809","id":"490004809KD","lat":51.486434,"lon":-0.171319,"name":"Carlyle Square","parentId":"490G00004809","stationId":"490G00004809","stopLetter":"KD","topMostParentId":"490G00004809"},{"icsId":"1003682","id":"490015145W","lat":51.48473,"lon":-0.175103,"name":"Beaufort Street","parentId":"490G00003682","stationId":"490G00003682","stopLetter":"QN","topMostParentId":"490G00003682"},{"icsId":"1005076","id":"490005076W","lat":51.482268,"lon":-0.179248,"name":"Edith Grove / Worlds End","parentId":"490G00005076","stationId":"490G00005076","stopLetter":"QR","topMostParentId":"490G00005076"},{"icsId":"1009370","id":"490009370W","lat":51.480574,"lon":-0.184831,"name":"Worlds End Health Centre","parentId":"490G00009370","stationId":"490G00009370","stopLetter":"GH","topMostParentId":"490G00009370"},{"icsId":"1011788","id":"490011788W","lat":51.478528,"lon":-0.188642,"name":"Rumbold Road","parentId":"490G00011788","stationId":"490G00011788","stopLetter":"GJ","topMostParentId":"490G00011788"},{"icsId":"1013888","id":"490013888N","lat":51.47747,"lon":-0.192313,"name":"Tyrawley Road","parentId":"490G00013888","stationId":"490G00013888","stopLetter":"GK","topMostParentId":"490G00013888"},{"icsId":"1007057","id":"490007057T","lat":51.478974,"lon":-0.194774,"name":"Fulham Town Hall","parentId":"490G000526","stationId":"490G000526","stopLetter":"T","topMostParentId":"490G000526"}]}]}