{"direction":"inbound","lineId":"114","lineName":"114","mode":"bus","stopPointSequences":[{"stopPoint":[{"icsId":"1000197","id":"490000197A","lat":51.572023,"lon":-0.421499,"name":"Ruislip Station","parentId":"490G00197Z2","stationId":"490G00197Z2","stopLetter":"A","topMostParentId":"940GZZLURSP","zone":"6"},{"icsId":"1000199","id":"490000199A","lat":51.572846,"lon":-0.412553,"name":"Ruislip Manor Station","parentId":"490G00199S","stationId":"490G00199S","stopLetter":"A","topMostParentId":"940GZZLURSM","zone":"6"},{"icsId":"1005616","id":"490005616S","lat":51.570084,"lon":-0.410427,"name":"Cornwall Road","parentId":"490G00005616","stationId":"490G00005616","stopLetter":"K","topMostParentId":"490G00005616"},{"icsId":"1013721","id":"490013721S","lat":51.567143,"lon":-0.407716,"name":"Torrington Road","parentId":"490G00013721","stationId":"490G00013721","stopLetter":"L","topMostParentId":"490G00013721"},{"icsId":"1013268","id":"490013268S","lat":51.562827,"lon":-0.403163,"name":"Torcross Road","parentId":"490G00013268","stationId":"490G00013268","stopLetter":"K","topMostParentId":"490G00013268"},{"icsId":"1000457","id":"490014491S","lat":51.559599,"lon":-0.398516,"name":"Angus Drive","parentId":"490G000103","stationId":"490G000103","stopLetter":"H","topMostParentId":"490G000103"},{"icsId":"1000214","id":"490000214B","lat":51.557299,"lon":-0.395365,"name":"South Ruislip Station","parentId":"490G00241F","stationId":"490G00241F","stopLetter":"B","topMostParentId":"HUBSRU","zone":"5"},{"icsId":"1011363","id":"490011363E","lat":51.557162,"lon":-0.388648,"name":"Queens Walk","parentId":"490G00011363","stationId":"490G00011363","stopLetter":"J","topMostParentId":"490G00011363"},{"icsId":"1012852","id":"490012852E","lat":51.558445,"lon":-0.384506,"name":"Stonefield Way","parentId":"490G00012852","stationId":"490G00012852","stopLetter":"K","topMostParentId":"490G00012852"},{"icsId":"1006327","id":"490006327E","lat":51.560092,"lon":-0.378792,"name":"Holyrood Avenue","parentId":"490G00006327","stationId":"490G00006327","stopLetter":"L","topMostParentId":"490G00006327"},{"icsId":"1008812","id":"490008812E","lat":51.562256,"lon":-0.371429,"name":"Kings Road","parentId":"490G00008812","stationId":"490G00008812","stopLetter":"D","topMostParentId":"490G00008812"},{"icsId":"1013683","id":"490013683E","lat":51.563943,"lon":-0.365959,"name":"Alexandra Avenue","parentId":"490G00013683","stationId":"490G00013683","stopLetter":"E","topMostParentId":"490G00013683"},{"icsId":"1005604","id":"490005604E","lat":51.565095,"lon":-0.360853,"name":"Corbins Lane","parentId":"490G00005604","stationId":"490G00005604","stopLetter":"F","topMostParentId":"490G00005604"},{"icsId":"1000211","id":"490000211F","lat":51.564558,"lon":-0.353976,"name":"South Harrow Station","parentId":"490G00211G","stationId":"490G00211G","stopLetter":"F","topMostParentId":"940GZZLUSHH","zone":"5"},{"icsId":"1012026","id":"490012026N","lat":51.568503,"lon":-0.348062,"name":"Grange Road","parentId":"490G00012026","stationId":"490G00012026","stopLetter":"RD","topMostParentId":"490G00012026"},{"icsId":"1006218","id":"490006218W","lat":51.570397,"lon":-0.351009,"name":"Dudley Road","parentId":"490G00006218","stationId":"490G00006218","stopLetter":"WP","topMostParentId":"490G00006218"},{"icsId":"1011122","id":"490011122N","lat":51.572693,"lon":-0.353134,"name":"Shaftesbury Avenue","parentId":"490G00011122","stationId":"490G00011122","stopLetter":"WR","topMostParentId":"490G00011122"},{"icsId":"1013792","id":"490013792E","lat":51.575717,"lon":-0.348825,"name":"Treve Avenue","parentId":"490G000805","stationId":"490G000805","stopLetter":"WS","topMostParentId":"490G000805"},{"icsId":"1008984","id":"490008984E","lat":51.577308,"lon":-0.343716,"name":"Lascelles Avenue","parentId":"490G00008984","stationId":"490G00008984","stopLetter":"WT","topMostParentId":"490G00008984"},{"icsId":"1012690","id":"490012690X1","lat":51.581025,"lon":-0.339468,"name":"St Georges Centre","parentId":"490G00012690","stationId":"490G00012690","stopLetter":"X1","topMostParentId":"490G00012690"},{"icsId":"1007845","id":"490007845E","lat":51.579995,"lon":-0.337874,"name":"Harrow Bus Station","parentId":"490G000574","stationId":"490G000574","stopLetter":"E","topMostParentId":"490G000574"},{"icsId":"1015347","id":"490007868T","lat":51.580795,"lon":-0.334035,"name":"Harrow Town Centre","parentId":"490G00015347","stationId":"490G00015347","stopLetter":"T","topMostParentId":"490G00015347"},{"icsId":"1019614","id":"490007868R","lat":51.581744,"lon":-0.333134,"name":"Harrow Town Centre / Sheepcote Road","parentId":"490G00019614","stationId":"490G00019614","stopLetter":"R","topMostParentId":"490G00019614"},{"icsId":"1016719","id":"490016719S","lat":51.581739,"lon":-0.330247,"name":"Sheepcote Road","parentId":"490G00016719","stationId":"490G00016719","stopLetter":"S","topMostParentId":"490G00016719"},{"icsId":"1007149","id":"490007149DD","lat":51.579372,"lon":-0.326957,"name":"Harrow High School","parentId":"490G00007149","stationId":"490G00007149","stopLetter":"DD","topMostParentId":"490G00007149"},{"icsId":"1010424","id":"490010424GG","lat":51.57986,"lon":-0.322075,"name":"Northwick Avenue","parentId":"490G00010424","stationId":"490G00010424","stopLetter":"GG","topMostParentId":"490G00010424"},{"icsId":"1000124","id":"490000124HH","lat":51.581364,"lon":-0.31844,"name":"Kenton Station","parentId":"490G00124II","stationId":"490G00124II","stopLetter":"HH","topMostParentId":"HUBKNT","zone":"4"},{"icsId":"1004793","id":"490004793KK","lat":51.582996,"lon":-0.315638,"name":"Carlton Avenue","parentId":"490G00004793","stationId":"490G00004793","stopLetter":"KK","topMostParentId":"490G00004793"},{"icsId":"1010517","id":"490010517E","lat":51.58415,"lon":-0.313358,"name":"Odeon Parade / Upton Gardens","parentId":"490G00010517","stationId":"490G00010517","stopLetter":"J","topMostParentId":"490G00010517"},{"icsId":"1012760","id":"490012760E","lat":51.585539,"lon":-0.309871,"name":"St Leonard's Avenue","parentId":"490G00012760","stationId":"490G00012760","stopLetter":"K","topMostParentId":"490G00012760"},{"icsId":"1008670","id":"490008670N","lat":51.587183,"lon":-0.307284,"name":"Kenton Road","parentId":"490G00008670","stationId":"490G00008670","stopLetter":"A","topMostParentId":"490G00008670"},{"icsId":"1008424","id":"490008424N","lat":51.590739,"lon":-0.309418,"name":"Hunters Grove","parentId":"490G00008424","stationId":"490G00008424","stopLetter":"B","topMostParentId":"490G00008424"},{"icsId":"1005230","id":"490008669E","lat":51.593127,"lon":-0.310412,"name":"Kenton Library","parentId":"490G00005230","stationId":"490G00005230","stopLetter":"P","topMostParentId":"490G00005230"},{"icsId":"1010037","id":"490010037E","lat":51.594676,"lon":-0.304291,"name":"Morley Crescent West","parentId":"490G00010037","stationId":"490G00010037","stopLetter":"R","topMostParentId":"490G00010037"},{"icsId":"1011125","id":"490011125W","lat":51.59557,"lon":-0.298367,"name":"Portland Crescent","parentId":"490G00011125","stationId":"490G00011125","stopLetter":"X","topMostParentId":"490G00011125"},{"icsId":"1011326","id":"490011326S","lat":51.594972,"lon":-0.293134,"name":"Queensbury Circle","parentId":"490G00011326","stationId":"490G00011326","stopLetter":"C","topMostParentId":"490G00011326"},{"icsId":"1013423","id":"490013423E","lat":51.593409,"lon":-0.290146,"name":"The Honeypot","parentId":"490G00013423","stationId":"490G00013423","stopLetter":"CC","topMostParentId":"490G00013423"},{"icsId":"1000185","id":"490000185AA","lat":51.594456,"lon":-0.285444,"name":"Queensbury Station","parentId":"490G00185BB","stationId":"490G00185BB","stopLetter":"AA","topMostParentId":"940GZZLUQBY","zone":"4"},{"icsId":"1013845","id":"490013845E","lat":51.596664,"lon":-0.285794,"name":"Turner Road","parentId":"490G00013845","stationId":"490G00013845","stopLetter":"A","topMostParentId":"490G00013845"},{"icsId":"1006882","id":"490006882E","lat":51.597827,"lon":-0.279267,"name":"The Parade / Cotman Gardens","parentId":"490G00006882","stationId":"490G00006882","stopLetter":"->E","topMostParentId":"490G00006882"},{"icsId":"1013416","id":"490013416E","lat":51.598737,"lon":-0.273226,"name":"The Highlands","parentId":"490G00013416","stationId":"490G00013416","stopLetter":"Y","topMostParentId":"490G00013416"},{"icsId":"1013255","id":"490013255K","lat":51.601139,"lon":-0.266623,"name":"Watling Avenue","parentId":"490G00013255","stationId":"490G00013255","stopLetter":"K","topMostParentId":"490G00013255"},{"icsId":"1000034","id":"490000034N","lat":51.602576,"lon":-0.264041,"name":"Burnt Oak Station","parentId":"490G00034M","stationId":"490G00034M","stopLetter":"N","topMostParentId":"940GZZLUBTK","zone":"4"},{"icsId":"1006942","id":"490007607E","lat":51.60434,"lon":-0.25993,"name":"Gunter Grove","parentId":"490G00006942","stationId":"490G00006942","stopLetter":"U","topMostParentId":"490G00006942"},{"icsId":"1005753","id":"490005753E","lat":51.6057,"lon":-0.256398,"name":"Burnt Oak Leisure Centre","parentId":"490G00005753","stationId":"490G00005753","stopLetter":"QA","topMostParentId":"490G00005753"},{"icsId":"1007265","id":"490007265E2","lat":51.608097,"lon":-0.251945,"name":"Goldbeaters Grove","parentId":"490G00007265","stationId":"490G00007265","topMostParentId":"490G00007265"},{"icsId":"1009468","id":"490009468N","lat":51.610537,"lon":-0.247923,"name":"Woodcroft Avenue","parentId":"490G00009468","stationId":"490G00009468","stopLetter":"->N","topMostParentId":"490G00009468"},{"icsId":"1001193","id":"490001193B","lat":51.613297,"lon":-0.249073,"name":"Mill Hill Broadway Station","parentId":"490G01193A","stationId":"490G01193A","stopLetter":"B","topMostParentId":"910GMLHB"}]}]}