{"direction":"inbound","lineId":"115","lineName":"115","mode":"bus","stopPointSequences":[{"stopPoint":[{"icsId":"1003184","id":"490003184L","lat":51.513505,"lon":-0.07546,"name":"Aldgate Bus Station","parentId":"490G000384","stationId":"490G000384","stopLetter":"L","topMostParentId":"490G000384"},{"icsId":"1000004","id":"490000004Z","lat":51.515326,"lon":-0.070238,"name":"Aldgate East Station","parentId":"490G00004G","stationId":"490G00004G","stopLetter":"H","topMostParentId":"940GZZLUADE","zone":"1"},{"icsId":"1009276","id":"490009276E","lat":51.514951,"lon":-0.066608,"name":"London Metropolitan University","parentId":"490G00009276","stationId":"490G00009276","stopLetter":"P","topMostParentId":"490G00009276"},{"icsId":"1010255","id":"490010255E","lat":51.514841,"lon":-0.062678,"name":"New Road","parentId":"490G00010255","stationId":"490G00010255","stopLetter":"Q","topMostParentId":"490G00010255"},{"icsId":"1014308","id":"490014308F","lat":51.514471,"lon":-0.056049,"name":"Watney Market","parentId":"490G00014308","stationId":"490G00014308","stopLetter":"F","topMostParentId":"490G00014308"},{"icsId":"1012782","id":"490012782E","lat":51.514184,"lon":-0.052343,"name":"St Mary's & St Michael's Church","parentId":"490G00012782","stationId":"490G00012782","topMostParentId":"490G00012782"},{"icsId":"1003353","id":"490003353E","lat":51.513491,"lon":-0.047962,"name":"Arbour Square","parentId":"490G00003353","stationId":"490G00003353","topMostParentId":"490G00003353"},{"icsId":"1012669","id":"490012669E","lat":51.513283,"lon":-0.044671,"name":"Stepney Methodist Church","parentId":"490G00012669","stationId":"490G00012669","stopLetter":"LA","topMostParentId":"490G00012669"},{"icsId":"1001180","id":"490001180E","lat":51.512841,"lon":-0.040237,"name":"Limehouse Station","parentId":"490G01180W","stationId":"490G01180W","stopLetter":"LB","topMostParentId":"HUBLHS","zone":"2"},{"icsId":"1009403","id":"490009403E","lat":51.512595,"lon":-0.034713,"name":"Lowell Street","parentId":"490G00009403","stationId":"490G00009403","stopLetter":"LC","topMostParentId":"490G00009403"},{"icsId":"1011873","id":"490011873E","lat":51.512469,"lon":-0.032542,"name":"Salmon Lane","parentId":"490G00011873","stationId":"490G00011873","stopLetter":"LD","topMostParentId":"490G00011873"},{"icsId":"1009158","id":"490009158E","lat":51.512578,"lon":-0.029943,"name":"Burdett Road","parentId":"490G000639","stationId":"490G000639","stopLetter":"LE","topMostParentId":"490G000639"},{"icsId":"1013965","id":"490013965E","lat":51.511463,"lon":-0.02512,"name":"University Of Cumbria In London","parentId":"490G00013965","stationId":"490G00013965","stopLetter":"WS","topMostParentId":"490G00013965"},{"icsId":"1013936","id":"490013936E","lat":51.510906,"lon":-0.021412,"name":"Upper North Street","parentId":"490G00013936","stationId":"490G00013936","stopLetter":"C","topMostParentId":"490G00013936"},{"icsId":"1011114","id":"490011114BC","lat":51.511035,"lon":-0.017861,"name":"Poplar Recreation Grd / Poplar Stn","parentId":"490G00011114","stationId":"490G00011114","stopLetter":"D","topMostParentId":"490G00011114"},{"icsId":"1005222","id":"490015270B","lat":51.511201,"lon":-0.014899,"name":"Chrisp Street Market","parentId":"490G000454","stationId":"490G000454","stopLetter":"B","topMostParentId":"490G000454"},{"icsId":"1003701","id":"490003701C","lat":51.511308,"lon":-0.011681,"name":"Bazely Street","parentId":"490G000400","stationId":"490G000400","stopLetter":"C","topMostParentId":"490G000400"},{"icsId":"1007047","id":"490007047E","lat":51.511857,"lon":-0.005892,"name":"Brunswick Road","parentId":"490G00007047","stationId":"490G00007047","stopLetter":"E","topMostParentId":"490G00007047"},{"icsId":"1011851","id":"490004532F","lat":51.512307,"lon":-0.003783,"name":"Nutmeg Lane","parentId":"490G000734","stationId":"490G000734","stopLetter":"F","topMostParentId":"490G000734"},{"icsId":"1020304","id":"490003047E","lat":51.512809,"lon":-0.001037,"name":"Abbott Road","parentId":"490G00020304","stationId":"490G00020304","stopLetter":"->E","topMostParentId":"490G00020304"},{"icsId":"1015119","id":"490000039H","lat":51.515168,"lon":0.005639,"name":"Stephenson Street","parentId":"490G00015119","stationId":"490G00015119","stopLetter":"H","topMostParentId":"490G00015119"},{"icsId":"1000039","id":"490000039F","lat":51.514574,"lon":0.008293,"name":"Canning Town Bus Station","parentId":"490G00039A","stationId":"490G00039A","stopLetter":"F","topMostParentId":"HUBCAN","zone":"2/3"},{"icsId":"1011429","id":"490011429J","lat":51.516866,"lon":0.009922,"name":"Rathbone Market","parentId":"490G00011429","stationId":"490G00011429","stopLetter":"J","topMostParentId":"490G00011429"},{"icsId":"1003750","id":"490003750L","lat":51.517549,"lon":0.012013,"name":"Hermit Road","parentId":"490G00003750","stationId":"490G00003750","stopLetter":"L","topMostParentId":"490G00003750"},{"icsId":"1005902","id":"490005902E","lat":51.51956,"lon":0.016412,"name":"Rokeby School","parentId":"490G00005902","stationId":"490G00005902","stopLetter":"S","topMostParentId":"490G00005902"},{"icsId":"1008834","id":"490008834E","lat":51.520816,"lon":0.01922,"name":"King Street","parentId":"490G00008834","stationId":"490G00008834","stopLetter":"BH","topMostParentId":"490G00008834"},{"icsId":"1003551","id":"490003551E","lat":51.522162,"lon":0.021961,"name":"Balaam Street","parentId":"490G00003551","stationId":"490G00003551","stopLetter":"BJ","topMostParentId":"490G00003551"},{"icsId":"1011047","id":"490011047E","lat":51.523424,"lon":0.024915,"name":"Plaistow Police Station","parentId":"490G00011047","stationId":"490G00011047","stopLetter":"BK","topMostParentId":"490G00011047"},{"icsId":"1011040","id":"490011040E","lat":51.526431,"lon":0.029935,"name":"Plaistow / Prince Regent Lane","parentId":"490G00011040","stationId":"490G00011040","stopLetter":"BM","topMostParentId":"490G00011040"},{"icsId":"1010201","id":"490010201E","lat":51.527903,"lon":0.032207,"name":"New City Road","parentId":"490G00010201","stationId":"490G00010201","stopLetter":"BN","topMostParentId":"490G00010201"},{"icsId":"1016264","id":"490016264E","lat":51.52897,"lon":0.033926,"name":"Samson Street","parentId":"490G00016264","stationId":"490G00016264","stopLetter":"T","topMostParentId":"490G00016264"},{"icsId":"1003273","id":"490003273O","lat":51.530212,"lon":0.036433,"name":"Upton Park / Green Street","parentId":"490G00003273","stationId":"490G00003273","stopLetter":"O","topMostParentId":"490G00003273"},{"icsId":"1013959","id":"490013959E","lat":51.530628,"lon":0.039941,"name":"Upton Park / Priory Road","parentId":"490G00013959","stationId":"490G00013959","stopLetter":"Q","topMostParentId":"490G00013959"},{"icsId":"1003390","id":"490003390E","lat":51.531157,"lon":0.043122,"name":"Arragon Road","parentId":"490G00003390","stationId":"490G00003390","stopLetter":"W","topMostParentId":"490G00003390"},{"icsId":"1008601","id":"490008601E","lat":51.531705,"lon":0.046275,"name":"Katherine Road","parentId":"490G00008601","stationId":"490G00008601","topMostParentId":"490G00008601"},{"icsId":"1003659","id":"490003659P","lat":51.53251,"lon":0.051113,"name":"Bartle Avenue","parentId":"490G00003659","stationId":"490G00003659","stopLetter":"P","topMostParentId":"490G00003659"},{"icsId":"1006360","id":"490006360R","lat":51.532925,"lon":0.053092,"name":"High Street North","parentId":"490G00006360","stationId":"490G00006360","stopLetter":"R","topMostParentId":"490G00006360"},{"icsId":"1010218","id":"490010218V","lat":51.53188,"lon":0.055294,"name":"Newham Town Hall","parentId":"490G00010218","stationId":"490G00010218","stopLetter":"V","topMostParentId":"490G00010218"},{"icsId":"1009662","id":"490009662S","lat":51.530592,"lon":0.0559,"name":"Market Street","parentId":"490G00009662","stationId":"490G00009662","stopLetter":"N","topMostParentId":"490G00009662"},{"icsId":"1006358","id":"490006358S2","lat":51.528697,"lon":0.056275,"name":"East Ham / Central Park","parentId":"490G00006358","stationId":"490G00006358","stopLetter":"M","topMostParentId":"490G00006358"}]}]}