{"direction":"inbound","lineId":"116","lineName":"116","mode":"bus","stopPointSequences":[{"stopPoint":[{"icsId":"1015241","id":"490015241B","lat":51.470183,"lon":-0.355863,"name":"School Road","parentId":"490G000884","stationId":"490G000884","stopLetter":"C","topMostParentId":"490G000884"},{"icsId":"1008398","id":"490008398H","lat":51.469271,"lon":-0.3601,"name":"Fair Street","parentId":"490G00008398","stationId":"490G00008398","stopLetter":"H","topMostParentId":"490G00008398"},{"icsId":"1008397","id":"490008397J","lat":51.468768,"lon":-0.362047,"name":"Douglas Road","parentId":"490G00008397","stationId":"490G00008397","stopLetter":"HH","topMostParentId":"490G00008397"},{"icsId":"1013777","id":"490013777S","lat":51.466831,"lon":-0.364334,"name":"Treaty Centre","parentId":"490G00013777","stationId":"490G00013777","stopLetter":"S","topMostParentId":"490G00013777"},{"icsId":"1013259","id":"490015444W","lat":51.467187,"lon":-0.368597,"name":"The Bell","parentId":"490G00013259","stationId":"490G00013259","stopLetter":"W","topMostParentId":"490G00013259"},{"icsId":"1008125","id":"490008125W","lat":51.466365,"lon":-0.372873,"name":"Hibernia Road","parentId":"490G00008125","stationId":"490G00008125","stopLetter":"->W","topMostParentId":"490G00008125"},{"icsId":"1014362","id":"490014362W","lat":51.464859,"lon":-0.379722,"name":"Wellington Road South","parentId":"490G00014362","stationId":"490G00014362","stopLetter":"M","topMostParentId":"490G00014362"},{"icsId":"1009702","id":"490009702W","lat":51.464005,"lon":-0.38361,"name":"Staines Road / Martindale Road","parentId":"490G00009702","stationId":"490G00009702","stopLetter":"N","topMostParentId":"490G00009702"},{"icsId":"1008395","id":"490008395W","lat":51.462158,"lon":-0.389275,"name":"Barrack Road","parentId":"490G00008395","stationId":"490G00008395","stopLetter":"P","topMostParentId":"490G00008395"},{"icsId":"1008506","id":"490008506W","lat":51.461525,"lon":-0.392277,"name":"Islay Gardens","parentId":"490G00008506","stationId":"490G00008506","stopLetter":"Q","topMostParentId":"490G00008506"},{"icsId":"1007467","id":"490007467W","lat":51.460135,"lon":-0.396458,"name":"Green Lane","parentId":"490G00007467","stationId":"490G00007467","stopLetter":"R","topMostParentId":"490G00007467"},{"icsId":"1008401","id":"490008401W","lat":51.45836,"lon":-0.404825,"name":"Hounslow Road","parentId":"490G00008401","stationId":"490G00008401","stopLetter":"A","topMostParentId":"490G00008401"},{"icsId":"1007817","id":"490007817W","lat":51.457546,"lon":-0.409057,"name":"Faggs Road","parentId":"490G00007817","stationId":"490G00007817","stopLetter":"B","topMostParentId":"490G00007817"},{"icsId":"1012027","id":"490012027W","lat":51.456593,"lon":-0.414387,"name":"Shaftesbury Avenue","parentId":"490G00012027","stationId":"490G00012027","stopLetter":"C","topMostParentId":"490G00012027"},{"icsId":"1006595","id":"490006595W","lat":51.455846,"lon":-0.4184,"name":"Engleheart Drive","parentId":"490G00006595","stationId":"490G00006595","stopLetter":"D","topMostParentId":"490G00006595"},{"icsId":"1004836","id":"490004836W","lat":51.455056,"lon":-0.422443,"name":"Cassiobury Avenue","parentId":"490G00004836","stationId":"490G00004836","stopLetter":"H","topMostParentId":"490G00004836"},{"icsId":"1003788","id":"490003788W","lat":51.454249,"lon":-0.425997,"name":"Bedfont Lane","parentId":"490G00003788","stationId":"490G00003788","stopLetter":"J","topMostParentId":"490G00003788"},{"icsId":"1003791","id":"490003791W","lat":51.453627,"lon":-0.42858,"name":"Bethany Waye","parentId":"490G00003791","stationId":"490G00003791","stopLetter":"K","topMostParentId":"490G00003791"},{"icsId":"1010257","id":"490010257W","lat":51.452954,"lon":-0.431352,"name":"New Road","parentId":"490G00010257","stationId":"490G00010257","stopLetter":"L","topMostParentId":"490G00010257"},{"icsId":"1003790","id":"490003790W","lat":51.451884,"lon":-0.434713,"name":"Bedfont Library","parentId":"490G00003790","stationId":"490G00003790","stopLetter":"M","topMostParentId":"490G00003790"},{"icsId":"1003786","id":"490003786W","lat":51.451355,"lon":-0.438186,"name":"Bedfont Green","parentId":"490G00003786","stationId":"490G00003786","stopLetter":"N","topMostParentId":"490G00003786"},{"icsId":"1005441","id":"490005439W2","lat":51.449814,"lon":-0.4447,"name":"Spinney Drive","parentId":"490G00005441","stationId":"490G00005441","stopLetter":"P","topMostParentId":"490G00005441"},{"icsId":"1005439","id":"490005439W1","lat":51.448211,"lon":-0.449273,"name":"Clockhouse Roundabout","parentId":"490G00005439","stationId":"490G00005439","stopLetter":"R","topMostParentId":"490G00005439"},{"icsId":"1007856","id":"490007856W","lat":51.446517,"lon":-0.457879,"name":"Harrow Road","parentId":"490G00007856","stationId":"490G00007856","stopLetter":"->W","topMostParentId":"490G00007856"},{"icsId":"1012124","id":"40004402015B","lat":51.445242,"lon":-0.462814,"name":"Short Lane","parentId":"400G4402015B","stationId":"400G4402015B","topMostParentId":"400G4402015B"},{"icsId":"1009323","id":"40004402016B","lat":51.444113,"lon":-0.467975,"name":"Long Lane","parentId":"400G4402016B","stationId":"400G4402016B","topMostParentId":"400G4402016B"},{"icsId":"1003431","id":"40004402075A","lat":51.444627,"lon":-0.474951,"name":"Ashford Hospital","parentId":"400G4402014A","stationId":"400G4402014A","topMostParentId":"400G4402014A"}]}]}