{"direction":"inbound","lineId":"119","lineName":"119","mode":"bus","stopPointSequences":[{"stopPoint":[{"icsId":"1013304","id":"490013304S2","lat":51.35621,"lon":-0.115023,"name":"The Colonnades / Croydon Airport","parentId":"490G00013304","stationId":"490G00013304","topMostParentId":"490G00013304"},{"icsId":"1003130","id":"490003130N","lat":51.356281,"lon":-0.116643,"name":"Airport House","parentId":"490G00003130","stationId":"490G00003130","topMostParentId":"490G00003130"},{"icsId":"1008475","id":"490008475N","lat":51.359196,"lon":-0.117284,"name":"Imperial Way","parentId":"490G00008475","stationId":"490G00008475","stopLetter":"->N","topMostParentId":"490G00008475"},{"icsId":"1005466","id":"490005466N","lat":51.361246,"lon":-0.117861,"name":"Coldharbour Road","parentId":"490G00005466","stationId":"490G00005466","stopLetter":"NG","topMostParentId":"490G00005466"},{"icsId":"1006869","id":"490006869N1","lat":51.363404,"lon":-0.11839,"name":"Waddon Leisure Centre / Fiveways","parentId":"490G00006869","stationId":"490G00006869","stopLetter":"NH","topMostParentId":"490G00006869"},{"icsId":"1006893","id":"490006869EB1","lat":51.364778,"lon":-0.116624,"name":"Stafford Road","parentId":"490G00006893","stationId":"490G00006893","stopLetter":"EC","topMostParentId":"490G00006893"},{"icsId":"1005835","id":"490005835E","lat":51.362935,"lon":-0.111586,"name":"Crowley Crescent","parentId":"490G00005835","stationId":"490G00005835","stopLetter":"->E","topMostParentId":"490G00005835"},{"icsId":"1004239","id":"490004239E","lat":51.362471,"lon":-0.106807,"name":"Bramley Hill","parentId":"490G00004239","stationId":"490G00004239","stopLetter":"->E","topMostParentId":"490G00004239"},{"icsId":"1005853","id":"490005853E","lat":51.363,"lon":-0.103381,"name":"Croydon Bowling Club","parentId":"490G00005853","stationId":"490G00005853","stopLetter":"->E","topMostParentId":"490G00005853"},{"icsId":"1013101","id":"490013100K","lat":51.363518,"lon":-0.09984,"name":"Warham Road / Brighton Road","parentId":"490G00013101","stationId":"490G00013101","stopLetter":"K","topMostParentId":"490G00013101"},{"icsId":"1013100","id":"490015548M","lat":51.364485,"lon":-0.098982,"name":"Swan & Sugar Loaf","parentId":"490G00013100","stationId":"490G00013100","stopLetter":"M","topMostParentId":"490G00013100"},{"icsId":"1005574","id":"490005574V","lat":51.367247,"lon":-0.099083,"name":"Coombe Road","parentId":"490G00005574","stationId":"490G00005574","stopLetter":"V","topMostParentId":"490G00005574"},{"icsId":"1005855","id":"490005855C18","lat":51.370159,"lon":-0.100111,"name":"Croydon Flyover","parentId":"490G00005855","stationId":"490G00005855","stopLetter":"KT","topMostParentId":"490G00005855"},{"icsId":"1005858","id":"490005858C7","lat":51.372388,"lon":-0.098927,"name":"Croydon Library","parentId":"490G00005858","stationId":"490G00005858","stopLetter":"KM","topMostParentId":"490G00005858"},{"icsId":"1006706","id":"490015223C10","lat":51.372787,"lon":-0.096885,"name":"Fairfield Halls","parentId":"490G00006706","stationId":"490G00006706","stopLetter":"KC","topMostParentId":"490G00006706"},{"icsId":"1001089","id":"490001089E1","lat":51.374924,"lon":-0.091738,"name":"East Croydon Bus Station","parentId":"490G01089E7","stationId":"490G01089E7","stopLetter":"E1","topMostParentId":"HUBECY"},{"icsId":"1002052","id":"490002052E","lat":51.375405,"lon":-0.085396,"name":"Lebanon Road Tram Stop","parentId":"490G02052E","stationId":"490G02052E","stopLetter":"A","topMostParentId":"940GZZCRLEB"},{"icsId":"1002072","id":"490002072B","lat":51.375228,"lon":-0.078966,"name":"Sandilands Tram Stop","parentId":"490G02072A","stationId":"490G02072A","stopLetter":"B","topMostParentId":"940GZZCRSAN"},{"icsId":"1003420","id":"490003420E","lat":51.375051,"lon":-0.075827,"name":"Ashburton Road","parentId":"490G00003420","stationId":"490G00003420","stopLetter":"C","topMostParentId":"490G00003420"},{"icsId":"1009623","id":"490009623E","lat":51.374252,"lon":-0.07099,"name":"Mapledale Avenue","parentId":"490G00009623","stationId":"490G00009623","stopLetter":"D","topMostParentId":"490G00009623"},{"icsId":"1004014","id":"490004014E","lat":51.375212,"lon":-0.065432,"name":"Birch Tree Way","parentId":"490G00004014","stationId":"490G00004014","stopLetter":"E","topMostParentId":"490G00004014"},{"icsId":"1012099","id":"490012099E1","lat":51.376245,"lon":-0.06102,"name":"Trinity School","parentId":"490G00012099","stationId":"490G00012099","stopLetter":"F","topMostParentId":"490G00012099"},{"icsId":"1013945","id":"490013945E","lat":51.373918,"lon":-0.054595,"name":"Upper Shirley Road","parentId":"490G00013945","stationId":"490G00013945","stopLetter":"A","topMostParentId":"490G00013945"},{"icsId":"1013574","id":"490013551E","lat":51.374691,"lon":-0.049706,"name":"Verdayne Avenue","parentId":"490G00013574","stationId":"490G00013574","stopLetter":"B","topMostParentId":"490G00013574"},{"icsId":"1012096","id":"490012096E","lat":51.375267,"lon":-0.047023,"name":"Shirley Library","parentId":"490G00012096","stationId":"490G00012096","stopLetter":"C","topMostParentId":"490G00012096"},{"icsId":"1005150","id":"490005150E","lat":51.375863,"lon":-0.042888,"name":"Cheston Avenue","parentId":"490G00005150","stationId":"490G00005150","stopLetter":"D","topMostParentId":"490G00005150"},{"icsId":"1008946","id":"490008946E","lat":51.376905,"lon":-0.037972,"name":"Langland Gardens","parentId":"490G00008946","stationId":"490G00008946","stopLetter":"E","topMostParentId":"490G00008946"},{"icsId":"1009979","id":"490009979P","lat":51.377294,"lon":-0.027423,"name":"West Wickham and Shirley Baptist Church","parentId":"490G00009979","stationId":"490G00009979","stopLetter":"P","topMostParentId":"490G00009979"},{"icsId":"1014528","id":"490014528L","lat":51.37733,"lon":-0.022062,"name":"High Street / Manor Road","parentId":"490G00014528","stationId":"490G00014528","stopLetter":"L","topMostParentId":"490G00014528"},{"icsId":"1012087","id":"490012087J","lat":51.376351,"lon":-0.017879,"name":"Sherwood Way","parentId":"490G00012087","stationId":"490G00012087","stopLetter":"J","topMostParentId":"490G00012087"},{"icsId":"1019894","id":"490014529G","lat":51.375985,"lon":-0.015926,"name":"High Street / The Grove","parentId":"490G00019894","stationId":"490G00019894","stopLetter":"G","topMostParentId":"490G00019894"},{"icsId":"1014652","id":"490014652S","lat":51.373114,"lon":-0.012602,"name":"Wickham Court Road","parentId":"490G00014652","stationId":"490G00014652","stopLetter":"->S","topMostParentId":"490G00014652"},{"icsId":"1014530","id":"490014530S","lat":51.37176,"lon":-0.010692,"name":"West Wickham Playing Fields","parentId":"490G00014530","stationId":"490G00014530","stopLetter":"->S","topMostParentId":"490G00014530"},{"icsId":"1005656","id":"490005656S","lat":51.370178,"lon":-0.007586,"name":"Courtfield Rise","parentId":"490G00005656","stationId":"490G00005656","stopLetter":"A","topMostParentId":"490G00005656"},{"icsId":"1009032","id":"490009032E","lat":51.369331,"lon":-0.004347,"name":"Layhams Road","parentId":"490G00009032","stationId":"490G00009032","stopLetter":"B","topMostParentId":"490G00009032"},{"icsId":"1003099","id":"490003099N","lat":51.370749,"lon":-0.002044,"name":"Addington Road / Glebe Way","parentId":"490G00003099","stationId":"490G00003099","stopLetter":"C","topMostParentId":"490G00003099"},{"icsId":"1005545","id":"490005545N","lat":51.37388,"lon":0.001555,"name":"Tiepigs Lane","parentId":"490G00005545","stationId":"490G00005545","stopLetter":"D","topMostParentId":"490G00005545"},{"icsId":"1008289","id":"490008289W1","lat":51.375855,"lon":0.006484,"name":"Holland Way","parentId":"490G00008289","stationId":"490G00008289","stopLetter":"H","topMostParentId":"490G00008289"},{"icsId":"1001145","id":"490001145C","lat":51.376257,"lon":0.01087,"name":"Hayes Station","parentId":"490G01145B","stationId":"490G01145B","stopLetter":"C","topMostParentId":"910GHAYS"},{"icsId":"1007941","id":"490007941D","lat":51.377488,"lon":0.010363,"name":"Hayes / Station Approach","parentId":"490G000580","stationId":"490G000580","stopLetter":"D","topMostParentId":"490G000580"},{"icsId":"1007951","id":"490007951E","lat":51.377554,"lon":0.017005,"name":"Hayes Library","parentId":"490G00007951","stationId":"490G00007951","stopLetter":"J","topMostParentId":"490G00007951"},{"icsId":"1007943","id":"490007943N","lat":51.378952,"lon":0.017813,"name":"Hayes / George Lane","parentId":"490G00007943","stationId":"490G00007943","stopLetter":"K","topMostParentId":"490G00007943"},{"icsId":"1005448","id":"490005448N","lat":51.383336,"lon":0.017015,"name":"Club Gardens Road","parentId":"490G00005448","stationId":"490G00005448","stopLetter":"L","topMostParentId":"490G00005448"},{"icsId":"1010307","id":"490010307N","lat":51.388734,"lon":0.01741,"name":"Hayes Lane / Norman Park","parentId":"490G00010307","stationId":"490G00010307","stopLetter":"S","topMostParentId":"490G00010307"},{"icsId":"1007953","id":"490007953N","lat":51.392312,"lon":0.017481,"name":"Hayes Road / Hayes Lane","parentId":"490G00007953","stationId":"490G00007953","stopLetter":"T","topMostParentId":"490G00007953"},{"icsId":"1020369","id":"490004724N","lat":51.39717,"lon":0.014734,"name":"Hayes Road / Cameron Road","parentId":"490G00020369","stationId":"490G00020369","stopLetter":"F","topMostParentId":"490G00020369"},{"icsId":"1012775","id":"490012775E","lat":51.398829,"lon":0.016589,"name":"St Mark's Church","parentId":"490G00012775","stationId":"490G00012775","stopLetter":"E","topMostParentId":"490G00012775"},{"icsId":"1001037","id":"490001037W","lat":51.400663,"lon":0.016627,"name":"Bromley South Station","parentId":"490G01037U","stationId":"490G01037U","stopLetter":"B","topMostParentId":"910GBROMLYS"},{"icsId":"1004410","id":"4900004410U","lat":51.402771,"lon":0.016403,"name":"Elmfield Road / The Mall","parentId":"490G00004410","stationId":"490G00004410","stopLetter":"U","topMostParentId":"490G00004410"},{"icsId":"1008665","id":"490008665Q","lat":51.404237,"lon":0.018495,"name":"Bromley Civic Centre","parentId":"490G00008665","stationId":"490G00008665","stopLetter":"S","topMostParentId":"490G00008665"},{"icsId":"1004435","id":"490004435Q","lat":51.406005,"lon":0.016603,"name":"Bromley Town Hall","parentId":"490G00004435","stationId":"490G00004435","stopLetter":"Q","topMostParentId":"490G00004435"},{"icsId":"1004425","id":"4900004425O","lat":51.407987,"lon":0.013814,"name":"West Street","parentId":"490G00004425","stationId":"490G00004425","stopLetter":"O","topMostParentId":"490G00004425"},{"icsId":"1001036","id":"490001036N","lat":51.409,"lon":0.016591,"name":"Bromley North Station","parentId":"490G01036EB","stationId":"490G01036EB","stopLetter":"->N","topMostParentId":"910GBROMLYN"}]}]}