{"direction":"inbound","lineId":"120","lineName":"120","mode":"bus","stopPointSequences":[{"stopPoint":[{"icsId":"1000162","id":"490000162B","lat":51.548478,"lon":-0.367407,"name":"Northolt Station","parentId":"490G00162X1","stationId":"490G00162X1","stopLetter":"B","topMostParentId":"940GZZLUNHT","zone":"5"},{"icsId":"1009959","id":"490009959D","lat":51.546467,"lon":-0.370234,"name":"Moat Farm Road","parentId":"490G00009959","stationId":"490G00009959","stopLetter":"D","topMostParentId":"490G00009959"},{"icsId":"1006638","id":"490003178S","lat":51.544044,"lon":-0.374459,"name":"Kingston Close","parentId":"490G00006638","stationId":"490G00006638","stopLetter":"TA","topMostParentId":"490G00006638"},{"icsId":"1013120","id":"490013155S","lat":51.540662,"lon":-0.38215,"name":"Sycamore Close","parentId":"490G00013120","stationId":"490G00013120","stopLetter":"TB","topMostParentId":"490G00013120"},{"icsId":"1003891","id":"490003891S","lat":51.539613,"lon":-0.384336,"name":"Bengarth Road / Northolt Library","parentId":"490G00003891","stationId":"490G00003891","stopLetter":"TC","topMostParentId":"490G00003891"},{"icsId":"1014992","id":"490014992S","lat":51.536824,"lon":-0.389467,"name":"Yeading / White Hart","parentId":"490G00014992","stationId":"490G00014992","stopLetter":"X","topMostParentId":"490G00014992"},{"icsId":"1015479","id":"490015479E","lat":51.535019,"lon":-0.389041,"name":"Church Road","parentId":"490G00015479","stationId":"490G00015479","stopLetter":"Y","topMostParentId":"490G00015479"},{"icsId":"1008596","id":"490008596E","lat":51.533244,"lon":-0.384836,"name":"Wayfarer Road","parentId":"490G00008596","stationId":"490G00008596","stopLetter":"->E","topMostParentId":"490G00008596"},{"icsId":"1004373","id":"490004373E","lat":51.532929,"lon":-0.378272,"name":"Broadmead Road","parentId":"490G00004373","stationId":"490G00004373","stopLetter":"WE","topMostParentId":"490G00004373"},{"icsId":"1003116","id":"490003116E","lat":51.532755,"lon":-0.372872,"name":"Adrienne Avenue","parentId":"490G00003116","stationId":"490G00003116","stopLetter":"WF","topMostParentId":"490G00003116"},{"icsId":"1008628","id":"490008628S","lat":51.530078,"lon":-0.372434,"name":"Kenilworth Gardens","parentId":"490G00008628","stationId":"490G00008628","stopLetter":"EC","topMostParentId":"490G00008628"},{"icsId":"1009028","id":"490009028S","lat":51.527401,"lon":-0.373279,"name":"Lawson Road","parentId":"490G00009028","stationId":"490G00009028","stopLetter":"D","topMostParentId":"490G00009028"},{"icsId":"1014756","id":"490014756S","lat":51.524527,"lon":-0.374145,"name":"Windermere Road","parentId":"490G00014756","stationId":"490G00014756","stopLetter":"E","topMostParentId":"490G00014756"},{"icsId":"1012227","id":"490012227S","lat":51.520733,"lon":-0.374857,"name":"Somerset Road","parentId":"490G00012227","stationId":"490G00012227","stopLetter":"F","topMostParentId":"490G00012227"},{"icsId":"1013442","id":"490013442S","lat":51.5189,"lon":-0.374951,"name":"Denbigh Road","parentId":"490G00013442","stationId":"490G00013442","stopLetter":"G","topMostParentId":"490G00013442"},{"icsId":"1004807","id":"490004807S","lat":51.51644,"lon":-0.375283,"name":"Carlyle Avenue","parentId":"490G00004807","stationId":"490G00004807","stopLetter":"SD","topMostParentId":"490G00004807"},{"icsId":"1010317","id":"490010317D","lat":51.514201,"lon":-0.375262,"name":"North Avenue","parentId":"490G00010317","stationId":"490G00010317","stopLetter":"D","topMostParentId":"490G00010317"},{"icsId":"1003276","id":"490003276F","lat":51.512037,"lon":-0.375483,"name":"High Street / Southall Town Hall","parentId":"490G00003276","stationId":"490G00003276","stopLetter":"F","topMostParentId":"490G00003276"},{"icsId":"1012241","id":"490015439M","lat":51.509917,"lon":-0.376279,"name":"Southall Broadway","parentId":"490G00012241","stationId":"490G00012241","stopLetter":"M","topMostParentId":"490G00012241"},{"icsId":"1010754","id":"490010754Q","lat":51.5078,"lon":-0.377925,"name":"Park Avenue","parentId":"490G00010754","stationId":"490G00010754","stopLetter":"Q","topMostParentId":"490G00010754"},{"icsId":"1001255","id":"490001255O","lat":51.505322,"lon":-0.378892,"name":"Southall Station","parentId":"490G012554","stationId":"490G012554","stopLetter":"O","topMostParentId":"910GSTHALL"},{"icsId":"1013388","id":"490013388M","lat":51.502443,"lon":-0.381372,"name":"The Green","parentId":"490G00013388","stationId":"490G00013388","stopLetter":"M","topMostParentId":"490G00013388"},{"icsId":"1008833","id":"490008833F","lat":51.500415,"lon":-0.382971,"name":"King Street","parentId":"490G00008833","stationId":"490G00008833","stopLetter":"F","topMostParentId":"490G00008833"},{"icsId":"1003966","id":"490003966D","lat":51.499343,"lon":-0.382173,"name":"Beverley Road","parentId":"490G00003966","stationId":"490G00003966","stopLetter":"D","topMostParentId":"490G00003966"},{"icsId":"1010445","id":"490010445B","lat":51.498606,"lon":-0.378309,"name":"Norwood Gardens","parentId":"490G00010445","stationId":"490G00010445","stopLetter":"B","topMostParentId":"490G00010445"},{"icsId":"1007792","id":"490007792S","lat":51.496945,"lon":-0.3753,"name":"Harewood Terrace","parentId":"490G00007792","stationId":"490G00007792","topMostParentId":"490G00007792"},{"icsId":"1010447","id":"490010447S","lat":51.493898,"lon":-0.370841,"name":"Norwood Green","parentId":"490G00010447","stationId":"490G00010447","stopLetter":"->S","topMostParentId":"490G00010447"},{"icsId":"1006811","id":"490006811N2","lat":51.490062,"lon":-0.371756,"name":"Fern Lane","parentId":"490G00006811","stationId":"490G00006811","stopLetter":"HH","topMostParentId":"490G00006811"},{"icsId":"1012443","id":"490012443S","lat":51.485314,"lon":-0.373005,"name":"St Leonard's Church","parentId":"490G00012443","stationId":"490G00012443","stopLetter":"HJ","topMostParentId":"490G00012443"},{"icsId":"1008272","id":"490008272E","lat":51.483035,"lon":-0.368233,"name":"Hogarth Gardens","parentId":"490G00008272","stationId":"490G00008272","stopLetter":"HK","topMostParentId":"490G00008272"},{"icsId":"1007427","id":"490007427S","lat":51.480255,"lon":-0.364861,"name":"Great West Road","parentId":"490G00007427","stationId":"490G00007427","stopLetter":"HL","topMostParentId":"490G00007427"},{"icsId":"1013432","id":"490013432S","lat":51.477384,"lon":-0.363452,"name":"Lampton Avenue","parentId":"490G00013432","stationId":"490G00013432","stopLetter":"->S","topMostParentId":"490G00013432"},{"icsId":"1008394","id":"490008394S","lat":51.473785,"lon":-0.365842,"name":"Lampton Road / Hounslow Civic Centre","parentId":"490G00008394","stationId":"490G00008394","stopLetter":"->S","topMostParentId":"490G00008394"},{"icsId":"1000116","id":"4900001162","lat":51.470897,"lon":-0.367039,"name":"Hounslow Central Station","parentId":"490G001161","stationId":"490G001161","stopLetter":"YY","topMostParentId":"940GZZLUHWC","zone":"4"},{"icsId":"1008391","id":"490008391Y","lat":51.468593,"lon":-0.36692,"name":"Bell Corner","parentId":"490G000600","stationId":"490G000600","stopLetter":"Y","topMostParentId":"490G000600"},{"icsId":"1013259","id":"490013259V","lat":51.467293,"lon":-0.366505,"name":"The Bell","parentId":"490G00013259","stationId":"490G00013259","stopLetter":"V","topMostParentId":"490G00013259"},{"icsId":"1013777","id":"490013777P","lat":51.467281,"lon":-0.363065,"name":"Treaty Centre","parentId":"490G00013777","stationId":"490G00013777","stopLetter":"P","topMostParentId":"490G00013777"},{"icsId":"1008399","id":"490008399K","lat":51.469449,"lon":-0.358006,"name":"Hounslow High Street","parentId":"490G00008399","stationId":"490G00008399","stopLetter":"K","topMostParentId":"490G00008399"},{"icsId":"1008392","id":"490008392Z1","lat":51.470928,"lon":-0.354454,"name":"Hounslow Bus Station","parentId":"490G000601","stationId":"490G000601","stopLetter":"Z1","topMostParentId":"490G000601"}]}]}