{"direction":"inbound","lineId":"13","lineName":"13","mode":"bus","stopPointSequences":[{"stopPoint":[{"icsId":"1000248","id":"490000248H","lat":51.495665,"lon":-0.14303,"name":"Victoria Station","parentId":"490G00248G","stationId":"490G00248G","stopLetter":"H","topMostParentId":"HUBVIC","zone":"1"},{"icsId":"1007544","id":"490007544Q","lat":51.496919,"lon":-0.145557,"name":"Grosvenor Gardens","parentId":"490G000551","stationId":"490G000551","stopLetter":"Q","topMostParentId":"490G000551"},{"icsId":"1014728","id":"490005138N","lat":51.499381,"lon":-0.148281,"name":"Wilton Street","parentId":"490G00014728","stationId":"490G00014728","stopLetter":"U","topMostParentId":"490G00014728"},{"icsId":"1000119","id":"490000119K","lat":51.501349,"lon":-0.15104,"name":"Hyde Park Corner","parentId":"490G00119F","stationId":"490G00119F","stopLetter":"K","topMostParentId":"940GZZLUHPC","zone":"1"},{"icsId":"1009277","id":"490009277Y","lat":51.505089,"lon":-0.152113,"name":"London Hilton Hotel","parentId":"490G00009277","stationId":"490G00009277","stopLetter":"Y","topMostParentId":"490G00009277"},{"icsId":"1006111","id":"490006111N2","lat":51.508589,"lon":-0.155128,"name":"Dorchester Hotel","parentId":"490G00006111","stationId":"490G00006111","stopLetter":"T","topMostParentId":"490G00006111"},{"icsId":"1000144","id":"490000144W","lat":51.511607,"lon":-0.158349,"name":"Marble Arch","parentId":"490G00144R","stationId":"490G00144R","stopLetter":"W","topMostParentId":"940GZZLUMBA","zone":"1"},{"icsId":"1010622","id":"490010622BA","lat":51.514609,"lon":-0.154222,"name":"Orchard Street / Selfridges","parentId":"490G00010622","stationId":"490G00010622","stopLetter":"BA","topMostParentId":"490G00010622"},{"icsId":"1020105","id":"490002121Z","lat":51.516745,"lon":-0.15513,"name":"Portman Square","parentId":"490G00020105","stationId":"490G00020105","topMostParentId":"490G00020105"},{"icsId":"1011124","id":"490011124F","lat":51.520659,"lon":-0.156932,"name":"York Street","parentId":"490G00011124","stationId":"490G00011124","stopLetter":"F","topMostParentId":"490G00011124"},{"icsId":"1000011","id":"490000011ZZ","lat":51.522817,"lon":-0.158099,"name":"Baker Street Station","parentId":"490G00011B","stationId":"490G00011B","stopLetter":"->N","topMostParentId":"940GZZLUBST","zone":"1"},{"icsId":"1002122","id":"490002122Z","lat":51.525091,"lon":-0.160328,"name":"Park Road/ Ivor Place","parentId":"490G000344","stationId":"490G000344","topMostParentId":"490G000344"},{"icsId":"1003269","id":"490003269N","lat":51.527094,"lon":-0.164154,"name":"Alpha Close","parentId":"490G00003269","stationId":"490G00003269","stopLetter":"LC","topMostParentId":"490G00003269"},{"icsId":"1010816","id":"490010816N","lat":51.529251,"lon":-0.167008,"name":"London Central Mosque","parentId":"490G00010816","stationId":"490G00010816","stopLetter":"N","topMostParentId":"490G00010816"},{"icsId":"1009359","id":"490009359J","lat":51.530453,"lon":-0.169656,"name":"Lord's Cricket Ground","parentId":"490G00009359","stationId":"490G00009359","stopLetter":"J","topMostParentId":"490G00009359"},{"icsId":"1000222","id":"490000222B","lat":51.533716,"lon":-0.17362,"name":"St John's Wood Station","parentId":"490G00222A","stationId":"490G00222A","stopLetter":"B","topMostParentId":"940GZZLUSJW","zone":"2"},{"icsId":"1011336","id":"490003351Q","lat":51.536853,"lon":-0.176451,"name":"Queen's Grove","parentId":"490G00011336","stationId":"490G00011336","stopLetter":"A","topMostParentId":"490G00011336"},{"icsId":"1004185","id":"490004185N","lat":51.540278,"lon":-0.175795,"name":"Boundary Road","parentId":"490G00004185","stationId":"490G00004185","stopLetter":"B","topMostParentId":"490G00004185"},{"icsId":"1000230","id":"490015162L","lat":51.543147,"lon":-0.175247,"name":"Swiss Cottage Stn  /  Finchley Road","parentId":"490G00230N","stationId":"490G00230N","stopLetter":"L","topMostParentId":"940GZZLUSWC","zone":"2"},{"icsId":"1005486","id":"490005487A","lat":51.544857,"lon":-0.176448,"name":"College Crescent","parentId":"490G00005486","stationId":"490G00005486","stopLetter":"A","topMostParentId":"490G00005486"},{"icsId":"1000082","id":"490000082FK","lat":51.546747,"lon":-0.179459,"name":"Finchley Road Station","parentId":"490G00082R","stationId":"490G00082R","stopLetter":"FK","topMostParentId":"940GZZLUFYR","zone":"2"},{"icsId":"1007045","id":"490007045FL","lat":51.547953,"lon":-0.180694,"name":"Finchley Road / O2 Centre","parentId":"490G000525","stationId":"490G000525","stopLetter":"FL","topMostParentId":"490G000525"},{"icsId":"1001109","id":"490001109FD","lat":51.55043,"lon":-0.183264,"name":"Finchley Road & Frognal Station","parentId":"490G01109FF","stationId":"490G01109FF","stopLetter":"FD","topMostParentId":"910GFNCHLYR"},{"icsId":"1008947","id":"490008947N","lat":51.551509,"lon":-0.185009,"name":"Langland Gardens","parentId":"490G00008947","stationId":"490G00008947","stopLetter":"FS","topMostParentId":"490G00008947"},{"icsId":"1014433","id":"490014433N","lat":51.552469,"lon":-0.187207,"name":"West End Lane","parentId":"490G00014433","stationId":"490G00014433","stopLetter":"FT","topMostParentId":"490G00014433"},{"icsId":"1012961","id":"490012961N","lat":51.554796,"lon":-0.192307,"name":"Lyncroft Gardens","parentId":"490G00012961","stationId":"490G00012961","stopLetter":"CD","topMostParentId":"490G00012961"},{"icsId":"1006952","id":"490006952N","lat":51.556922,"lon":-0.195469,"name":"Fortune Green Road","parentId":"490G00006952","stationId":"490G00006952","stopLetter":"CE","topMostParentId":"490G00006952"},{"icsId":"1009462","id":"490015362N","lat":51.560337,"lon":-0.197108,"name":"Lyndale Avenue","parentId":"490G00009462","stationId":"490G00009462","stopLetter":"K","topMostParentId":"490G00009462"},{"icsId":"1005160","id":"490005160N","lat":51.562284,"lon":-0.197421,"name":"Childs Hill / Cricklewood Lane","parentId":"490G00005160","stationId":"490G00005160","stopLetter":"L","topMostParentId":"490G00005160"},{"icsId":"1009232","id":"490009232N","lat":51.565075,"lon":-0.196445,"name":"Llanvanor Road","parentId":"490G00009232","stationId":"490G00009232","stopLetter":"M","topMostParentId":"490G00009232"},{"icsId":"1006262","id":"490006262N","lat":51.567555,"lon":-0.195178,"name":"Dunstan Road","parentId":"490G00006262","stationId":"490G00006262","stopLetter":"N","topMostParentId":"490G00006262"},{"icsId":"1007267","id":"490007267GM","lat":51.571093,"lon":-0.195456,"name":"Golders Green / Finchley Road","parentId":"490G00007267","stationId":"490G00007267","stopLetter":"GM","topMostParentId":"490G00007267"},{"icsId":"1000087","id":"490015496GU","lat":51.572843,"lon":-0.195777,"name":"Golders Green Station","parentId":"490G00087GB","stationId":"490G00087GB","stopLetter":"GU","topMostParentId":"940GZZLUGGN","zone":"3"},{"icsId":"1008343","id":"490008343N","lat":51.575209,"lon":-0.196404,"name":"Hoop Lane","parentId":"490G00008343","stationId":"490G00008343","stopLetter":"->N","topMostParentId":"490G00008343"},{"icsId":"1005421","id":"490005421N","lat":51.579471,"lon":-0.198155,"name":"Clifton Gardens","parentId":"490G00005421","stationId":"490G00005421","stopLetter":"TH","topMostParentId":"490G00005421"},{"icsId":"1013192","id":"490013192N","lat":51.583082,"lon":-0.199672,"name":"Temple Fortune Lane","parentId":"490G00013192","stationId":"490G00013192","stopLetter":"TJ","topMostParentId":"490G00013192"},{"icsId":"1005162","id":"490005162N","lat":51.585578,"lon":-0.199992,"name":"Childs Way","parentId":"490G00005162","stationId":"490G00005162","stopLetter":"TK","topMostParentId":"490G00005162"},{"icsId":"1008070","id":"490008070N","lat":51.588805,"lon":-0.199937,"name":"Henlys Corner / Addison Way","parentId":"490G00008070","stationId":"490G00008070","stopLetter":"TL","topMostParentId":"490G00008070"},{"icsId":"1008069","id":"490008069N","lat":51.590702,"lon":-0.19992,"name":"Henlys Corner","parentId":"490G00008069","stationId":"490G00008069","stopLetter":"TP","topMostParentId":"490G00008069"},{"icsId":"1005488","id":"490005488N","lat":51.592316,"lon":-0.199582,"name":"Allandale Avenue","parentId":"490G00005488","stationId":"490G00005488","stopLetter":"TR","topMostParentId":"490G00005488"},{"icsId":"1010079","id":"490010079N","lat":51.594761,"lon":-0.198965,"name":"Mountfield Road","parentId":"490G00010079","stationId":"490G00010079","stopLetter":"J","topMostParentId":"490G00010079"},{"icsId":"1006337","id":"490006337N","lat":51.596292,"lon":-0.1985,"name":"East End Road","parentId":"490G00006337","stationId":"490G00006337","stopLetter":"K","topMostParentId":"490G00006337"},{"icsId":"1008054","id":"490008054J","lat":51.598883,"lon":-0.196838,"name":"Hendon Lane","parentId":"490G00008054","stationId":"490G00008054","stopLetter":"J","topMostParentId":"490G00008054"},{"icsId":"1015495","id":"490015495E","lat":51.60071,"lon":-0.194614,"name":"Dollis Park / Finchley Central Stn","parentId":"490G000903","stationId":"490G000903","stopLetter":"E","topMostParentId":"490G000903"},{"icsId":"1000081","id":"490000081C","lat":51.602552,"lon":-0.192159,"name":"Finchley Central Station","parentId":"490G00081W","stationId":"490G00081W","stopLetter":"C","topMostParentId":"940GZZLUFYC","zone":"4"},{"icsId":"1009322","id":"490009322A","lat":51.605156,"lon":-0.188402,"name":"Long Lane","parentId":"490G00009322","stationId":"490G00009322","stopLetter":"A","topMostParentId":"490G00009322"},{"icsId":"1006642","id":"490006642N","lat":51.607278,"lon":-0.185501,"name":"Victoria Park","parentId":"490G000508","stationId":"490G000508","stopLetter":"NN","topMostParentId":"490G000508"},{"icsId":"1007373","id":"490007373F3","lat":51.608871,"lon":-0.182679,"name":"Granville Road","parentId":"490G00007373","stationId":"490G00007373","stopLetter":"KK","topMostParentId":"490G00007373"},{"icsId":"1014813","id":"490014813J","lat":51.61129,"lon":-0.179203,"name":"Woodberry Grove","parentId":"490G00014813","stationId":"490G00014813","stopLetter":"L","topMostParentId":"490G00014813"},{"icsId":"1015443","id":"490015443S","lat":51.612488,"lon":-0.176454,"name":"North Finchley Bus Station","parentId":"490G00015443","stationId":"490G00015443","stopLetter":"S","topMostParentId":"490G00015443"}]}]}