{"direction":"inbound","lineId":"130","lineName":"130","mode":"bus","stopPointSequences":[{"stopPoint":[{"icsId":"1010744","id":"490015449E","lat":51.399307,"lon":-0.099119,"name":"Parchmore Road","parentId":"490G00010744","stationId":"490G00010744","stopLetter":"E","topMostParentId":"490G00010744"},{"icsId":"1015449","id":"490015449G","lat":51.398977,"lon":-0.097638,"name":"Thornton Heath Clock Tower","parentId":"490G000896","stationId":"490G000896","stopLetter":"G","topMostParentId":"490G000896"},{"icsId":"1014600","id":"490014600K","lat":51.39815,"lon":-0.093791,"name":"High Street / Whitehorse Lane","parentId":"490G00014600","stationId":"490G00014600","stopLetter":"K","topMostParentId":"490G00014600"},{"icsId":"1005424","id":"490005424E","lat":51.398739,"lon":-0.089094,"name":"Clifton Road","parentId":"490G00005424","stationId":"490G00005424","topMostParentId":"490G00005424"},{"icsId":"1020275","id":"490020275SE","lat":51.398283,"lon":-0.08378,"name":"Park Road","parentId":"490G00020275","stationId":"490G00020275","topMostParentId":"490G00020275"},{"icsId":"1015287","id":"490010805E1","lat":51.397215,"lon":-0.080015,"name":"Russell Court","parentId":"490G00015287","stationId":"490G00015287","topMostParentId":"490G00015287"},{"icsId":"1012320","id":"490012320B","lat":51.397993,"lon":-0.077581,"name":"South Norwood Clock Tower","parentId":"490G00012320","stationId":"490G00012320","stopLetter":"B","topMostParentId":"490G00012320"},{"icsId":"1011128","id":"490011128F","lat":51.399046,"lon":-0.07541,"name":"Portland Road","parentId":"490G000710","stationId":"490G000710","stopLetter":"F","topMostParentId":"490G000710"},{"icsId":"1006193","id":"490001216P","lat":51.398307,"lon":-0.072623,"name":"Portland Road / Norwood Jct Station","parentId":"490G00006193","stationId":"490G00006193","stopLetter":"P","topMostParentId":"490G00006193"},{"icsId":"1013371","id":"490013371S","lat":51.395139,"lon":-0.067538,"name":"Harrington Road","parentId":"490G00013371","stationId":"490G00013371","stopLetter":"PM","topMostParentId":"490G00013371"},{"icsId":"1012321","id":"490012321N2","lat":51.392668,"lon":-0.066564,"name":"South Norwood Leisure Centre","parentId":"490G00012321","stationId":"490G00012321","stopLetter":"PL","topMostParentId":"490G00012321"},{"icsId":"1005852","id":"490005852S","lat":51.390424,"lon":-0.065192,"name":"Croydon Arena","parentId":"490G00005852","stationId":"490G00005852","stopLetter":"WK","topMostParentId":"490G00005852"},{"icsId":"1002086","id":"490002086A","lat":51.388324,"lon":-0.064879,"name":"Woodside Tram Stop","parentId":"490G02086A","stationId":"490G02086A","stopLetter":"WL","topMostParentId":"940GZZCRWOD"},{"icsId":"1003419","id":"490003419C","lat":51.38487,"lon":-0.063788,"name":"Ashburton Park","parentId":"490G00003419","stationId":"490G00003419","stopLetter":"WQ","topMostParentId":"490G00003419"},{"icsId":"1003421","id":"490003421S","lat":51.382929,"lon":-0.064402,"name":"Oasis Academy","parentId":"490G00003421","stationId":"490G00003421","stopLetter":"AH","topMostParentId":"490G00003421"},{"icsId":"1004007","id":"490004007S","lat":51.380411,"lon":-0.062784,"name":"Bingham Road","parentId":"490G00004007","stationId":"490G00004007","stopLetter":"M","topMostParentId":"490G00004007"},{"icsId":"1012098","id":"490012099S","lat":51.378075,"lon":-0.061273,"name":"Shirley Clinic","parentId":"490G00012098","stationId":"490G00012098","stopLetter":"N","topMostParentId":"490G00012098"},{"icsId":"1012094","id":"490012094S","lat":51.373004,"lon":-0.055869,"name":"Shirley Church Road","parentId":"490G00012094","stationId":"490G00012094","stopLetter":"N","topMostParentId":"490G00012094"},{"icsId":"1012103","id":"490012103S","lat":51.370174,"lon":-0.054452,"name":"Shirley Windmill","parentId":"490G00012103","stationId":"490G00012103","stopLetter":"P","topMostParentId":"490G00012103"},{"icsId":"1010505","id":"490010505S","lat":51.366981,"lon":-0.052791,"name":"Oaks Road","parentId":"490G00010505","stationId":"490G00010505","stopLetter":"R","topMostParentId":"490G00010505"},{"icsId":"1011005","id":"490011005S","lat":51.364265,"lon":-0.051686,"name":"Pine Coombe","parentId":"490G00011005","stationId":"490G00011005","stopLetter":"S","topMostParentId":"490G00011005"},{"icsId":"1002024","id":"490002024B","lat":51.359309,"lon":-0.055386,"name":"Coombe Lane Tram Stop","parentId":"490G02024E","stationId":"490G02024E","stopLetter":"B","topMostParentId":"940GZZCRCOO"},{"icsId":"1007993","id":"490007993S","lat":51.355865,"lon":-0.0495,"name":"Heathfield Farm","parentId":"490G00007993","stationId":"490G00007993","stopLetter":"T","topMostParentId":"490G00007993"},{"icsId":"1003094","id":"490003094E","lat":51.353916,"lon":-0.037777,"name":"Addington Park","parentId":"490G000379","stationId":"490G000379","stopLetter":"F","topMostParentId":"490G000379"},{"icsId":"1003101","id":"490003101A","lat":51.356473,"lon":-0.032037,"name":"Addington Village Interchange","parentId":"490G000380","stationId":"490G000380","stopLetter":"A","topMostParentId":"490G000380"},{"icsId":"1003345","id":"490003345E","lat":51.353461,"lon":-0.024095,"name":"Applegarth","parentId":"490G00003345","stationId":"490G00003345","stopLetter":"FE","topMostParentId":"490G00003345"},{"icsId":"1013307","id":"490013307E","lat":51.355056,"lon":-0.020579,"name":"The Coppins","parentId":"490G00013307","stationId":"490G00013307","stopLetter":"->E","topMostParentId":"490G00013307"},{"icsId":"1006968","id":"490006968N","lat":51.356263,"lon":-0.02172,"name":"Foxcombe","parentId":"490G00006968","stationId":"490G00006968","topMostParentId":"490G00006968"},{"icsId":"1010420","id":"490010420E","lat":51.358292,"lon":-0.021014,"name":"North Walk","parentId":"490G00010420","stationId":"490G00010420","stopLetter":"->E","topMostParentId":"490G00010420"},{"icsId":"1013449","id":"490010473N","lat":51.357717,"lon":-0.016773,"name":"The Lindens","parentId":"490G00013449","stationId":"490G00013449","topMostParentId":"490G00013449"},{"icsId":"1004844","id":"490004844S","lat":51.355786,"lon":-0.015363,"name":"Castle Hill School","parentId":"490G00004844","stationId":"490G00004844","stopLetter":"->S","topMostParentId":"490G00004844"},{"icsId":"1009824","id":"490009824S","lat":51.353909,"lon":-0.013333,"name":"Merrow Way","parentId":"490G00009824","stationId":"490G00009824","stopLetter":"->S","topMostParentId":"490G00009824"},{"icsId":"1007013","id":"490007013W","lat":51.352446,"lon":-0.017748,"name":"Frensham Drive","parentId":"490G00007013","stationId":"490G00007013","topMostParentId":"490G00007013"},{"icsId":"1006256","id":"490006256W","lat":51.351176,"lon":-0.020862,"name":"Dunley Drive","parentId":"490G000493","stationId":"490G000493","stopLetter":"FB","topMostParentId":"490G000493"},{"icsId":"1002038","id":"490002038B","lat":51.350141,"lon":-0.023434,"name":"Fieldway Tram Stop","parentId":"490G02038B","stationId":"490G02038B","stopLetter":"FA","topMostParentId":"940GZZCRFLD"},{"icsId":"1004843","id":"490004843S","lat":51.34758,"lon":-0.021993,"name":"Castle Hill Avenue","parentId":"490G000442","stationId":"490G000442","stopLetter":"Q","topMostParentId":"490G000442"},{"icsId":"1014804","id":"490014804S","lat":51.346273,"lon":-0.01912,"name":"Wolsey Crescent","parentId":"490G000841","stationId":"490G000841","stopLetter":"T","topMostParentId":"490G000841"},{"icsId":"1007522","id":"490007522S","lat":51.344436,"lon":-0.017419,"name":"Grenville Road","parentId":"490G00007522","stationId":"490G00007522","stopLetter":"U","topMostParentId":"490G00007522"},{"icsId":"1010848","id":"490010848W","lat":51.342724,"lon":-0.01666,"name":"Salcot Crescent","parentId":"490G000698","stationId":"490G000698","stopLetter":"E","topMostParentId":"490G000698"},{"icsId":"1004928","id":"490004928Z","lat":51.340468,"lon":-0.014072,"name":"Central Parade","parentId":"490G00004928","stationId":"490G00004928","topMostParentId":"490G00004928"},{"icsId":"1012660","id":"490012660E","lat":51.339903,"lon":-0.012043,"name":"St Edward's Church","parentId":"490G00012660","stationId":"490G00012660","stopLetter":"H","topMostParentId":"490G00012660"},{"icsId":"1009926","id":"490009926E","lat":51.339265,"lon":-0.008927,"name":"New Addington Baptist Church","parentId":"490G00009926","stationId":"490G00009926","topMostParentId":"490G00009926"},{"icsId":"1004680","id":"490004680E","lat":51.338793,"lon":-0.004941,"name":"Calley Down Crescent","parentId":"490G00004680","stationId":"490G00004680","stopLetter":"->E","topMostParentId":"490G00004680"},{"icsId":"1011493","id":"490011493N","lat":51.341563,"lon":-0.00551,"name":"Redstart Close","parentId":"490G00011493","stationId":"490G00011493","stopLetter":"->N","topMostParentId":"490G00011493"},{"icsId":"1015467","id":"490015467N","lat":51.343392,"lon":-0.006206,"name":"Vulcan Way","parentId":"490G00015467","stationId":"490G00015467","stopLetter":"->N","topMostParentId":"490G00015467"}]}]}