{"direction":"inbound","lineId":"134","lineName":"134","mode":"bus","stopPointSequences":[{"stopPoint":[{"icsId":"1000252","id":"490000252E","lat":51.525295,"lon":-0.13675,"name":"University College Hospital / Euston Roa","parentId":"490G000361","stationId":"490G000361","stopLetter":"Y","topMostParentId":"490G000361","zone":"1"},{"icsId":"1000252","id":"490000252X","lat":51.524113,"lon":-0.137649,"name":"Warren Street Station","parentId":"490G00252X","stationId":"490G00252X","stopLetter":"X","topMostParentId":"940GZZLUWRR","zone":"1"},{"icsId":"1015042","id":"490015042T","lat":51.525857,"lon":-0.138745,"name":"Hampstead Road / Drummond Street","parentId":"490G000850","stationId":"490G000850","stopLetter":"T","topMostParentId":"490G000850"},{"icsId":"1010158","id":"490010158N","lat":51.527376,"lon":-0.138741,"name":"Robert Street","parentId":"490G00010158","stationId":"490G00010158","stopLetter":"J","topMostParentId":"490G00010158"},{"icsId":"1012158","id":"490012158N","lat":51.530796,"lon":-0.138919,"name":"Silverdale","parentId":"490G00012158","stationId":"490G00012158","stopLetter":"B","topMostParentId":"490G00012158"},{"icsId":"1000152","id":"490000152A","lat":51.534031,"lon":-0.13932,"name":"Mornington Crescent Station","parentId":"490G00152G","stationId":"490G00152G","stopLetter":"A","topMostParentId":"940GZZLUMTC","zone":"2"},{"icsId":"1004714","id":"490004714E","lat":51.536275,"lon":-0.140728,"name":"Camden High Street","parentId":"490G000437","stationId":"490G000437","stopLetter":"E","topMostParentId":"490G000437"},{"icsId":"1000036","id":"490015041Y","lat":51.538013,"lon":-0.142042,"name":"Camden Town Station","parentId":"490G00036N","stationId":"490G00036N","stopLetter":"Y","topMostParentId":"940GZZLUCTN","zone":"2"},{"icsId":"1008663","id":"490000036L","lat":51.53995,"lon":-0.142251,"name":"Kentish Town Road","parentId":"490G00008663","stationId":"490G00008663","stopLetter":"L","topMostParentId":"490G00008663"},{"icsId":"1007927","id":"490007927A","lat":51.542123,"lon":-0.142047,"name":"Hawley Road","parentId":"490G00007927","stationId":"490G00007927","stopLetter":"A","topMostParentId":"490G00007927"},{"icsId":"1019924","id":"490011199R","lat":51.546032,"lon":-0.141903,"name":"Prince Of Wales Road","parentId":"490G00019924","stationId":"490G00019924","stopLetter":"KM","topMostParentId":"490G00019924"},{"icsId":"1004894","id":"490004894L","lat":51.548789,"lon":-0.141084,"name":"Kentish Town Post Office","parentId":"490G00004894","stationId":"490G00004894","stopLetter":"KE","topMostParentId":"490G00004894"},{"icsId":"1000123","id":"490000123B","lat":51.551368,"lon":-0.140978,"name":"Kentish Town Station","parentId":"490G00123B","stationId":"490G00123B","stopLetter":"KF","topMostParentId":"HUBKTN","zone":"2"},{"icsId":"1008661","id":"490008661N","lat":51.553436,"lon":-0.140937,"name":"Fortess Walk","parentId":"490G00008661","stationId":"490G00008661","stopLetter":"TP","topMostParentId":"490G00008661"},{"icsId":"1008904","id":"490008904N1","lat":51.554993,"lon":-0.139907,"name":"Lady Somerset Road","parentId":"490G00008904","stationId":"490G00008904","stopLetter":"TR","topMostParentId":"490G00008904"},{"icsId":"1000239","id":"490005973F","lat":51.55621,"lon":-0.138992,"name":"Tufnell Park Station","parentId":"490G00239A","stationId":"490G00239A","stopLetter":"TS","topMostParentId":"940GZZLUTFP","zone":"2"},{"icsId":"1000722","id":"490015053J","lat":51.557937,"lon":-0.138417,"name":"Fulbrook Road","parentId":"490G000132","stationId":"490G000132","stopLetter":"TT","topMostParentId":"490G000132"},{"icsId":"1009985","id":"490009985N","lat":51.559642,"lon":-0.13764,"name":"Monnery Road","parentId":"490G00009985","stationId":"490G00009985","stopLetter":"TU","topMostParentId":"490G00009985"},{"icsId":"1003989","id":"490003989Y","lat":51.561999,"lon":-0.136577,"name":"Pemberton Gardens","parentId":"490G00003989","stationId":"490G00003989","stopLetter":"T","topMostParentId":"490G00003989"},{"icsId":"1000008","id":"490000008U","lat":51.564932,"lon":-0.134957,"name":"Archway Station","parentId":"490G00008O","stationId":"490G00008O","stopLetter":"U","topMostParentId":"940GZZLUACY","zone":"2+3"},{"icsId":"1014277","id":"490014277N","lat":51.569139,"lon":-0.137122,"name":"Waterlow Road","parentId":"490G00014277","stationId":"490G00014277","stopLetter":"X","topMostParentId":"490G00014277"},{"icsId":"1008943","id":"490008943N","lat":51.572153,"lon":-0.140058,"name":"Langdon Park Road","parentId":"490G00008943","stationId":"490G00008943","stopLetter":"HX","topMostParentId":"490G00008943"},{"icsId":"1010433","id":"490010433N","lat":51.574232,"lon":-0.141907,"name":"Northwood Road","parentId":"490G00010433","stationId":"490G00010433","stopLetter":"F","topMostParentId":"490G00010433"},{"icsId":"1000109","id":"490012359E","lat":51.575953,"lon":-0.143251,"name":"Highgate Station","parentId":"490G00109S","stationId":"490G00109S","stopLetter":"G","topMostParentId":"940GZZLUHGT","zone":"3"},{"icsId":"1014875","id":"490014875C","lat":51.578657,"lon":-0.147601,"name":"Wood Lane / Highgate Station","parentId":"490G000845","stationId":"490G000845","stopLetter":"E","topMostParentId":"490G000845"},{"icsId":"1008162","id":"490008161N","lat":51.581619,"lon":-0.14673,"name":"Highgate Wood","parentId":"490G00008162","stationId":"490G00008162","stopLetter":"D","topMostParentId":"490G00008162"},{"icsId":"1010602","id":"490010602N","lat":51.584106,"lon":-0.147033,"name":"Onslow Gardens","parentId":"490G00010602","stationId":"490G00010602","stopLetter":"C","topMostParentId":"490G00010602"},{"icsId":"1005712","id":"490005712N","lat":51.586509,"lon":-0.147152,"name":"Cranley Gardens","parentId":"490G00005712","stationId":"490G00005712","stopLetter":"->N","topMostParentId":"490G00005712"},{"icsId":"1005250","id":"490006948M","lat":51.589229,"lon":-0.145698,"name":"Fortis Green Road","parentId":"490G00005250","stationId":"490G00005250","stopLetter":"M","topMostParentId":"490G00005250"},{"icsId":"1015187","id":"490015187F","lat":51.590812,"lon":-0.14292,"name":"Muswell Hill","parentId":"490G00015187","stationId":"490G00015187","stopLetter":"F","topMostParentId":"490G00015187"},{"icsId":"1015186","id":"490015186A","lat":51.591849,"lon":-0.143094,"name":"Queens Avenue","parentId":"490G00015186","stationId":"490G00015186","stopLetter":"A","topMostParentId":"490G00015186"},{"icsId":"1009765","id":"490009765N","lat":51.594194,"lon":-0.144644,"name":"Meadow Drive","parentId":"490G00009765","stationId":"490G00009765","stopLetter":"CA","topMostParentId":"490G00009765"},{"icsId":"1003212","id":"490003212N","lat":51.596203,"lon":-0.145443,"name":"Alexandra Park Road","parentId":"490G00003212","stationId":"490G00003212","stopLetter":"CB","topMostParentId":"490G00003212"},{"icsId":"1014725","id":"490014725N","lat":51.599325,"lon":-0.147265,"name":"Wilton Road","parentId":"490G00014725","stationId":"490G00014725","stopLetter":"CC","topMostParentId":"490G00014725"},{"icsId":"1010896","id":"490010896N","lat":51.60235,"lon":-0.148081,"name":"Pembroke Road / St Peters Church","parentId":"490G00010896","stationId":"490G00010896","stopLetter":"CD","topMostParentId":"490G00010896"},{"icsId":"1007714","id":"490007714N","lat":51.604113,"lon":-0.148673,"name":"Hampden Road","parentId":"490G00007714","stationId":"490G00007714","stopLetter":"CE","topMostParentId":"490G00007714"},{"icsId":"1010327","id":"490010327N","lat":51.607368,"lon":-0.152671,"name":"North Circular Road","parentId":"490G00010327","stationId":"490G00010327","stopLetter":"CH","topMostParentId":"490G00010327"},{"icsId":"1006852","id":"490006852N","lat":51.609479,"lon":-0.153654,"name":"Firs Avenue","parentId":"490G00006852","stationId":"490G00006852","stopLetter":"CJ","topMostParentId":"490G00006852"},{"icsId":"1003443","id":"490008237N","lat":51.611435,"lon":-0.156233,"name":"Hillside Avenue","parentId":"490G00003443","stationId":"490G00003443","stopLetter":"FJ","topMostParentId":"490G00003443"},{"icsId":"1007029","id":"490007029N","lat":51.612503,"lon":-0.15837,"name":"Friern Barnet Road","parentId":"490G00007029","stationId":"490G00007029","stopLetter":"FK","topMostParentId":"490G00007029"},{"icsId":"1007030","id":"490007030W","lat":51.612544,"lon":-0.159264,"name":"Colney Hatch Lane","parentId":"490G00007030","stationId":"490G00007030","stopLetter":"FL","topMostParentId":"490G00007030"},{"icsId":"1012994","id":"490012994W","lat":51.611591,"lon":-0.162769,"name":"Summers Lane","parentId":"490G00012994","stationId":"490G00012994","stopLetter":"FP","topMostParentId":"490G00012994"},{"icsId":"1005749","id":"490005749W","lat":51.611401,"lon":-0.16555,"name":"Crescent Way","parentId":"490G00005749","stationId":"490G00005749","stopLetter":"FQ","topMostParentId":"490G00005749"},{"icsId":"1008250","id":"490008250W","lat":51.611115,"lon":-0.167988,"name":"Woodhouse College","parentId":"490G00008250","stationId":"490G00008250","stopLetter":"FR","topMostParentId":"490G00008250"},{"icsId":"1007581","id":"490007575W","lat":51.611862,"lon":-0.172637,"name":"Churchfield Avenue","parentId":"490G00007581","stationId":"490G00007581","stopLetter":"G","topMostParentId":"490G00007581"},{"icsId":"1010369","id":"490010369H","lat":51.612332,"lon":-0.175074,"name":"North Finchley High Road","parentId":"490G00010369","stationId":"490G00010369","stopLetter":"H","topMostParentId":"490G00010369"},{"icsId":"1013149","id":"490013149Z2","lat":51.614024,"lon":-0.176927,"name":"Tally Ho Corner","parentId":"490G00013149","stationId":"490G00013149","stopLetter":"Z2","topMostParentId":"490G00013149"}]}]}