{"direction":"inbound","lineId":"139","lineName":"139","mode":"bus","stopPointSequences":[{"stopPoint":[{"icsId":"1003713","id":"490000254J","lat":51.504266,"lon":-0.113458,"name":"Waterloo Station / Tenison Way","parentId":"490G000402","stationId":"490G000402","stopLetter":"J","topMostParentId":"HUBWAT"},{"icsId":"1014271","id":"490014270P","lat":51.506261,"lon":-0.115004,"name":"Waterloo Bridge / South Bank","parentId":"490G000819","stationId":"490G000819","stopLetter":"P","topMostParentId":"HUBWAT"},{"icsId":"1008932","id":"490008932T","lat":51.510523,"lon":-0.118935,"name":"Lancaster Place","parentId":"490G00008932","stationId":"490G00008932","stopLetter":"T","topMostParentId":"490G00008932"},{"icsId":"1011938","id":"490011938U","lat":51.510773,"lon":-0.120481,"name":"Savoy Street","parentId":"490G000737","stationId":"490G000737","stopLetter":"U","topMostParentId":"490G000737"},{"icsId":"1003112","id":"490003112J","lat":51.509674,"lon":-0.123193,"name":"Bedford Street","parentId":"490G00003112","stationId":"490G00003112","stopLetter":"J","topMostParentId":"490G00003112"},{"icsId":"1000045","id":"490013766H","lat":51.508435,"lon":-0.12552,"name":"Charing Cross Station","parentId":"490G00045","stationId":"490G00045","stopLetter":"H","topMostParentId":"HUBCHX","zone":"1"},{"icsId":"1013767","id":"490013767T","lat":51.507533,"lon":-0.129909,"name":"Trafalgar Square","parentId":"490G000804","stationId":"490G000804","stopLetter":"T","topMostParentId":"490G000804"},{"icsId":"1011516","id":"490011515Z","lat":51.508733,"lon":-0.134068,"name":"Regent Street / St James's","parentId":"490G00011516","stationId":"490G00011516","stopLetter":"Z","topMostParentId":"490G00011516"},{"icsId":"1000179","id":"490000179C","lat":51.50986,"lon":-0.135996,"name":"Piccadilly Circus","parentId":"490G00179C","stationId":"490G00179C","stopLetter":"C","topMostParentId":"940GZZLUPCC","zone":"1"},{"icsId":"1000393","id":"490005537RA","lat":51.511268,"lon":-0.139138,"name":"Beak Street / Hamleys Toy Store","parentId":"490G000041","stationId":"490G000041","stopLetter":"L","topMostParentId":"490G000041"},{"icsId":"1015200","id":"490000173W","lat":51.51484,"lon":-0.144945,"name":"Oxford Street / John Lewis","parentId":"490G00015200","stationId":"490G00015200","stopLetter":"OV","topMostParentId":"490G00015200"},{"icsId":"1011985","id":"490011985W","lat":51.514043,"lon":-0.151996,"name":"Selfridges","parentId":"490G000738","stationId":"490G000738","topMostParentId":"490G000738"},{"icsId":"1010622","id":"490010622BA","lat":51.514609,"lon":-0.154222,"name":"Orchard Street / Selfridges","parentId":"490G00010622","stationId":"490G00010622","stopLetter":"BA","topMostParentId":"490G00010622"},{"icsId":"1020105","id":"490002121Z","lat":51.51689,"lon":-0.155153,"name":"Portman Square","parentId":"490G00020105","stationId":"490G00020105","topMostParentId":"490G00020105"},{"icsId":"1009990","id":"490011124F","lat":51.520822,"lon":-0.157012,"name":"York Street","parentId":"490G00011124","stationId":"490G00011124","stopLetter":"F","topMostParentId":"490G00011124"},{"icsId":"1000011","id":"490000011ZZ","lat":51.522817,"lon":-0.158099,"name":"Baker Street Station","parentId":"490G00011B","stationId":"490G00011B","stopLetter":"->N","topMostParentId":"940GZZLUBST","zone":"1"},{"id":"490002122Z","lat":51.524793,"lon":-0.159634,"name":"Park Road  Ivor Place","parentId":"490G000344","stationId":"490G000344","topMostParentId":"490G000344"},{"icsId":"1010797","id":"490010797W","lat":51.525403,"lon":-0.162463,"name":"Park Road / London Business School","parentId":"490G00010797","stationId":"490G00010797","stopLetter":"LM","topMostParentId":"490G00010797"},{"icsId":"1011717","id":"490011717W","lat":51.524371,"lon":-0.166599,"name":"Rossmore Road / Lisson Grove","parentId":"490G00011717","stationId":"490G00011717","stopLetter":"LN","topMostParentId":"490G00011717"},{"icsId":"1006979","id":"490005311N2","lat":51.525625,"lon":-0.17034,"name":"Frampton Street","parentId":"490G00006979","stationId":"490G00006979","stopLetter":"LR","topMostParentId":"490G00006979"},{"icsId":"1006984","id":"490006979N","lat":51.527087,"lon":-0.173511,"name":"St John's Wood Road / Lord's Cricket Grd","parentId":"490G00006984","stationId":"490G00006984","stopLetter":"LS","topMostParentId":"490G00006984"},{"icsId":"1015334","id":"490015334N","lat":51.529977,"lon":-0.17661,"name":"Hall Road","parentId":"490G00015334","stationId":"490G00015334","stopLetter":"G","topMostParentId":"490G00015334"},{"icsId":"1003030","id":"490003030N","lat":51.532442,"lon":-0.177838,"name":"Abbey Road Studios / Grove End Road","parentId":"490G00003030","stationId":"490G00003030","stopLetter":"R","topMostParentId":"490G00003030"},{"icsId":"1009675","id":"490009675N","lat":51.534986,"lon":-0.180735,"name":"Marlborough Place","parentId":"490G00009675","stationId":"490G00009675","stopLetter":"E","topMostParentId":"490G00009675"},{"icsId":"1004187","id":"490004187N","lat":51.537577,"lon":-0.184252,"name":"Boundary Road","parentId":"490G00004187","stationId":"490G00004187","stopLetter":"F","topMostParentId":"490G00004187"},{"icsId":"1018983","id":"490003027N","lat":51.538969,"lon":-0.186474,"name":"Belsize Road","parentId":"490G00018983","stationId":"490G00018983","stopLetter":"G","topMostParentId":"490G00018983"},{"icsId":"1011237","id":"490011237N","lat":51.540497,"lon":-0.188764,"name":"Priory Road","parentId":"490G00011237","stationId":"490G00011237","stopLetter":"H","topMostParentId":"490G00011237"},{"icsId":"1003068","id":"490003068N","lat":51.541536,"lon":-0.192559,"name":"West End Lane","parentId":"490G00003068","stationId":"490G00003068","stopLetter":"J","topMostParentId":"490G00003068"},{"icsId":"1014819","id":"490014819N","lat":51.542768,"lon":-0.193159,"name":"Woodchurch Road","parentId":"490G00014819","stationId":"490G00014819","stopLetter":"M","topMostParentId":"490G00014819"},{"icsId":"1000826","id":"490012082A","lat":51.545871,"lon":-0.191421,"name":"West Hampstead Stn / Broadhurst Gdns","parentId":"490G000160","stationId":"490G000160","stopLetter":"A","topMostParentId":"490G000160"},{"icsId":"1001330","id":"490001330N","lat":51.548456,"lon":-0.191116,"name":"West Hampstead Station","parentId":"490G01330N","stationId":"490G01330N","stopLetter":"N","topMostParentId":"HUBWHD"},{"icsId":"1006041","id":"490006041F","lat":51.549731,"lon":-0.1916,"name":"Dennington Park Road","parentId":"490G000484","stationId":"490G000484","stopLetter":"P","topMostParentId":"490G000484"},{"icsId":"1014431","id":"490014431N","lat":51.5514,"lon":-0.191923,"name":"West End Green","parentId":"490G00014431","stationId":"490G00014431","stopLetter":"R","topMostParentId":"490G00014431"},{"icsId":"1014468","id":"490014468N","lat":51.553054,"lon":-0.194223,"name":"West Hampstead Police Station","parentId":"490G00014468","stationId":"490G00014468","stopLetter":"CL","topMostParentId":"490G00014468"},{"icsId":"1006951","id":"490006951N","lat":51.554759,"lon":-0.196954,"name":"Fortune Green","parentId":"490G00006951","stationId":"490G00006951","stopLetter":"CM","topMostParentId":"490G00006951"},{"icsId":"1006953","id":"490006953N","lat":51.557014,"lon":-0.196215,"name":"Finchley Road","parentId":"490G00006953","stationId":"490G00006953","stopLetter":"CN","topMostParentId":"490G00006953"},{"icsId":"1009462","id":"490015362N","lat":51.560337,"lon":-0.197108,"name":"Lyndale Avenue","parentId":"490G00009462","stationId":"490G00009462","stopLetter":"K","topMostParentId":"490G00009462"},{"icsId":"1005160","id":"490005160N","lat":51.562284,"lon":-0.197421,"name":"Childs Hill / Cricklewood Lane","parentId":"490G00005160","stationId":"490G00005160","stopLetter":"L","topMostParentId":"490G00005160"},{"icsId":"1009232","id":"490009232N","lat":51.565075,"lon":-0.196445,"name":"Llanvanor Road","parentId":"490G00009232","stationId":"490G00009232","stopLetter":"M","topMostParentId":"490G00009232"},{"icsId":"1006262","id":"490006262N","lat":51.567555,"lon":-0.195178,"name":"Dunstan Road","parentId":"490G00006262","stationId":"490G00006262","stopLetter":"N","topMostParentId":"490G00006262"},{"icsId":"1007267","id":"490007267GM","lat":51.571093,"lon":-0.195456,"name":"Golders Green / Finchley Road","parentId":"490G00007267","stationId":"490G00007267","stopLetter":"GM","topMostParentId":"490G00007267"},{"icsId":"1000087","id":"490000087GF","lat":51.571801,"lon":-0.194101,"name":"Golders Green Station","parentId":"490G00087GB","stationId":"490G00087GB","stopLetter":"GF","topMostParentId":"940GZZLUGGN","zone":"3"}]}]}