{"direction":"inbound","lineId":"141","lineName":"141","mode":"bus","stopPointSequences":[{"stopPoint":[{"icsId":"1019954","id":"490000139C","lat":51.505136,"lon":-0.086635,"name":"London Bridge Station","parentId":"490G000970","stationId":"490G000970","stopLetter":"C","topMostParentId":"HUBLBG"},{"icsId":"1018542","id":"490000139M","lat":51.506555,"lon":-0.088175,"name":"London Bridge","parentId":"490G000922","stationId":"490G000922","stopLetter":"M","topMostParentId":"HUBLBG"},{"icsId":"1000148","id":"490009267D","lat":51.509466,"lon":-0.087476,"name":"Monument Station","parentId":"490G09267E","stationId":"490G09267E","stopLetter":"Q","topMostParentId":"940GZZLUMMT","zone":"1"},{"icsId":"1007607","id":"490000013F","lat":51.512263,"lon":-0.088051,"name":"Bank Station  / King William Street","parentId":"490G000557","stationId":"490G000557","stopLetter":"F","topMostParentId":"HUBBAN"},{"icsId":"1011218","id":"490011218A","lat":51.514312,"lon":-0.089652,"name":"Bank Station  / Princes Street","parentId":"490G000713","stationId":"490G000713","stopLetter":"A","topMostParentId":"HUBBAN"},{"icsId":"1009290","id":"490009290N","lat":51.516471,"lon":-0.089129,"name":"London Wall","parentId":"490G00009290","stationId":"490G00009290","topMostParentId":"490G00009290"},{"icsId":"1000149","id":"490000149B","lat":51.518623,"lon":-0.088174,"name":"Moorgate Station","parentId":"490G00149L","stationId":"490G00149L","stopLetter":"B","topMostParentId":"HUBZMG","zone":"1"},{"icsId":"1006850","id":"490015209D","lat":51.521234,"lon":-0.087257,"name":"Finsbury Square","parentId":"490G00006850","stationId":"490G00006850","stopLetter":"D","topMostParentId":"490G00006850"},{"icsId":"1000169","id":"490015195N","lat":51.523828,"lon":-0.087509,"name":"Old Street Station","parentId":"490G15194G","stationId":"490G15194G","stopLetter":"N","topMostParentId":"HUBOLD","zone":"1"},{"icsId":"1010012","id":"490011249A","lat":51.528219,"lon":-0.08881,"name":"Moorfields Eye Hospital","parentId":"490G00010012","stationId":"490G00010012","stopLetter":"A","topMostParentId":"490G00010012"},{"icsId":"1003960","id":"490010126N","lat":51.530508,"lon":-0.086321,"name":"Bevenden Street","parentId":"490G00003960","stationId":"490G00003960","stopLetter":"XP","topMostParentId":"490G00003960"},{"icsId":"1009942","id":"490009942N","lat":51.532618,"lon":-0.087242,"name":"Mintern Street","parentId":"490G00009942","stationId":"490G00009942","stopLetter":"XQ","topMostParentId":"490G00009942"},{"icsId":"1006289","id":"490006289N","lat":51.535002,"lon":-0.088987,"name":"Eagle Wharf Road","parentId":"490G00006289","stationId":"490G00006289","stopLetter":"XR","topMostParentId":"490G00006289"},{"icsId":"1003601","id":"490003601N2","lat":51.536618,"lon":-0.088804,"name":"Baring Street","parentId":"490G00003601","stationId":"490G00003601","stopLetter":"XE","topMostParentId":"490G00003601"},{"icsId":"1006169","id":"490006169N1","lat":51.539144,"lon":-0.085987,"name":"Downham Road","parentId":"490G00006169","stationId":"490G00006169","stopLetter":"XF","topMostParentId":"490G00006169"},{"icsId":"1015109","id":"490015109W","lat":51.541315,"lon":-0.085132,"name":"Northchurch Road","parentId":"490G00015109","stationId":"490G00015109","stopLetter":"XH","topMostParentId":"490G00015109"},{"icsId":"1006593","id":"490006593N","lat":51.542808,"lon":-0.084565,"name":"Englefield Road","parentId":"490G00006593","stationId":"490G00006593","stopLetter":"BJ","topMostParentId":"490G00006593"},{"icsId":"1015133","id":"490015133N","lat":51.546304,"lon":-0.08387,"name":"Balls Pond Road","parentId":"490G00015133","stationId":"490G00015133","stopLetter":"BK","topMostParentId":"490G00015133"},{"icsId":"1009870","id":"490009870N","lat":51.547842,"lon":-0.084468,"name":"Mildmay Library","parentId":"490G00009870","stationId":"490G00009870","stopLetter":"BL","topMostParentId":"490G00009870"},{"icsId":"1009872","id":"490009872N","lat":51.550022,"lon":-0.084723,"name":"Newington Green / Mildmay Road","parentId":"490G00009872","stationId":"490G00009872","stopLetter":"NJ","topMostParentId":"490G00009872"},{"icsId":"1015396","id":"490015396NK","lat":51.551693,"lon":-0.08572,"name":"Newington Green","parentId":"490G000893","stationId":"490G000893","stopLetter":"NK","topMostParentId":"490G000893"},{"icsId":"1003114","id":"490009055N","lat":51.553726,"lon":-0.088477,"name":"Aden Grove","parentId":"490G00003114","stationId":"490G00003114","stopLetter":"NL","topMostParentId":"490G00003114"},{"icsId":"1004600","id":"490004600N","lat":51.555266,"lon":-0.089754,"name":"Petherton Road","parentId":"490G00004600","stationId":"490G00004600","stopLetter":"NN","topMostParentId":"490G00004600"},{"icsId":"1012836","id":"490012836N","lat":51.558232,"lon":-0.09074,"name":"Green Lanes / Stoke Newington Church St","parentId":"490G00012836","stationId":"490G00012836","stopLetter":"PP","topMostParentId":"490G00012836"},{"icsId":"1016700","id":"490016700N","lat":51.559447,"lon":-0.091396,"name":"Riversdale Road","parentId":"490G00016700","stationId":"490G00016700","stopLetter":"PR","topMostParentId":"490G00016700"},{"icsId":"1008767","id":"490008766N","lat":51.561019,"lon":-0.091807,"name":"Kings Crescent Estate","parentId":"490G00008767","stationId":"490G00008767","stopLetter":"PU","topMostParentId":"490G00008767"},{"icsId":"1004519","id":"490004519N","lat":51.563301,"lon":-0.09223,"name":"Brownswood Road","parentId":"490G00004519","stationId":"490G00004519","stopLetter":"PV","topMostParentId":"490G00004519"},{"icsId":"1004955","id":"490004955N","lat":51.566059,"lon":-0.093717,"name":"Myddleton Avenue","parentId":"490G00004955","stationId":"490G00004955","stopLetter":"M","topMostParentId":"490G00004955"},{"icsId":"1011127","id":"490011127N","lat":51.567451,"lon":-0.094192,"name":"Gloucester Drive","parentId":"490G00011127","stationId":"490G00011127","stopLetter":"N","topMostParentId":"490G00011127"},{"icsId":"1000142","id":"490015501K","lat":51.5703,"lon":-0.095747,"name":"Manor House Station","parentId":"490G00142J","stationId":"490G00142J","stopLetter":"K","topMostParentId":"940GZZLUMRH","zone":"2+3"},{"icsId":"1011748","id":"490000142A","lat":51.571319,"lon":-0.096469,"name":"Manor House Station  / Woodberry Grove","parentId":"490G000730","stationId":"490G000730","stopLetter":"A","topMostParentId":"490G000730"},{"icsId":"1011743","id":"490011743HD","lat":51.572988,"lon":-0.097381,"name":"Rowley Gardens","parentId":"490G00011743","stationId":"490G00011743","stopLetter":"HD","topMostParentId":"490G00011743"},{"icsId":"1006574","id":"490008082HE","lat":51.575183,"lon":-0.098501,"name":"Endymion Road","parentId":"490G00006574","stationId":"490G00006574","stopLetter":"HE","topMostParentId":"490G00006574"},{"icsId":"1001139","id":"490001139HF","lat":51.57722,"lon":-0.098835,"name":"Harringay Green Lanes Station","parentId":"490G01139HO","stationId":"490G01139HO","stopLetter":"HF","topMostParentId":"910GHRGYGL"},{"icsId":"1009719","id":"490009719HG","lat":51.579998,"lon":-0.09934,"name":"Mattison Road","parentId":"490G00009719","stationId":"490G00009719","stopLetter":"HG","topMostParentId":"490G00009719"},{"icsId":"1012434","id":"490012434HH","lat":51.58174,"lon":-0.099714,"name":"St Ann's Road","parentId":"490G00012434","stationId":"490G00012434","stopLetter":"HH","topMostParentId":"490G00012434"},{"icsId":"1003916","id":"490003916HJ","lat":51.584049,"lon":-0.100123,"name":"Beresford Road","parentId":"490G00003916","stationId":"490G00003916","stopLetter":"HJ","topMostParentId":"490G00003916"},{"icsId":"1006728","id":"490006728N","lat":51.586752,"lon":-0.10105,"name":"Falkland Road","parentId":"490G00006728","stationId":"490G00006728","stopLetter":"V","topMostParentId":"490G00006728"},{"icsId":"1000241","id":"490015475U","lat":51.589169,"lon":-0.10258,"name":"Turnpike Lane Station","parentId":"490G00241M","stationId":"490G00241M","stopLetter":"U","topMostParentId":"940GZZLUTPN","zone":"3"},{"icsId":"1009461","id":"490000241L","lat":51.592028,"lon":-0.10532,"name":"Brampton Park Road","parentId":"490G00009461","stationId":"490G00009461","stopLetter":"L","topMostParentId":"490G00009461"},{"icsId":"1009469","id":"490009461J","lat":51.594098,"lon":-0.108193,"name":"Wood Green Shopping City","parentId":"490G00009469","stationId":"490G00009469","stopLetter":"J","topMostParentId":"490G00009469"},{"icsId":"1000275","id":"490015567H","lat":51.59659,"lon":-0.109952,"name":"Wood Green Station","parentId":"490G00275D","stationId":"490G00275D","stopLetter":"H","topMostParentId":"940GZZLUWOG","zone":"3"},{"icsId":"1007797","id":"490007797N","lat":51.599977,"lon":-0.111429,"name":"Haringey Civic Centre","parentId":"490G00007797","stationId":"490G00007797","stopLetter":"BP","topMostParentId":"490G00007797"},{"icsId":"1010274","id":"490010274N","lat":51.602688,"lon":-0.112298,"name":"Nightingale Road","parentId":"490G00010274","stationId":"490G00010274","stopLetter":"BQ","topMostParentId":"490G00010274"},{"icsId":"1009709","id":"490012152N","lat":51.605745,"lon":-0.111666,"name":"Arcadian Gardens","parentId":"490G00009709","stationId":"490G00009709","stopLetter":"BR","topMostParentId":"490G00009709"},{"icsId":"1003875","id":"490003875N","lat":51.609165,"lon":-0.110195,"name":"Berkshire Gardens","parentId":"490G00003875","stationId":"490G00003875","stopLetter":"BS","topMostParentId":"490G00003875"},{"icsId":"1010333","id":"490010333T","lat":51.611046,"lon":-0.109742,"name":"Tottenhall Road","parentId":"490G00010333","stationId":"490G00010333","stopLetter":"T","topMostParentId":"490G00010333"}]}]}