{"direction":"inbound","lineId":"143","lineName":"143","mode":"bus","stopPointSequences":[{"stopPoint":[{"icsId":"1000008","id":"490000008NW","lat":51.566105,"lon":-0.135197,"name":"Archway Station","parentId":"490G00008O","stationId":"490G00008O","stopLetter":"E","topMostParentId":"940GZZLUACY","zone":"2+3"},{"icsId":"1019132","id":"490014625A","lat":51.567036,"lon":-0.137785,"name":"Whittington Hospital / Magdala Avenue","parentId":"490G00019132","stationId":"490G00019132","stopLetter":"A","topMostParentId":"490G00019132"},{"icsId":"1014276","id":"490014276S","lat":51.569401,"lon":-0.142869,"name":"Waterlow Park / Lauderdale House","parentId":"490G00014276","stationId":"490G00014276","stopLetter":"HS","topMostParentId":"490G00014276"},{"icsId":"1004038","id":"490004038R","lat":51.570322,"lon":-0.145963,"name":"Bisham Gardens","parentId":"490G00004038","stationId":"490G00004038","stopLetter":"K","topMostParentId":"490G00004038"},{"icsId":"1012303","id":"490012303W","lat":51.570897,"lon":-0.148797,"name":"South Grove","parentId":"490G00012303","stationId":"490G00012303","stopLetter":"S","topMostParentId":"490G00012303"},{"icsId":"1008160","id":"490008160N","lat":51.572345,"lon":-0.14995,"name":"Highgate School","parentId":"490G00008160","stationId":"490G00008160","stopLetter":"L","topMostParentId":"490G00008160"},{"icsId":"1008207","id":"490008207N","lat":51.575176,"lon":-0.150427,"name":"Hillcrest Estate","parentId":"490G00008207","stationId":"490G00008207","stopLetter":"N","topMostParentId":"490G00008207"},{"icsId":"1008159","id":"490008159N","lat":51.577651,"lon":-0.152823,"name":"Highgate Group Practice","parentId":"490G00008159","stationId":"490G00008159","stopLetter":"A","topMostParentId":"490G00008159"},{"icsId":"1010379","id":"490010379N","lat":51.579804,"lon":-0.154785,"name":"North Hill Avenue","parentId":"490G00010379","stationId":"490G00010379","stopLetter":"M","topMostParentId":"490G00010379"},{"icsId":"1014894","id":"490014894N","lat":51.58252,"lon":-0.15824,"name":"Woodside Avenue","parentId":"490G00014894","stationId":"490G00014894","stopLetter":"K","topMostParentId":"490G00014894"},{"icsId":"1013265","id":"490013265N","lat":51.585323,"lon":-0.163237,"name":"The Bishops Avenue","parentId":"490G00013265","stationId":"490G00013265","stopLetter":"D","topMostParentId":"490G00013265"},{"icsId":"1000067","id":"490000067E","lat":51.586589,"lon":-0.164254,"name":"East Finchley Station","parentId":"490G00067G","stationId":"490G00067G","stopLetter":"E","topMostParentId":"940GZZLUEFY","zone":"3"},{"icsId":"1013254","id":"490013254I","lat":51.588647,"lon":-0.164171,"name":"Fairlawn Avenue","parentId":"490G00013254","stationId":"490G00013254","stopLetter":"S","topMostParentId":"490G00013254"},{"icsId":"1003043","id":"490003043W","lat":51.589194,"lon":-0.169851,"name":"Abbots Gardens","parentId":"490G00003043","stationId":"490G00003043","topMostParentId":"490G00003043"},{"icsId":"1013799","id":"490013799W","lat":51.590782,"lon":-0.173642,"name":"Trinity Avenue","parentId":"490G00013799","stationId":"490G00013799","topMostParentId":"490G00013799"},{"icsId":"1010656","id":"490010656W2","lat":51.592009,"lon":-0.179714,"name":"Ossulton Way","parentId":"490G00010656","stationId":"490G00010656","stopLetter":"G","topMostParentId":"490G00010656"},{"icsId":"1006353","id":"490006353E1","lat":51.592869,"lon":-0.181816,"name":"East Finchley Cemetery","parentId":"490G00006353","stationId":"490G00006353","stopLetter":"H","topMostParentId":"490G00006353"},{"icsId":"1003670","id":"490003670W","lat":51.594582,"lon":-0.186729,"name":"Basing Way","parentId":"490G00003670","stationId":"490G00003670","stopLetter":"D","topMostParentId":"490G00003670"},{"icsId":"1019117","id":"490019117E","lat":51.599444,"lon":-0.183041,"name":"Vineyard Grove","parentId":"490G00019117","stationId":"490G00019117","topMostParentId":"490G00019117"},{"icsId":"1019119","id":"490019119N","lat":51.601163,"lon":-0.183738,"name":"Oakfield Road","parentId":"490G00019119","stationId":"490G00019119","topMostParentId":"490G00019119"},{"icsId":"1014094","id":"490014094N","lat":51.60261,"lon":-0.185456,"name":"Vines Avenue","parentId":"490G00014094","stationId":"490G00014094","stopLetter":"->N","topMostParentId":"490G00014094"},{"icsId":"1009322","id":"490009322B","lat":51.604138,"lon":-0.189468,"name":"Long Lane","parentId":"490G00009322","stationId":"490G00009322","stopLetter":"B","topMostParentId":"490G00009322"},{"icsId":"1000081","id":"490000081D","lat":51.602167,"lon":-0.192246,"name":"Finchley Central Station","parentId":"490G00081W","stationId":"490G00081W","stopLetter":"D","topMostParentId":"940GZZLUFYC","zone":"4"},{"icsId":"1008054","id":"490008054H","lat":51.599461,"lon":-0.195848,"name":"Hendon Lane","parentId":"490G00008054","stationId":"490G00008054","stopLetter":"H","topMostParentId":"490G00008054"},{"icsId":"1006337","id":"490006337S","lat":51.597911,"lon":-0.197339,"name":"East End Road","parentId":"490G00006337","stationId":"490G00006337","stopLetter":"S","topMostParentId":"490G00006337"},{"icsId":"1007385","id":"490007385N","lat":51.597653,"lon":-0.198706,"name":"Gravel Hill","parentId":"490G00007385","stationId":"490G00007385","stopLetter":"L","topMostParentId":"490G00007385"},{"icsId":"1012787","id":"490012787W","lat":51.597329,"lon":-0.201607,"name":"St Mary's Avenue","parentId":"490G00012787","stationId":"490G00012787","stopLetter":"M","topMostParentId":"490G00012787"},{"icsId":"1003366","id":"490003366S","lat":51.594964,"lon":-0.205165,"name":"Arden Road","parentId":"490G00003366","stationId":"490G00003366","stopLetter":"N","topMostParentId":"490G00003366"},{"icsId":"1005803","id":"490005803S","lat":51.593265,"lon":-0.208149,"name":"Crooked Usage","parentId":"490G00005803","stationId":"490G00005803","topMostParentId":"490G00005803"},{"icsId":"1007422","id":"490007411W2","lat":51.592002,"lon":-0.21022,"name":"Broughton Avenue","parentId":"490G00007422","stationId":"490G00007422","stopLetter":"->W","topMostParentId":"490G00007422"},{"icsId":"1007411","id":"490007411W1","lat":51.590538,"lon":-0.213323,"name":"Great North Way","parentId":"490G00007411","stationId":"490G00007411","stopLetter":"->W","topMostParentId":"490G00007411"},{"icsId":"1003218","id":"490003218W","lat":51.589794,"lon":-0.216398,"name":"Alexandra Road","parentId":"490G00003218","stationId":"490G00003218","stopLetter":"->W","topMostParentId":"490G00003218"},{"icsId":"1013512","id":"490013512T","lat":51.589539,"lon":-0.220927,"name":"The Quadrant","parentId":"490G00013512","stationId":"490G00013512","stopLetter":"T","topMostParentId":"490G00013512"},{"icsId":"1005253","id":"490005253R","lat":51.589945,"lon":-0.225184,"name":"Church End","parentId":"490G00005253","stationId":"490G00005253","stopLetter":"R","topMostParentId":"490G00005253"},{"icsId":"1008056","id":"490008056P","lat":51.58819,"lon":-0.22863,"name":"Hendon Town Hall","parentId":"490G00008056","stationId":"490G00008056","stopLetter":"P","topMostParentId":"490G00008056"},{"icsId":"1015519","id":"490015519N","lat":51.586539,"lon":-0.230095,"name":"Watford Way","parentId":"490G00015519","stationId":"490G00015519","stopLetter":"N","topMostParentId":"490G00015519"},{"icsId":"1008057","id":"490008057J","lat":51.58584,"lon":-0.230237,"name":"Hendon War Memorial","parentId":"490G00008057","stationId":"490G00008057","stopLetter":"J","topMostParentId":"490G00008057"},{"icsId":"1000106","id":"490000106G","lat":51.583882,"lon":-0.22799,"name":"Hendon Central Station","parentId":"490G00106G","stationId":"490G00106G","stopLetter":"G","topMostParentId":"940GZZLUHCL","zone":"3+4"},{"icsId":"1003724","id":"490003724S","lat":51.579893,"lon":-0.225273,"name":"Beaufort Gardens","parentId":"490G00003724","stationId":"490G00003724","topMostParentId":"490G00003724"},{"icsId":"1003096","id":"490010329H","lat":51.577477,"lon":-0.219522,"name":"North Circular Road","parentId":"490G00003096","stationId":"490G00003096","stopLetter":"H","topMostParentId":"490G00003096"},{"icsId":"1011191","id":"490011191F","lat":51.576424,"lon":-0.220082,"name":"Prince Charles Drive","parentId":"490G00011191","stationId":"490G00011191","stopLetter":"F","topMostParentId":"490G00011191"},{"icsId":"1004282","id":"490004282A","lat":51.575649,"lon":-0.223519,"name":"Brent Cross Shopping Centre","parentId":"490G00004282","stationId":"490G00004282","stopLetter":"A","topMostParentId":"490G00004282"}]}]}