{"direction":"inbound","lineId":"148","lineName":"148","mode":"bus","stopPointSequences":[{"stopPoint":[{"icsId":"1003375","id":"490003375WK","lat":51.508569,"lon":-0.223694,"name":"White City Bus Station","parentId":"490G00003375","stationId":"490G00003375","stopLetter":"WK","topMostParentId":"490G00003375"},{"icsId":"1018981","id":"490003375WB","lat":51.507412,"lon":-0.224502,"name":"Ariel Way / White City Bus Station","parentId":"490G00018981","stationId":"490G00018981","stopLetter":"WB","topMostParentId":"490G00018981"},{"icsId":"1009501","id":"490009501C","lat":51.505731,"lon":-0.224539,"name":"Uxbridge Rd / Westfield Shopping Centre","parentId":"490G000650","stationId":"490G000650","stopLetter":"T","topMostParentId":"490G000650"},{"icsId":"1000203","id":"490015059G","lat":51.504522,"lon":-0.220148,"name":"Shepherd's Bush Station","parentId":"490G00203A","stationId":"490G00203A","stopLetter":"X","topMostParentId":"HUBSPB","zone":"2"},{"icsId":"1008651","id":"490008651E","lat":51.505258,"lon":-0.214125,"name":"Royal Crescent","parentId":"490G00008651","stationId":"490G00008651","stopLetter":"HJ","topMostParentId":"490G00008651"},{"icsId":"1010305","id":"490010305E","lat":51.506112,"lon":-0.20997,"name":"Norland Square","parentId":"490G00010305","stationId":"490G00010305","stopLetter":"HK","topMostParentId":"490G00010305"},{"icsId":"1000113","id":"490000113T","lat":51.507607,"lon":-0.204839,"name":"Holland Park Station","parentId":"490G00113G","stationId":"490G00113G","stopLetter":"HL","topMostParentId":"940GZZLUHPK","zone":"2"},{"icsId":"1019162","id":"490015465D","lat":51.508839,"lon":-0.198378,"name":"Notting Hill Gate Stn  / Hillgate St","parentId":"490G00019162","stationId":"490G00019162","stopLetter":"D","topMostParentId":"490G00019162"},{"icsId":"1015463","id":"490015463M","lat":51.509716,"lon":-0.193429,"name":"Palace Gardens Terrace","parentId":"490G000897","stationId":"490G000897","stopLetter":"M","topMostParentId":"490G000897"},{"icsId":"1010632","id":"490010632T","lat":51.510183,"lon":-0.189275,"name":"Orme Square","parentId":"490G00010632","stationId":"490G00010632","stopLetter":"T","topMostParentId":"490G00010632"},{"icsId":"1000187","id":"490000187C","lat":51.510466,"lon":-0.18667,"name":"Queensway Station","parentId":"490G00187B","stationId":"490G00187B","stopLetter":"C","topMostParentId":"940GZZLUQWY","zone":"1"},{"icsId":"1009081","id":"49009081LF","lat":51.510728,"lon":-0.182077,"name":"Leinster Terrace","parentId":"490G00009081","stationId":"490G00009081","stopLetter":"LF","topMostParentId":"490G00009081"},{"icsId":"1003121","id":"49003121LE","lat":51.511144,"lon":-0.179336,"name":"Lancaster Gate","parentId":"490G00003121","stationId":"490G00003121","stopLetter":"LE","topMostParentId":"490G00003121"},{"icsId":"1000133","id":"490000133Z","lat":51.5118,"lon":-0.175261,"name":"Lancaster Gate Station","parentId":"490G00133B","stationId":"490G00133B","stopLetter":"LK","topMostParentId":"940GZZLULGT","zone":"1"},{"icsId":"1014055","id":"490014055E","lat":51.512236,"lon":-0.171525,"name":"Victoria Gate","parentId":"490G00014055","stationId":"490G00014055","stopLetter":"LB","topMostParentId":"490G00014055"},{"icsId":"1008446","id":"490008446E","lat":51.512571,"lon":-0.16703,"name":"Hyde Park Street","parentId":"490G00008446","stationId":"490G00008446","stopLetter":"D","topMostParentId":"490G00008446"},{"icsId":"1008447","id":"490000144C","lat":51.513125,"lon":-0.162237,"name":"Marble Arch / Bayswater Road","parentId":"490G00008447","stationId":"490G00008447","stopLetter":"C","topMostParentId":"490G00008447"},{"icsId":"1000399","id":"490000144R","lat":51.512308,"lon":-0.157744,"name":"Marble Arch Station  / Park Lane","parentId":"490G00000399","stationId":"490G00000399","stopLetter":"R","topMostParentId":"490G00000399"},{"icsId":"1006111","id":"490006111S1","lat":51.50842,"lon":-0.154097,"name":"Dorchester Hotel","parentId":"490G00006111","stationId":"490G00006111","stopLetter":"S","topMostParentId":"490G00006111"},{"icsId":"1009277","id":"490009277B","lat":51.505136,"lon":-0.151103,"name":"London Hilton Hotel","parentId":"490G00009277","stationId":"490G00009277","stopLetter":"B","topMostParentId":"490G00009277"},{"icsId":"1000119","id":"490000119F","lat":51.50209,"lon":-0.150679,"name":"Hyde Park Corner","parentId":"490G00119F","stationId":"490G00119F","stopLetter":"F","topMostParentId":"940GZZLUHPC","zone":"1"},{"icsId":"1014728","id":"490014728S","lat":51.499284,"lon":-0.147867,"name":"Wilton Street","parentId":"490G00014728","stationId":"490G00014728","stopLetter":"S","topMostParentId":"490G00014728"},{"icsId":"1014496","id":"490014496N","lat":51.496835,"lon":-0.140259,"name":"Westminster Cathedral","parentId":"490G00014496","stationId":"490G00014496","stopLetter":"N","topMostParentId":"490G00014496"},{"icsId":"1003384","id":"490003384SA","lat":51.497425,"lon":-0.136633,"name":"Westminster City Hall","parentId":"490G000394","stationId":"490G000394","stopLetter":"SA","topMostParentId":"490G000394"},{"icsId":"1000221","id":"490010260SC","lat":51.497727,"lon":-0.13469,"name":"St James's Park Station","parentId":"490G00221V","stationId":"490G00221V","stopLetter":"SC","topMostParentId":"940GZZLUSJP","zone":"1"},{"icsId":"1014495","id":"490014495R","lat":51.499035,"lon":-0.130992,"name":"Westminster Abbey","parentId":"490G000828","stationId":"490G000828","stopLetter":"R","topMostParentId":"490G000828"},{"icsId":"1014498","id":"490014498S","lat":51.501029,"lon":-0.125248,"name":"Westminster Stn  / Westmr Pier","parentId":"490G000829","stationId":"490G000829","stopLetter":"H","topMostParentId":"490G000829"},{"icsId":"1018956","id":"490005646E","lat":51.500833,"lon":-0.118023,"name":"St Thomas' Hospital / County Hall","parentId":"490G00018956","stationId":"490G00018956","stopLetter":"E","topMostParentId":"490G00018956"},{"icsId":"1009420","id":"490009420E","lat":51.500141,"lon":-0.11468,"name":"Lower Marsh","parentId":"490G00009420","stationId":"490G00009420","stopLetter":"K","topMostParentId":"490G00009420"},{"icsId":"1000132","id":"490000132C","lat":51.498528,"lon":-0.111145,"name":"Lambeth North Station","parentId":"490G00132G","stationId":"490G00132G","stopLetter":"C","topMostParentId":"940GZZLULBN","zone":"1"},{"icsId":"1012693","id":"490012693D","lat":51.498615,"lon":-0.108173,"name":"St George's Circus","parentId":"490G00012693","stationId":"490G00012693","stopLetter":"D","topMostParentId":"490G00012693"},{"icsId":"1009281","id":"490009281D","lat":51.496636,"lon":-0.102003,"name":"Elephant & Castle / London Road","parentId":"490G000642","stationId":"490G000642","stopLetter":"D","topMostParentId":"490G000642"},{"icsId":"1000073","id":"490000073R","lat":51.493256,"lon":-0.099305,"name":"Elephant & Castle Station","parentId":"490G00073G","stationId":"490G00073G","stopLetter":"R","topMostParentId":"HUBEPH","zone":"1+2"},{"icsId":"1008975","id":"490008975A","lat":51.490792,"lon":-0.097103,"name":"Larcom Street","parentId":"490G00008975","stationId":"490G00008975","stopLetter":"A","topMostParentId":"490G00008975"},{"icsId":"1006380","id":"490006380F","lat":51.487345,"lon":-0.095244,"name":"East Street","parentId":"490G00006380","stationId":"490G00006380","stopLetter":"F","topMostParentId":"490G00006380"},{"icsId":"1014501","id":"490014501J","lat":51.485606,"lon":-0.093934,"name":"Westmoreland Road","parentId":"490G00014501","stationId":"490G00014501","stopLetter":"J","topMostParentId":"490G00014501"},{"icsId":"1003138","id":"490003138N","lat":51.481422,"lon":-0.094353,"name":"Camberwell Road / Albany Road","parentId":"490G00003138","stationId":"490G00003138","stopLetter":"N","topMostParentId":"490G00003138"},{"icsId":"1004221","id":"490004221S","lat":51.479774,"lon":-0.094191,"name":"Bowyer Place","parentId":"490G00004221","stationId":"490G00004221","stopLetter":"N","topMostParentId":"490G00004221"},{"icsId":"1009784","id":"490009784A","lat":51.477134,"lon":-0.093884,"name":"Medlar Street","parentId":"490G00009784","stationId":"490G00009784","stopLetter":"A","topMostParentId":"490G00009784"},{"icsId":"1004687","id":"490004687P","lat":51.473603,"lon":-0.092965,"name":"Denmark Hill / Camberwell Green","parentId":"490G00004687","stationId":"490G00004687","stopLetter":"P","topMostParentId":"490G00004687"}]}]}