{"direction":"inbound","lineId":"149","lineName":"149","mode":"bus","stopPointSequences":[{"stopPoint":[{"icsId":"1019954","id":"490019954L","lat":51.505215,"lon":-0.08653,"name":"London Bridge Bus Station","parentId":"490G000970","stationId":"490G000970","stopLetter":"A","topMostParentId":"HUBLBG"},{"icsId":"1018542","id":"490000139M","lat":51.506555,"lon":-0.088175,"name":"London Bridge","parentId":"490G000922","stationId":"490G000922","stopLetter":"M","topMostParentId":"HUBLBG"},{"icsId":"1000148","id":"490009267D","lat":51.509466,"lon":-0.087476,"name":"Monument Station","parentId":"490G09267E","stationId":"490G09267E","stopLetter":"Q","topMostParentId":"940GZZLUMMT","zone":"1"},{"icsId":"1019174","id":"490000148M","lat":51.512017,"lon":-0.085107,"name":"Fenchurch Street","parentId":"490G000934","stationId":"490G000934","stopLetter":"M","topMostParentId":"490G000934"},{"icsId":"1009037","id":"490009037N","lat":51.514112,"lon":-0.083953,"name":"Threadneedle Street","parentId":"490G00009037","stationId":"490G00009037","stopLetter":"LN","topMostParentId":"490G00009037"},{"icsId":"1004043","id":"490004043N2","lat":51.515657,"lon":-0.082216,"name":"Wormwood Street","parentId":"490G00004043","stationId":"490G00004043","stopLetter":"W","topMostParentId":"490G00004043"},{"icsId":"1000138","id":"490000138E","lat":51.518103,"lon":-0.080052,"name":"Liverpool Street Station","parentId":"490G00138E","stationId":"490G00138E","stopLetter":"E","topMostParentId":"HUBLST","zone":"1"},{"icsId":"1012391","id":"490011187N","lat":51.520362,"lon":-0.079049,"name":"Primrose Street","parentId":"490G00012391","stationId":"490G00012391","stopLetter":"H","topMostParentId":"490G00012391"},{"icsId":"1001571","id":"490005524E","lat":51.521889,"lon":-0.078379,"name":"Shoreditch High Street Station","parentId":"490G05524E","stationId":"490G05524E","stopLetter":"E","topMostParentId":"910GSHRDHST"},{"icsId":"1006411","id":"490016266N","lat":51.524318,"lon":-0.07734,"name":"Shoreditch High St / Bethnal Green Road","parentId":"490G00006411","stationId":"490G00006411","stopLetter":"L","topMostParentId":"490G00006411"},{"icsId":"1007625","id":"490016267N","lat":51.525948,"lon":-0.078021,"name":"Shoreditch Church","parentId":"490G00007625","stationId":"490G00007625","stopLetter":"P","topMostParentId":"490G00007625"},{"icsId":"1019062","id":"490007625V","lat":51.528259,"lon":-0.078024,"name":"Waterson Street","parentId":"490G00019062","stationId":"490G00019062","stopLetter":"V","topMostParentId":"490G00019062"},{"icsId":"1006733","id":"490006726N","lat":51.530164,"lon":-0.077411,"name":"Hoxton Station  / Geffrye Museum","parentId":"490G000509","stationId":"490G000509","stopLetter":"KA","topMostParentId":"490G000509"},{"icsId":"1000390","id":"490007155KB","lat":51.532869,"lon":-0.077282,"name":"Pearson Street","parentId":"490G00000390","stationId":"490G00000390","stopLetter":"KB","topMostParentId":"490G00000390"},{"icsId":"1012445","id":"490012445N","lat":51.534314,"lon":-0.077135,"name":"St Leonard's Hospital","parentId":"490G00012445","stationId":"490G00012445","stopLetter":"KC","topMostParentId":"490G00012445"},{"icsId":"1008893","id":"490010985N","lat":51.535922,"lon":-0.077024,"name":"Laburnum Street","parentId":"490G00008893","stationId":"490G00008893","stopLetter":"KD","topMostParentId":"490G00008893"},{"icsId":"1006170","id":"490006170N1","lat":51.538024,"lon":-0.076892,"name":"Haggerston Station","parentId":"490G00006170","stationId":"490G00006170","stopLetter":"KE","topMostParentId":"490G00006170"},{"icsId":"1009859","id":"490009859N","lat":51.541445,"lon":-0.076546,"name":"Middleton Road","parentId":"490G00009859","stationId":"490G00009859","stopLetter":"KF","topMostParentId":"490G00009859"},{"icsId":"1001568","id":"490006929C","lat":51.544541,"lon":-0.076156,"name":"Dalston Junction Station","parentId":"490G06929C","stationId":"490G06929C","stopLetter":"C","topMostParentId":"910GDALS"},{"icsId":"1005947","id":"490005945L","lat":51.546899,"lon":-0.075739,"name":"Kingsland High Street / Dalston Jct","parentId":"490G00005947","stationId":"490G00005947","stopLetter":"L","topMostParentId":"490G00005947"},{"icsId":"1001081","id":"490001081P","lat":51.548343,"lon":-0.075534,"name":"Dalston Kingsland Station","parentId":"490G01081P","stationId":"490G01081P","stopLetter":"P","topMostParentId":"910GDALSKLD"},{"icsId":"1015851","id":"490015851S","lat":51.550133,"lon":-0.075545,"name":"Rio Cinema","parentId":"490G00015851","stationId":"490G00015851","stopLetter":"S","topMostParentId":"490G00015851"},{"icsId":"1011217","id":"490011217N","lat":51.55284,"lon":-0.074998,"name":"Princess May Road","parentId":"490G00011217","stationId":"490G00011217","stopLetter":"->N","topMostParentId":"490G00011217"},{"icsId":"1019706","id":"490003307P","lat":51.556026,"lon":-0.074647,"name":"Amhurst Road","parentId":"490G00019706","stationId":"490G00019706","stopLetter":"P","topMostParentId":"490G00019706"},{"icsId":"1012839","id":"490012839R","lat":51.557877,"lon":-0.074554,"name":"Stoke Newington Police Station","parentId":"490G00012839","stationId":"490G00012839","stopLetter":"R","topMostParentId":"490G00012839"},{"icsId":"1006282","id":"490006282S","lat":51.560441,"lon":-0.074057,"name":"Brooke Road","parentId":"490G00006282","stationId":"490G00006282","stopLetter":"S","topMostParentId":"490G00006282"},{"icsId":"1019889","id":"490005312X","lat":51.562699,"lon":-0.073557,"name":"Stoke Newington Church Street","parentId":"490G00019889","stationId":"490G00019889","stopLetter":"X","topMostParentId":"490G00019889"},{"icsId":"1001273","id":"490001273E","lat":51.564612,"lon":-0.073433,"name":"Stoke Newington Station","parentId":"490G01273C","stationId":"490G01273C","stopLetter":"E","topMostParentId":"910GSTKNWNG"},{"icsId":"1009477","id":"490009477N","lat":51.568302,"lon":-0.073032,"name":"Lynmouth Road","parentId":"490G00009477","stationId":"490G00009477","stopLetter":"SA","topMostParentId":"490G00009477"},{"icsId":"1006261","id":"490006261N","lat":51.570054,"lon":-0.072972,"name":"Stamford Hill Library","parentId":"490G00006261","stationId":"490G00006261","stopLetter":"SB","topMostParentId":"490G00006261"},{"icsId":"1012524","id":"490012524N","lat":51.572967,"lon":-0.072907,"name":"Stamford Hill Broadway","parentId":"490G00012524","stationId":"490G00012524","stopLetter":"SD","topMostParentId":"490G00012524"},{"icsId":"1006456","id":"490006456E","lat":51.574613,"lon":-0.072375,"name":"Egerton Road","parentId":"490G00006456","stationId":"490G00006456","stopLetter":"SE","topMostParentId":"490G00006456"},{"icsId":"1012433","id":"490012433N","lat":51.576835,"lon":-0.072974,"name":"St Ann's Road","parentId":"490G00012433","stationId":"490G00012433","stopLetter":"TA","topMostParentId":"490G00012433"},{"icsId":"1015852","id":"490015852N","lat":51.578518,"lon":-0.07309,"name":"Lealand Road","parentId":"490G00015852","stationId":"490G00015852","stopLetter":"TB","topMostParentId":"490G00015852"},{"icsId":"1001264","id":"490001264OB","lat":51.581057,"lon":-0.072723,"name":"South Tottenham Station","parentId":"490G01264W","stationId":"490G01264W","stopLetter":"TC","topMostParentId":"910GSTOTNHM"},{"icsId":"1015081","id":"490015081O","lat":51.582168,"lon":-0.072503,"name":"Seven Sisters Road","parentId":"490G000859","stationId":"490G000859","stopLetter":"C","topMostParentId":"HUBSVS"},{"icsId":"1000201","id":"490000201J","lat":51.583589,"lon":-0.072472,"name":"Seven Sisters Station","parentId":"490G00201I","stationId":"490G00201I","stopLetter":"D","topMostParentId":"HUBSVS","zone":"3"},{"icsId":"1013739","id":"490015083E","lat":51.58502,"lon":-0.071992,"name":"College Of North East London","parentId":"490G00013739","stationId":"490G00013739","stopLetter":"G","topMostParentId":"490G00013739"},{"icsId":"1015083","id":"490013739M","lat":51.587988,"lon":-0.070929,"name":"Tottenham Town Hall","parentId":"490G000860","stationId":"490G000860","stopLetter":"V","topMostParentId":"490G000860"},{"icsId":"1013736","id":"490013736N","lat":51.590396,"lon":-0.070263,"name":"Tottenham Police Station","parentId":"490G00013736","stationId":"490G00013736","stopLetter":"F","topMostParentId":"490G00013736"},{"icsId":"1001040","id":"490001040J","lat":51.593489,"lon":-0.069728,"name":"Bruce Grove Station","parentId":"490G01040K","stationId":"490G01040K","stopLetter":"J","topMostParentId":"910GBRUCGRV"},{"icsId":"1009360","id":"490009360N","lat":51.597887,"lon":-0.068112,"name":"Lordship Lane","parentId":"490G00009360","stationId":"490G00009360","stopLetter":"R","topMostParentId":"490G00009360"},{"icsId":"1013738","id":"490013738N","lat":51.60202,"lon":-0.067908,"name":"Tottenham Sports Centre","parentId":"490G00013738","stationId":"490G00013738","stopLetter":"S","topMostParentId":"490G00013738"},{"icsId":"1013733","id":"490013733R","lat":51.603668,"lon":-0.068069,"name":"Tottenham Hotspur Football Club","parentId":"490G00013733","stationId":"490G00013733","stopLetter":"T","topMostParentId":"490G00013733"},{"icsId":"1001335","id":"490001335S","lat":51.605092,"lon":-0.068268,"name":"White Hart Lane Station","parentId":"490G01335S","stationId":"490G01335S","stopLetter":"U","topMostParentId":"910GWHHRTLA"},{"icsId":"1004262","id":"490004262C","lat":51.608233,"lon":-0.067875,"name":"Brantwood Road","parentId":"490G00004262","stationId":"490G00004262","stopLetter":"V","topMostParentId":"490G00004262"},{"icsId":"1005690","id":"490005690N","lat":51.609764,"lon":-0.06638,"name":"Nutfield Close","parentId":"490G00005690","stationId":"490G00005690","stopLetter":"W","topMostParentId":"490G00005690"},{"icsId":"1005520","id":"490005520L","lat":51.61312,"lon":-0.064837,"name":"Colyton Way","parentId":"490G00005520","stationId":"490G00005520","stopLetter":"L","topMostParentId":"490G00005520"},{"icsId":"1003322","id":"490010801H","lat":51.616147,"lon":-0.064043,"name":"Angel Corner","parentId":"490G00003322","stationId":"490G00003322","stopLetter":"H","topMostParentId":"490G00003322"},{"icsId":"1010801","id":"490010801Z","lat":51.617817,"lon":-0.063395,"name":"Brettenham Road","parentId":"490G00010801","stationId":"490G00010801","stopLetter":"->N","topMostParentId":"490G00010801"},{"icsId":"1011968","id":"490011968N","lat":51.620899,"lon":-0.062122,"name":"Shrubbery Road","parentId":"490G00011968","stationId":"490G00011968","stopLetter":"L","topMostParentId":"490G00011968"},{"icsId":"1006445","id":"490006445B","lat":51.622697,"lon":-0.061569,"name":"Edmonton Police Station","parentId":"490G00006445","stationId":"490G00006445","stopLetter":"M","topMostParentId":"490G00006445"},{"icsId":"1001092","id":"490006442R","lat":51.62432,"lon":-0.060748,"name":"Edmonton Green Station","parentId":"490G01092D","stationId":"490G01092D","stopLetter":"N","topMostParentId":"910GEDMNGRN"},{"icsId":"1009983","id":"490009983A","lat":51.62518,"lon":-0.058877,"name":"Edmonton Green Bus Station","parentId":"490G00009983","stationId":"490G00009983","stopLetter":"A","topMostParentId":"490G00009983"}]}]}