{"direction":"inbound","lineId":"156","lineName":"156","mode":"bus","stopPointSequences":[{"stopPoint":[{"icsId":"1020252","id":"490000247E","lat":51.485307,"lon":-0.124452,"name":"Vauxhall Bus Station","parentId":"490G00020252","stationId":"490G00020252","stopLetter":"E","topMostParentId":"HUBVXH"},{"icsId":"1000714","id":"490014193Z","lat":51.484168,"lon":-0.129756,"name":"St George Wharf Pier","parentId":"490G000270","stationId":"490G000270","stopLetter":"Z","topMostParentId":"490G000270"},{"icsId":"1001274","id":"490006515S","lat":51.482712,"lon":-0.133705,"name":"United States Embassy","parentId":"490G000272","stationId":"490G000272","stopLetter":"D","topMostParentId":"490G000272"},{"icsId":"1005777","id":"490005777S","lat":51.481163,"lon":-0.138146,"name":"Riverlight Quay","parentId":"490G00005777","stationId":"490G00005777","stopLetter":"E","topMostParentId":"490G00005777"},{"icsId":"1012196","id":"490012196S","lat":51.479718,"lon":-0.141128,"name":"Sleaford Street","parentId":"490G00012196","stationId":"490G00012196","stopLetter":"F","topMostParentId":"490G00012196"},{"icsId":"1003686","id":"490003686S","lat":51.478388,"lon":-0.144581,"name":"Battersea Dogs & Cats Home","parentId":"490G00003686","stationId":"490G00003686","stopLetter":"H","topMostParentId":"490G00003686"},{"icsId":"1001016","id":"490001016B","lat":51.476783,"lon":-0.147137,"name":"Battersea Park Station","parentId":"490G01016A","stationId":"490G01016A","stopLetter":"B","topMostParentId":"910GBATRSPK"},{"icsId":"1001234","id":"490001234S","lat":51.474133,"lon":-0.147331,"name":"Queenstown Road Station","parentId":"490G01234S","stationId":"490G01234S","stopLetter":"L","topMostParentId":"910GQTRDBAT"},{"icsId":"1012161","id":"490012161S2","lat":51.472568,"lon":-0.148474,"name":"Silverthorne Road","parentId":"490G00012161","stationId":"490G00012161","stopLetter":"T","topMostParentId":"490G00012161"},{"icsId":"1011163","id":"490011163S","lat":51.469718,"lon":-0.149641,"name":"Prairie Street","parentId":"490G00011163","stationId":"490G00011163","stopLetter":"U","topMostParentId":"490G00011163"},{"icsId":"1014192","id":"490014192S","lat":51.466719,"lon":-0.150511,"name":"Queenstown Road / Wandsworth Road","parentId":"490G00014192","stationId":"490G00014192","stopLetter":"V","topMostParentId":"490G00014192"},{"icsId":"1013681","id":"490013681S","lat":51.46565,"lon":-0.155132,"name":"Tipthorpe Road","parentId":"490G00013681","stationId":"490G00013681","stopLetter":"C","topMostParentId":"490G00013681"},{"icsId":"1010524","id":"490010524S","lat":51.46481,"lon":-0.159485,"name":"Battersea Arts Centre","parentId":"490G00010524","stationId":"490G00010524","stopLetter":"D","topMostParentId":"490G00010524"},{"icsId":"1009007","id":"490009007W","lat":51.464282,"lon":-0.163106,"name":"Lavender Hill Police Station","parentId":"490G00009007","stationId":"490G00009007","stopLetter":"E","topMostParentId":"490G00009007"},{"icsId":"1001069","id":"490001069M","lat":51.463261,"lon":-0.168545,"name":"Clapham Junction Station","parentId":"490G01069M","stationId":"490G01069M","stopLetter":"M","topMostParentId":"490G01069M"},{"icsId":"1011066","id":"490011066W","lat":51.462004,"lon":-0.172684,"name":"Plough Road","parentId":"490G00011066","stationId":"490G00011066","stopLetter":"->W","topMostParentId":"490G00011066"},{"icsId":"1004538","id":"490004538W","lat":51.460472,"lon":-0.175365,"name":"Brussels Road","parentId":"490G00004538","stationId":"490G00004538","stopLetter":"SA","topMostParentId":"490G00004538"},{"icsId":"1009638","id":"490015372W","lat":51.459723,"lon":-0.179224,"name":"Marcilly Road","parentId":"490G00009638","stationId":"490G00009638","stopLetter":"SB","topMostParentId":"490G00009638"},{"icsId":"1008418","id":"490008418W","lat":51.45782,"lon":-0.183517,"name":"Huguenot Place / Alma Road","parentId":"490G00008418","stationId":"490G00008418","stopLetter":"SH","topMostParentId":"490G00008418"},{"icsId":"1008093","id":"490008093W","lat":51.45715,"lon":-0.187877,"name":"Herndon Road","parentId":"490G00008093","stationId":"490G00008093","stopLetter":"SJ","topMostParentId":"490G00008093"},{"icsId":"1014195","id":"490015546P","lat":51.456728,"lon":-0.190815,"name":"Wandsworth Town Hall","parentId":"490G00014195","stationId":"490G00014195","stopLetter":"P","topMostParentId":"490G00014195"},{"icsId":"1014184","id":"490014184U","lat":51.456851,"lon":-0.19356,"name":"Wandsworth / Southside","parentId":"490G00014184","stationId":"490G00014184","stopLetter":"U","topMostParentId":"490G00014184"},{"icsId":"1019402","id":"490019402S","lat":51.455228,"lon":-0.196776,"name":"King George's Park","parentId":"490G00019402","stationId":"490G00019402","stopLetter":"H","topMostParentId":"490G00019402"},{"icsId":"1004492","id":"490004492S","lat":51.453605,"lon":-0.197099,"name":"Broomhill Road","parentId":"490G00004492","stationId":"490G00004492","stopLetter":"->S","topMostParentId":"490G00004492"},{"icsId":"1013493","id":"490013493S","lat":51.450187,"lon":-0.199378,"name":"The Park Tavern","parentId":"490G00013493","stationId":"490G00013493","stopLetter":"M","topMostParentId":"490G00013493"},{"icsId":"1012532","id":"490012532S","lat":51.447047,"lon":-0.198667,"name":"Standen Road","parentId":"490G00012532","stationId":"490G00012532","stopLetter":"N","topMostParentId":"490G00012532"},{"icsId":"1004485","id":"490004485S","lat":51.443695,"lon":-0.197633,"name":"Southfields Academy","parentId":"490G00004485","stationId":"490G00004485","stopLetter":"P","topMostParentId":"490G00004485"},{"icsId":"1010930","id":"490010930S","lat":51.441329,"lon":-0.196993,"name":"Penwith Road","parentId":"490G00010930","stationId":"490G00010930","stopLetter":"R","topMostParentId":"490G00010930"},{"icsId":"1007311","id":"490007311S","lat":51.438725,"lon":-0.197253,"name":"Gordondale Road","parentId":"490G00007311","stationId":"490G00007311","stopLetter":"Q","topMostParentId":"490G00007311"},{"icsId":"1014736","id":"490014736S1","lat":51.436109,"lon":-0.196738,"name":"Wimbledon Park / Arthur Road","parentId":"490G000836","stationId":"490G000836","stopLetter":"R","topMostParentId":"490G000836"},{"icsId":"1011030","id":"490011030S","lat":51.430648,"lon":-0.192436,"name":"Pitt Crescent","parentId":"490G00011030","stationId":"490G00011030","stopLetter":"HP","topMostParentId":"490G00011030"},{"icsId":"1011060","id":"490011060D","lat":51.428356,"lon":-0.190771,"name":"Plough Lane","parentId":"490G00011060","stationId":"490G00011060","stopLetter":"HQ","topMostParentId":"490G00011060"},{"icsId":"1003515","id":"490003515W","lat":51.42774,"lon":-0.19455,"name":"Avondale Road","parentId":"490G00003515","stationId":"490G00003515","stopLetter":"HR","topMostParentId":"490G00003515"},{"icsId":"1012910","id":"490012910W","lat":51.426344,"lon":-0.200891,"name":"Strathearn Road","parentId":"490G00012910","stationId":"490G00012910","stopLetter":"HS","topMostParentId":"490G00012910"},{"icsId":"1014735","id":"490014735W","lat":51.423632,"lon":-0.204047,"name":"Wimbledon Magistrates Court","parentId":"490G00014735","stationId":"490G00014735","stopLetter":"->W","topMostParentId":"490G00014735"},{"icsId":"1019043","id":"490014734B","lat":51.421815,"lon":-0.206966,"name":"Alexandra Road / Wimbledon Stn","parentId":"490G000930","stationId":"490G000930","stopLetter":"B","topMostParentId":"HUBWIM"},{"icsId":"1000272","id":"490015472D","lat":51.420659,"lon":-0.205429,"name":"Wimbledon Station","parentId":"490G00272P","stationId":"490G00272P","stopLetter":"D","topMostParentId":"HUBWIM","zone":"3"}]}]}