{"direction":"inbound","lineId":"163","lineName":"163","mode":"bus","stopPointSequences":[{"stopPoint":[{"icsId":"1006987","id":"490006987N","lat":51.421199,"lon":-0.209622,"name":"Francis Grove","parentId":"490G00006987","stationId":"490G00006987","stopLetter":"N","topMostParentId":"490G00006987"},{"icsId":"1000272","id":"490015472D","lat":51.420659,"lon":-0.205429,"name":"Wimbledon Station","parentId":"490G00272P","stationId":"490G00272P","stopLetter":"D","topMostParentId":"HUBWIM","zone":"3"},{"icsId":"1014731","id":"490014731H","lat":51.41887,"lon":-0.203155,"name":"Wimbledon Bus Station","parentId":"490G00014731","stationId":"490G00014731","stopLetter":"H","topMostParentId":"490G00014731"},{"icsId":"1003936","id":"490003936S","lat":51.416774,"lon":-0.203064,"name":"Bertram Cottages","parentId":"490G00003936","stationId":"490G00003936","stopLetter":"->S","topMostParentId":"490G00003936"},{"icsId":"1002057","id":"490002057B","lat":51.41514,"lon":-0.202079,"name":"Merton Park Tram Stop","parentId":"490G02057D","stationId":"490G02057D","stopLetter":"MB","topMostParentId":"940GZZCRMTP"},{"icsId":"1010057","id":"490010057W","lat":51.412477,"lon":-0.206713,"name":"Wilton Crescent","parentId":"490G00010057","stationId":"490G00010057","stopLetter":"ME","topMostParentId":"490G00010057"},{"icsId":"1010168","id":"490010168W","lat":51.410559,"lon":-0.210038,"name":"The Nelson Health Centre","parentId":"490G00010168","stationId":"490G00010168","stopLetter":"MF","topMostParentId":"490G00010168"},{"icsId":"1001339","id":"490001339B","lat":51.409265,"lon":-0.213654,"name":"Wimbledon Chase Station","parentId":"490G01339A","stationId":"490G01339A","stopLetter":"MH","topMostParentId":"910GWIMLCHS"},{"icsId":"1009412","id":"490009412N","lat":51.409235,"lon":-0.217035,"name":"Lower Downs Road","parentId":"490G00009412","stationId":"490G00009412","stopLetter":"MP","topMostParentId":"490G00009412"},{"icsId":"1013134","id":"490013134W","lat":51.410384,"lon":-0.220427,"name":"Sydney Road","parentId":"490G00013134","stationId":"490G00013134","stopLetter":"MR","topMostParentId":"490G00013134"},{"icsId":"1011454","id":"490011454J","lat":51.409609,"lon":-0.226266,"name":"Raynes Park Library","parentId":"490G00011454","stationId":"490G00011454","stopLetter":"R","topMostParentId":"490G00011454"},{"icsId":"1001237","id":"490001237G","lat":51.408884,"lon":-0.229429,"name":"Raynes Park Station","parentId":"490G01237F","stationId":"490G01237F","stopLetter":"S","topMostParentId":"910GRAYNSPK"},{"icsId":"1019748","id":"490004647S","lat":51.405555,"lon":-0.229313,"name":"Bushey Road","parentId":"490G00019748","stationId":"490G00019748","stopLetter":"T","topMostParentId":"490G00019748"},{"icsId":"1004105","id":"490004105S","lat":51.403493,"lon":-0.229177,"name":"Blenheim Road","parentId":"490G00004105","stationId":"490G00004105","stopLetter":"->S","topMostParentId":"490G00004105"},{"icsId":"1007500","id":"490007500S","lat":51.399839,"lon":-0.228958,"name":"Greenway","parentId":"490G00007500","stationId":"490G00007500","stopLetter":"GA","topMostParentId":"490G00007500"},{"icsId":"1012643","id":"490012643S","lat":51.396196,"lon":-0.227101,"name":"Raynes Park Playing Fields","parentId":"490G00012643","stationId":"490G00012643","stopLetter":"GB","topMostParentId":"490G00012643"},{"icsId":"1004754","id":"490004754S","lat":51.394341,"lon":-0.22516,"name":"St John Fisher School","parentId":"490G00004754","stationId":"490G00004754","stopLetter":"GC","topMostParentId":"490G00004754"},{"icsId":"1013262","id":"490013262S","lat":51.39177,"lon":-0.222831,"name":"Queen Mary Avenue","parentId":"490G00013262","stationId":"490G00013262","stopLetter":"GD","topMostParentId":"490G00013262"},{"icsId":"1009429","id":"490009424E","lat":51.391439,"lon":-0.22178,"name":"Tudor Drive","parentId":"490G00009429","stationId":"490G00009429","stopLetter":"HE","topMostParentId":"490G00009429"},{"icsId":"1005317","id":"490005317E","lat":51.392941,"lon":-0.21705,"name":"Churston Drive","parentId":"490G00005317","stationId":"490G00005317","stopLetter":"HF","topMostParentId":"490G00005317"},{"icsId":"1008212","id":"490008212E","lat":51.395308,"lon":-0.214198,"name":"Hillcross Avenue","parentId":"490G00008212","stationId":"490G00008212","stopLetter":"HG","topMostParentId":"490G00008212"},{"icsId":"1009974","id":"490009974E","lat":51.397148,"lon":-0.211639,"name":"Monkleigh Road","parentId":"490G00009974","stationId":"490G00009974","stopLetter":"HH","topMostParentId":"490G00009974"},{"icsId":"1003447","id":"490003447E","lat":51.398404,"lon":-0.206731,"name":"Ashridge Way","parentId":"490G00003447","stationId":"490G00003447","stopLetter":"A","topMostParentId":"490G00003447"},{"icsId":"1009731","id":"490009731E","lat":51.399306,"lon":-0.202829,"name":"Maycross Avenue","parentId":"490G00009731","stationId":"490G00009731","stopLetter":"B","topMostParentId":"490G00009731"},{"icsId":"1009187","id":"490009187N","lat":51.401151,"lon":-0.199953,"name":"Links Avenue","parentId":"490G00009187","stationId":"490G00009187","stopLetter":"C","topMostParentId":"490G00009187"},{"icsId":"1000151","id":"490000151K","lat":51.401893,"lon":-0.195568,"name":"Morden Station","parentId":"490G00151H","stationId":"490G00151H","stopLetter":"M","topMostParentId":"940GZZLUMDN","zone":"4"}]}]}