{"direction":"inbound","lineId":"168","lineName":"168","mode":"bus","stopPointSequences":[{"stopPoint":[{"icsId":"1006266","id":"490006266WN","lat":51.488594,"lon":-0.077547,"name":"Dunton Road","parentId":"490G00006266","stationId":"490G00006266","stopLetter":"WN","topMostParentId":"490G00006266"},{"icsId":"1006379","id":"490006379BN","lat":51.491459,"lon":-0.082295,"name":"Old Kent Road / East Street","parentId":"490G00006379","stationId":"490G00006379","stopLetter":"F","topMostParentId":"490G00006379"},{"icsId":"1004315","id":"490004315BQ","lat":51.49362,"lon":-0.08523,"name":"Bricklayer's Arms","parentId":"490G00004315","stationId":"490G00004315","stopLetter":"BQ","topMostParentId":"490G00004315"},{"icsId":"1003658","id":"490003658BS","lat":51.494035,"lon":-0.09024,"name":"Bricklayer's Arms / New Kent Road","parentId":"490G00003658","stationId":"490G00003658","stopLetter":"BS","topMostParentId":"490G00003658"},{"icsId":"1011632","id":"490011632BT","lat":51.49417,"lon":-0.094672,"name":"Rodney Place","parentId":"490G00011632","stationId":"490G00011632","stopLetter":"BT","topMostParentId":"490G00011632"},{"icsId":"1009298","id":"490000073N","lat":51.495008,"lon":-0.099218,"name":"Elephant & Castle / New Kent Road","parentId":"490G000645","stationId":"490G000645","stopLetter":"N","topMostParentId":"HUBEPH"},{"icsId":"1009281","id":"490009281A","lat":51.496136,"lon":-0.101706,"name":"Elephant & Castle / London Road","parentId":"490G000642","stationId":"490G000642","stopLetter":"A","topMostParentId":"490G000642"},{"icsId":"1012693","id":"490012693N1","lat":51.49967,"lon":-0.107236,"name":"St George's Circus","parentId":"490G00012693","stationId":"490G00012693","stopLetter":"P","topMostParentId":"490G00012693"},{"icsId":"1013485","id":"490013485N","lat":51.501291,"lon":-0.109085,"name":"The Old Vic","parentId":"490G00013485","stationId":"490G00013485","stopLetter":"Q","topMostParentId":"490G00013485"},{"icsId":"1003713","id":"490000254K","lat":51.504361,"lon":-0.113742,"name":"Waterloo Station / Tenison Way","parentId":"490G000402","stationId":"490G000402","stopLetter":"K","topMostParentId":"HUBWAT"},{"icsId":"1014271","id":"490014270P","lat":51.506261,"lon":-0.115004,"name":"Waterloo Bridge / South Bank","parentId":"490G000819","stationId":"490G000819","stopLetter":"P","topMostParentId":"HUBWAT"},{"icsId":"1008932","id":"490008932T","lat":51.510523,"lon":-0.118935,"name":"Lancaster Place","parentId":"490G00008932","stationId":"490G00008932","stopLetter":"T","topMostParentId":"490G00008932"},{"icsId":"1003195","id":"490003191F","lat":51.513142,"lon":-0.117948,"name":"Aldwych / Kingsway","parentId":"490G00003195","stationId":"490G00003195","stopLetter":"F","topMostParentId":"490G00003195"},{"icsId":"1000112","id":"490000112N","lat":51.516873,"lon":-0.120144,"name":"Holborn Station","parentId":"490G00112L","stationId":"490G00112L","stopLetter":"N","topMostParentId":"940GZZLUHBN","zone":"1"},{"icsId":"1013478","id":"490013477Y","lat":51.519527,"lon":-0.121908,"name":"Southampton Row / Theobald's Road","parentId":"490G00013478","stationId":"490G00013478","stopLetter":"Y","topMostParentId":"490G00013478"},{"icsId":"1000200","id":"490000200H","lat":51.523214,"lon":-0.126384,"name":"Russell Square Station","parentId":"490G00200H","stationId":"490G00200H","stopLetter":"H","topMostParentId":"940GZZLURSQ","zone":"1"},{"icsId":"1013170","id":"490013170N","lat":51.525338,"lon":-0.128747,"name":"Tavistock Square","parentId":"490G00013170","stationId":"490G00013170","stopLetter":"K","topMostParentId":"490G00013170"},{"icsId":"1012867","id":"490012867L","lat":51.52716,"lon":-0.130777,"name":"Upper Woburn Place / Euston Road","parentId":"490G00012867","stationId":"490G00012867","stopLetter":"L","topMostParentId":"HUBEUS"},{"icsId":"1009503","id":"490000077A","lat":51.528889,"lon":-0.132624,"name":"Euston Station  / Eversholt Street","parentId":"490G000651","stationId":"490G000651","stopLetter":"A","topMostParentId":"HUBEUS"},{"icsId":"1003174","id":"490003174N","lat":51.531579,"lon":-0.135542,"name":"Aldenham Street","parentId":"490G00003174","stationId":"490G00003174","stopLetter":"T","topMostParentId":"490G00003174"},{"icsId":"1004714","id":"490004714J","lat":51.536515,"lon":-0.140574,"name":"Camden High Street","parentId":"490G000437","stationId":"490G000437","stopLetter":"J","topMostParentId":"490G000437"},{"icsId":"1000036","id":"490015041X","lat":51.538314,"lon":-0.142318,"name":"Camden Town Station","parentId":"490G00036N","stationId":"490G00036N","stopLetter":"X","topMostParentId":"940GZZLUCTN","zone":"2"},{"icsId":"1007876","id":"490007876O","lat":51.54229,"lon":-0.146929,"name":"Hartland Road / Camden Market","parentId":"490G00007876","stationId":"490G00007876","stopLetter":"CQ","topMostParentId":"490G00007876"},{"icsId":"1013538","id":"490013538CF","lat":51.543404,"lon":-0.151427,"name":"The Roundhouse","parentId":"490G00013538","stationId":"490G00013538","stopLetter":"CF","topMostParentId":"490G00013538"},{"icsId":"1000043","id":"490000043CC","lat":51.544337,"lon":-0.154129,"name":"Chalk Farm Station","parentId":"490G00043CD","stationId":"490G00043CD","stopLetter":"CC","topMostParentId":"940GZZLUCFM","zone":"2"},{"icsId":"1012664","id":"490012664N","lat":51.546517,"lon":-0.157849,"name":"Steele's Road / Steele's Village","parentId":"490G00012664","stationId":"490G00012664","stopLetter":"Q","topMostParentId":"490G00012664"},{"icsId":"1013939","id":"490013939N","lat":51.549221,"lon":-0.162802,"name":"Upper Park Road","parentId":"490G00013939","stationId":"490G00013939","stopLetter":"W","topMostParentId":"490G00013939"},{"icsId":"1000020","id":"490000020K","lat":51.550698,"lon":-0.165281,"name":"Belsize Park Station","parentId":"490G00020L","stationId":"490G00020L","stopLetter":"K","topMostParentId":"940GZZLUBZP","zone":"2"},{"icsId":"1011714","id":"490015255G","lat":51.552781,"lon":-0.1685,"name":"Rosslyn Hill","parentId":"490G00011714","stationId":"490G00011714","stopLetter":"G","topMostParentId":"490G00011714"},{"icsId":"1011760","id":"490011760C","lat":51.553846,"lon":-0.167001,"name":"Royal Free Hospital","parentId":"490G000732","stationId":"490G000732","stopLetter":"C","topMostParentId":"490G000732"},{"icsId":"1012280","id":"490012280N","lat":51.554392,"lon":-0.165709,"name":"South End Green","parentId":"490G000751","stationId":"490G000751","stopLetter":"X","topMostParentId":"490G000751"}]}]}