{"direction":"inbound","lineId":"169","lineName":"169","mode":"bus","stopPointSequences":[{"stopPoint":[{"icsId":"1003616","id":"490003616D","lat":51.538108,"lon":0.077984,"name":"Barking Town Centre","parentId":"490G00003616","stationId":"490G00003616","stopLetter":"D","topMostParentId":"490G00003616"},{"icsId":"1000015","id":"490000015L","lat":51.539969,"lon":0.082063,"name":"Barking Station","parentId":"490G00015G","stationId":"490G00015G","stopLetter":"L","topMostParentId":"HUBBKG","zone":"4"},{"icsId":"1009294","id":"490009294N","lat":51.542078,"lon":0.081266,"name":"Longbridge Road","parentId":"490G00009294","stationId":"490G00009294","stopLetter":"Q","topMostParentId":"490G00009294"},{"icsId":"1009432","id":"490009432N","lat":51.544382,"lon":0.077621,"name":"Victoria Road","parentId":"490G00009432","stationId":"490G00009432","stopLetter":"K","topMostParentId":"490G00009432"},{"icsId":"1010310","id":"490010310N","lat":51.546759,"lon":0.076446,"name":"Loxford Polyclinic","parentId":"490G00010310","stationId":"490G00010310","stopLetter":"L","topMostParentId":"490G00010310"},{"icsId":"1014781","id":"490008698N","lat":51.54938,"lon":0.075166,"name":"Wingate Road","parentId":"490G00014781","stationId":"490G00014781","stopLetter":"M","topMostParentId":"490G00014781"},{"icsId":"1009516","id":"490009510N","lat":51.553101,"lon":0.073272,"name":"Clementswood Baptist Church","parentId":"490G00009516","stationId":"490G00009516","stopLetter":"P","topMostParentId":"490G00009516"},{"icsId":"1003890","id":"490003890N","lat":51.555379,"lon":0.071602,"name":"Bengal Road","parentId":"490G00003890","stationId":"490G00003890","stopLetter":"R","topMostParentId":"490G00003890"},{"icsId":"1008471","id":"490008471B","lat":51.557014,"lon":0.070147,"name":"Ilford Sainsbury's","parentId":"490G00008471","stationId":"490G00008471","stopLetter":"B","topMostParentId":"490G00008471"},{"icsId":"1008467","id":"490008467F","lat":51.55816,"lon":0.068915,"name":"Ilford Hill","parentId":"490G000605","stationId":"490G000605","stopLetter":"F","topMostParentId":"490G000605"},{"icsId":"1003604","id":"490003604S","lat":51.556988,"lon":0.070593,"name":"Pioneer Point","parentId":"490G00003604","stationId":"490G00003604","stopLetter":"PP","topMostParentId":"490G00003604"},{"icsId":"1008466","id":"490008466R","lat":51.558154,"lon":0.074353,"name":"Redbridge Central Library","parentId":"490G00008466","stationId":"490G00008466","stopLetter":"R","topMostParentId":"490G00008466"},{"icsId":"1007657","id":"490007657S","lat":51.559592,"lon":0.07589,"name":"Hainault Street","parentId":"490G00007657","stationId":"490G00007657","stopLetter":"S","topMostParentId":"490G00007657"},{"icsId":"1007542","id":"490007532E","lat":51.562678,"lon":0.078888,"name":"Christchurch Road","parentId":"490G00007542","stationId":"490G00007542","topMostParentId":"490G00007542"},{"icsId":"1008464","id":"490008464E","lat":51.563652,"lon":0.081774,"name":"Brisbane Road","parentId":"490G00008464","stationId":"490G00008464","topMostParentId":"490G00008464"},{"icsId":"1006248","id":"490006248N","lat":51.565233,"lon":0.083376,"name":"Vicarage Lane","parentId":"490G00006248","stationId":"490G00006248","stopLetter":"G","topMostParentId":"490G00006248"},{"icsId":"1003912","id":"490003912N","lat":51.5674,"lon":0.083879,"name":"Benton Road","parentId":"490G00003912","stationId":"490G00003912","topMostParentId":"490G00003912"},{"icsId":"1010980","id":"490010955N","lat":51.569581,"lon":0.083633,"name":"Ley Street / Perth Road","parentId":"490G00010980","stationId":"490G00010980","topMostParentId":"490G00010980"},{"icsId":"1009478","id":"490009478N","lat":51.571564,"lon":0.083363,"name":"Parklands Close","parentId":"490G00009478","stationId":"490G00009478","stopLetter":"NT","topMostParentId":"490G00009478"},{"icsId":"1015523","id":"490006341N","lat":51.573294,"lon":0.083687,"name":"Eastern Avenue","parentId":"490G00015523","stationId":"490G00015523","stopLetter":"NJ","topMostParentId":"490G00015523"},{"icsId":"1013927","id":"490013927N","lat":51.575434,"lon":0.083669,"name":"Perrymans Farm Road","parentId":"490G00013927","stationId":"490G00013927","stopLetter":"NN","topMostParentId":"490G00013927"},{"icsId":"1008372","id":"490008372N","lat":51.577185,"lon":0.083331,"name":"Emmott Avenue","parentId":"490G00008372","stationId":"490G00008372","stopLetter":"NM","topMostParentId":"490G00008372"},{"icsId":"1007694","id":"490007694N","lat":51.578423,"lon":0.083489,"name":"Hamilton Avenue","parentId":"490G00007694","stationId":"490G00007694","topMostParentId":"490G00007694"},{"icsId":"1003194","id":"490003194N","lat":51.581659,"lon":0.084084,"name":"Aldwych Avenue","parentId":"490G00003194","stationId":"490G00003194","stopLetter":"->N","topMostParentId":"490G00003194"},{"icsId":"1011212","id":"490011212N","lat":51.584461,"lon":0.084775,"name":"Princes Road","parentId":"490G00011212","stationId":"490G00011212","stopLetter":"->N","topMostParentId":"490G00011212"},{"icsId":"1000016","id":"490000016S","lat":51.587252,"lon":0.085105,"name":"Barkingside Station","parentId":"490G00016SB","stationId":"490G00016SB","stopLetter":"S","topMostParentId":"940GZZLUBKE","zone":"4"},{"icsId":"1003613","id":"490003613R","lat":51.587995,"lon":0.08127,"name":"Barkingside Magistrates Court","parentId":"490G00003613","stationId":"490G00003613","stopLetter":"R","topMostParentId":"490G00003613"},{"icsId":"1007012","id":"490007012J","lat":51.589878,"lon":0.081573,"name":"Fremantle Road","parentId":"490G00007012","stationId":"490G00007012","stopLetter":"J","topMostParentId":"490G00007012"},{"icsId":"1007059","id":"490007059A","lat":51.592842,"lon":0.084278,"name":"Fullwell Cross","parentId":"490G00007059","stationId":"490G00007059","stopLetter":"A","topMostParentId":"490G00007059"},{"icsId":"1003127","id":"490003127W","lat":51.594234,"lon":0.081397,"name":"Aintree Crescent","parentId":"490G00003127","stationId":"490G00003127","stopLetter":"E","topMostParentId":"490G00003127"},{"icsId":"1015391","id":"490015391W","lat":51.594882,"lon":0.077773,"name":"Mossford Lane","parentId":"490G00015391","stationId":"490G00015391","stopLetter":"G","topMostParentId":"490G00015391"},{"icsId":"1011433","id":"490011433W","lat":51.595509,"lon":0.0749,"name":"Ravensbourne Gardens","parentId":"490G00011433","stationId":"490G00011433","stopLetter":"->W","topMostParentId":"490G00011433"},{"icsId":"1003667","id":"490003667W","lat":51.596124,"lon":0.072156,"name":"Basildon Avenue","parentId":"490G00003667","stationId":"490G00003667","stopLetter":"FH","topMostParentId":"490G00003667"},{"icsId":"1004857","id":"490004857W","lat":51.596757,"lon":0.068864,"name":"Caterham Avenue","parentId":"490G00004857","stationId":"490G00004857","stopLetter":"FJ","topMostParentId":"490G00004857"},{"icsId":"1005586","id":"490014332W","lat":51.597123,"lon":0.066989,"name":"Copper Beech Close","parentId":"490G00005586","stationId":"490G00005586","stopLetter":"FK","topMostParentId":"490G00005586"},{"icsId":"1005375","id":"490005375S","lat":51.596249,"lon":0.060928,"name":"Clayhall / The Glade","parentId":"490G00005375","stationId":"490G00005375","stopLetter":"FA","topMostParentId":"490G00005375"}]}]}