{"direction":"inbound","lineId":"176","lineName":"176","mode":"bus","stopPointSequences":[{"stopPoint":[{"icsId":"1000235","id":"490000235W1","lat":51.51555,"lon":-0.128486,"name":"Tottenham Court Road Station","parentId":"490G00235E","stationId":"490G00235E","stopLetter":"S","topMostParentId":"940GZZLUTCR","zone":"1"},{"icsId":"1004695","id":"490004695D","lat":51.513412,"lon":-0.129207,"name":"Cambridge Circus","parentId":"490G00004695","stationId":"490G00004695","stopLetter":"D","topMostParentId":"490G00004695"},{"icsId":"1000135","id":"490000135B","lat":51.511591,"lon":-0.128331,"name":"Leicester Square Station","parentId":"490G00135B","stationId":"490G00135B","stopLetter":"J","topMostParentId":"940GZZLULSQ","zone":"1"},{"icsId":"1016161","id":"490016161S","lat":51.509848,"lon":-0.127869,"name":"St Martin's Place","parentId":"490G00016161","stationId":"490G00016161","stopLetter":"K","topMostParentId":"490G00016161"},{"icsId":"1013766","id":"490013766G","lat":51.508644,"lon":-0.126232,"name":"Trafalgar Square / Charing Cross Stn","parentId":"490G000803","stationId":"490G000803","stopLetter":"G","topMostParentId":"HUBCHX"},{"icsId":"1012247","id":"490012247A","lat":51.510367,"lon":-0.122069,"name":"Southampton Street / Covent Garden","parentId":"490G00012247","stationId":"490G00012247","stopLetter":"A","topMostParentId":"490G00012247"},{"icsId":"1020255","id":"490020255S","lat":51.510542,"lon":-0.118444,"name":"Lancaster Place / Somerset House","parentId":"490G00020255","stationId":"490G00020255","stopLetter":"B","topMostParentId":"490G00020255"},{"icsId":"1014271","id":"490014271N","lat":51.507076,"lon":-0.115403,"name":"Waterloo Bridge / South Bank","parentId":"490G000819","stationId":"490G000819","stopLetter":"N","topMostParentId":"HUBWAT"},{"icsId":"1003705","id":"490000254D","lat":51.502981,"lon":-0.110687,"name":"Waterloo Station   / Waterloo Road","parentId":"490G000401","stationId":"490G000401","stopLetter":"D","topMostParentId":"HUBWAT"},{"icsId":"1013485","id":"490013485S1","lat":51.50134,"lon":-0.108752,"name":"The Old Vic","parentId":"490G00013485","stationId":"490G00013485","stopLetter":"S","topMostParentId":"490G00013485"},{"icsId":"1012693","id":"490012693S2","lat":51.499338,"lon":-0.106198,"name":"St George's Circus","parentId":"490G00012693","stationId":"490G00012693","stopLetter":"T","topMostParentId":"490G00012693"},{"icsId":"1009281","id":"490009281D","lat":51.496636,"lon":-0.102003,"name":"Elephant & Castle / London Road","parentId":"490G000642","stationId":"490G000642","stopLetter":"D","topMostParentId":"490G000642"},{"icsId":"1000073","id":"490000073R","lat":51.493256,"lon":-0.099305,"name":"Elephant & Castle Station","parentId":"490G00073G","stationId":"490G00073G","stopLetter":"R","topMostParentId":"HUBEPH","zone":"1+2"},{"icsId":"1008975","id":"490008975S","lat":51.490448,"lon":-0.096959,"name":"Larcom Street","parentId":"490G00008975","stationId":"490G00008975","stopLetter":"B","topMostParentId":"490G00008975"},{"icsId":"1006380","id":"490006380E","lat":51.487054,"lon":-0.095083,"name":"East Street","parentId":"490G00006380","stationId":"490G00006380","stopLetter":"E","topMostParentId":"490G00006380"},{"icsId":"1014501","id":"490014501K","lat":51.484964,"lon":-0.093701,"name":"Westmoreland Road","parentId":"490G00014501","stationId":"490G00014501","stopLetter":"K","topMostParentId":"490G00014501"},{"icsId":"1003138","id":"490003138N","lat":51.481422,"lon":-0.094353,"name":"Camberwell Road / Albany Road","parentId":"490G00003138","stationId":"490G00003138","stopLetter":"N","topMostParentId":"490G00003138"},{"icsId":"1004221","id":"490004221S","lat":51.479774,"lon":-0.094191,"name":"Bowyer Place","parentId":"490G00004221","stationId":"490G00004221","stopLetter":"N","topMostParentId":"490G00004221"},{"icsId":"1009784","id":"490009784B","lat":51.476926,"lon":-0.093821,"name":"Medlar Street","parentId":"490G00009784","stationId":"490G00009784","stopLetter":"B","topMostParentId":"490G00009784"},{"icsId":"1004687","id":"490004687P","lat":51.473603,"lon":-0.092965,"name":"Denmark Hill / Camberwell Green","parentId":"490G00004687","stationId":"490G00004687","stopLetter":"P","topMostParentId":"490G00004687"},{"icsId":"1005464","id":"490005464V","lat":51.470561,"lon":-0.092833,"name":"Coldharbour Lane","parentId":"490G00005464","stationId":"490G00005464","stopLetter":"V","topMostParentId":"490G00005464"},{"icsId":"1008764","id":"490008764H3","lat":51.467798,"lon":-0.091019,"name":"King's College Hospital","parentId":"490G00008764","stationId":"490G00008764","stopLetter":"B","topMostParentId":"490G00008764"},{"icsId":"1001083","id":"490001083H7","lat":51.468073,"lon":-0.08915,"name":"Denmark Hill Station","parentId":"490G01083H7","stationId":"490G01083H7","stopLetter":"C","topMostParentId":"910GDENMRKH"},{"icsId":"1015829","id":"490015829S","lat":51.467919,"lon":-0.086277,"name":"Grove Lane / Champion Park","parentId":"490G00015829","stationId":"490G00015829","stopLetter":"D","topMostParentId":"490G00015829"},{"icsId":"1004972","id":"490004972S","lat":51.466239,"lon":-0.085296,"name":"Champion Grove","parentId":"490G00004972","stationId":"490G00004972","stopLetter":"E","topMostParentId":"490G00004972"},{"icsId":"1006094","id":"490006094S","lat":51.464736,"lon":-0.083589,"name":"Champion Hill","parentId":"490G00006094","stationId":"490G00006094","stopLetter":"F","topMostParentId":"490G00006094"},{"icsId":"1015847","id":"490015830S","lat":51.462767,"lon":-0.081411,"name":"Quorn Road","parentId":"490G00015847","stationId":"490G00015847","stopLetter":"L","topMostParentId":"490G00015847"},{"icsId":"1001090","id":"490001090S","lat":51.461587,"lon":-0.079646,"name":"East Dulwich Station","parentId":"490G01090S","stationId":"490G01090S","stopLetter":"E","topMostParentId":"910GEDULWCH"},{"icsId":"1010595","id":"490010595F","lat":51.46143,"lon":-0.076112,"name":"Ondine Road","parentId":"490G00010595","stationId":"490G00010595","stopLetter":"F","topMostParentId":"490G00010595"},{"icsId":"1012417","id":"490005723K","lat":51.459326,"lon":-0.074991,"name":"Goose Green","parentId":"490G00012417","stationId":"490G00012417","stopLetter":"K","topMostParentId":"490G00012417"},{"icsId":"1010346","id":"490010346S","lat":51.457466,"lon":-0.075098,"name":"North Cross Road","parentId":"490G00010346","stationId":"490G00010346","stopLetter":"S","topMostParentId":"490G00010346"},{"icsId":"1006335","id":"490006335S","lat":51.455102,"lon":-0.07681,"name":"Melbourne Grove","parentId":"490G00006335","stationId":"490G00006335","stopLetter":"DU","topMostParentId":"490G00006335"},{"icsId":"1008041","id":"490008041S","lat":51.452995,"lon":-0.077215,"name":"Heber Road","parentId":"490G00008041","stationId":"490G00008041","stopLetter":"DV","topMostParentId":"490G00008041"},{"icsId":"1005874","id":"490005874S","lat":51.450798,"lon":-0.075954,"name":"Crystal Palace Road","parentId":"490G00005874","stationId":"490G00005874","stopLetter":"DW","topMostParentId":"490G00005874"},{"icsId":"1006232","id":"490006232S","lat":51.448698,"lon":-0.073466,"name":"Dulwich Library","parentId":"490G00006232","stationId":"490G00006232","stopLetter":"DE","topMostParentId":"490G00006232"},{"icsId":"1013919","id":"490013919S","lat":51.446462,"lon":-0.072021,"name":"Upland Road","parentId":"490G00013919","stationId":"490G00013919","stopLetter":"DF","topMostParentId":"490G00013919"},{"icsId":"1010671","id":"490010671S","lat":51.445032,"lon":-0.069778,"name":"Overhill Road","parentId":"490G00010671","stationId":"490G00010671","stopLetter":"DH","topMostParentId":"490G00010671"},{"icsId":"1007586","id":"490007586S","lat":51.44378,"lon":-0.068032,"name":"Grove Tavern","parentId":"490G00007586","stationId":"490G00007586","stopLetter":"MA","topMostParentId":"490G00007586"},{"icsId":"1009362","id":"490009362S1","lat":51.441852,"lon":-0.065639,"name":"Lordship Lane / Wood Vale","parentId":"490G00009362","stationId":"490G00009362","stopLetter":"MD","topMostParentId":"490G00009362"},{"icsId":"1008350","id":"490008350E","lat":51.440741,"lon":-0.06098,"name":"Horniman Museum","parentId":"490G00008350","stationId":"490G00008350","stopLetter":"ME","topMostParentId":"490G00008350"},{"icsId":"1005314","id":"490001112A","lat":51.43965,"lon":-0.055372,"name":"Forest Hill Station  / London Road","parentId":"490G000456","stationId":"490G000456","stopLetter":"A","topMostParentId":"490G000456"},{"icsId":"1000866","id":"490000866Y","lat":51.437595,"lon":-0.054552,"name":"Forest Hill Pools","parentId":"490G000189","stationId":"490G000189","topMostParentId":"490G000189"},{"icsId":"1013646","id":"490013646S","lat":51.435687,"lon":-0.055554,"name":"Dartmouth Road / Thorpewood Avenue","parentId":"490G00013646","stationId":"490G00013646","stopLetter":"M","topMostParentId":"490G00013646"},{"icsId":"1013131","id":"490013131S","lat":51.432968,"lon":-0.059195,"name":"Sydenham School","parentId":"490G00013131","stationId":"490G00013131","stopLetter":"P","topMostParentId":"490G00013131"},{"icsId":"1013125","id":"490013125S","lat":51.431563,"lon":-0.060146,"name":"Sydenham / The Woodman","parentId":"490G00013125","stationId":"490G00013125","stopLetter":"R","topMostParentId":"490G00013125"},{"icsId":"1010871","id":"490010871S","lat":51.429529,"lon":-0.058405,"name":"Peak Hill","parentId":"490G00010871","stationId":"490G00010871","stopLetter":"Z","topMostParentId":"490G00010871"},{"icsId":"1009034","id":"490005453F","lat":51.427498,"lon":-0.056305,"name":"Sydenham Station  / Kirkdale","parentId":"490G000630","stationId":"490G000630","stopLetter":"F","topMostParentId":"HUBSYD"},{"icsId":"1005766","id":"490005766B","lat":51.425674,"lon":-0.056943,"name":"Cricketers Walk","parentId":"490G00005766","stationId":"490G00005766","stopLetter":"B","topMostParentId":"490G00005766"},{"icsId":"1005580","id":"490005580S","lat":51.423282,"lon":-0.058023,"name":"St Christopher's Hospice","parentId":"490G00005580","stationId":"490G00005580","stopLetter":"L","topMostParentId":"490G00005580"},{"icsId":"1012397","id":"490012397S","lat":51.421111,"lon":-0.059409,"name":"Springfield Road","parentId":"490G00012397","stationId":"490G00012397","stopLetter":"M","topMostParentId":"490G00012397"},{"icsId":"1009025","id":"490009025S","lat":51.419119,"lon":-0.061335,"name":"Thicket Road","parentId":"490G000628","stationId":"490G000628","stopLetter":"N","topMostParentId":"490G000628"},{"icsId":"1009027","id":"490001225C","lat":51.417359,"lon":-0.057655,"name":"High Street / Penge West Station","parentId":"490G00009027","stationId":"490G00009027","stopLetter":"C","topMostParentId":"490G00009027"},{"icsId":"1010905","id":"490010905D","lat":51.416108,"lon":-0.054343,"name":"High Street / Maple Road","parentId":"490G00010905","stationId":"490G00010905","stopLetter":"D","topMostParentId":"490G00010905"},{"icsId":"1010910","id":"490010906F","lat":51.414668,"lon":-0.052146,"name":"High Street / Green Lane","parentId":"490G00010910","stationId":"490G00010910","stopLetter":"F","topMostParentId":"490G00010910"},{"icsId":"1015419","id":"490015419H","lat":51.413323,"lon":-0.052347,"name":"Penge / Pawleyne Arms","parentId":"490G00015419","stationId":"490G00015419","stopLetter":"H","topMostParentId":"490G00015419"}]}]}