{"direction":"inbound","lineId":"18","lineName":"18","mode":"bus","stopPointSequences":[{"stopPoint":[{"icsId":"1009504","id":"490000077F","lat":51.527074,"lon":-0.132179,"name":"Euston Bus Station","parentId":"490G000652","stationId":"490G000652","stopLetter":"F","topMostParentId":"HUBEUS"},{"icsId":"1000077","id":"490000077H","lat":51.526526,"lon":-0.132764,"name":"Euston Station","parentId":"490G00077H","stationId":"490G00077H","stopLetter":"H","topMostParentId":"HUBEUS","zone":"1"},{"icsId":"1000078","id":"490000078P","lat":51.525695,"lon":-0.135335,"name":"Euston Square Station","parentId":"490G00078P","stationId":"490G00078P","stopLetter":"P","topMostParentId":"940GZZLUESQ","zone":"1"},{"icsId":"1020147","id":"4900020147W","lat":51.525222,"lon":-0.13671,"name":"University Coll Hosp / Warren St Stn","parentId":"490G00020147","stationId":"490G00020147","stopLetter":"W","topMostParentId":"490G00020147"},{"icsId":"1000252","id":"490000252V","lat":51.524578,"lon":-0.139187,"name":"Warren Street Stn / Tottenham Court Rd","parentId":"490G00252KA","stationId":"490G00252KA","stopLetter":"V","topMostParentId":"940GZZLUWRR","zone":"1"},{"icsId":"1000091","id":"490000091G","lat":51.523906,"lon":-0.14387,"name":"Great Portland Street Station","parentId":"490G00091G","stationId":"490G00091G","stopLetter":"G","topMostParentId":"940GZZLUGPS","zone":"1"},{"icsId":"1000191","id":"490000191B","lat":51.523625,"lon":-0.146606,"name":"Regent's Park Station","parentId":"490G00191A","stationId":"490G00191A","stopLetter":"B","topMostParentId":"940GZZLURGP","zone":"1"},{"icsId":"1007807","id":"490007807W","lat":51.523168,"lon":-0.149565,"name":"Harley Street","parentId":"490G00007807","stationId":"490G00007807","stopLetter":"L","topMostParentId":"490G00007807"},{"icsId":"1000011","id":"490000011E","lat":51.522222,"lon":-0.156263,"name":"Baker Street Station","parentId":"490G00011D","stationId":"490G00011D","stopLetter":"E","topMostParentId":"940GZZLUBST","zone":"1"},{"icsId":"1015040","id":"490015040Z","lat":51.521847,"lon":-0.158715,"name":"Gloucester Place","parentId":"490G00015040","stationId":"490G00015040","stopLetter":"Z","topMostParentId":"490G00015040"},{"icsId":"1000351","id":"490015502P","lat":51.521531,"lon":-0.160371,"name":"Marylebone Station","parentId":"490G00000351","stationId":"490G00000351","stopLetter":"P","topMostParentId":"490G00000351"},{"icsId":"1010567","id":"490010567H","lat":51.520503,"lon":-0.166509,"name":"Old Marylebone Road","parentId":"490G000688","stationId":"490G000688","stopLetter":"EU","topMostParentId":"HUBMYB"},{"icsId":"1000072","id":"490000072W","lat":51.5199,"lon":-0.168811,"name":"Edgware Road Station","parentId":"490G00072W","stationId":"490G00072W","stopLetter":"EV","topMostParentId":"940GZZLUERC","zone":"1"},{"icsId":"1010713","id":"490010713F","lat":51.519775,"lon":-0.171728,"name":"Paddington Green Police Station","parentId":"490G00010713","stationId":"490G00010713","stopLetter":"EW","topMostParentId":"490G00010713"},{"icsId":"1014552","id":"490014552W","lat":51.519834,"lon":-0.17553,"name":"Hermitage Street","parentId":"490G00014552","stationId":"490G00014552","stopLetter":"B","topMostParentId":"490G00014552"},{"icsId":"1014250","id":"490004039S","lat":51.519735,"lon":-0.178417,"name":"Bishops Bridge Road / Little Venice","parentId":"490G00014250","stationId":"490G00014250","stopLetter":"S","topMostParentId":"490G00014250"},{"icsId":"1000196","id":"490000196W","lat":51.519636,"lon":-0.189462,"name":"Royal Oak Station","parentId":"490G00196B","stationId":"490G00196B","stopLetter":"RD","topMostParentId":"940GZZLURYO","zone":"2"},{"icsId":"1005320","id":"490005320W","lat":51.520928,"lon":-0.192135,"name":"Westminster Academy / Cirencester Street","parentId":"490G00005320","stationId":"490G00005320","stopLetter":"RE","topMostParentId":"490G00005320"},{"icsId":"1013054","id":"490013054W","lat":51.522862,"lon":-0.194553,"name":"Sutherland Avenue","parentId":"490G00013054","stationId":"490G00013054","stopLetter":"RF","topMostParentId":"490G00013054"},{"icsId":"1007865","id":"490007865H","lat":51.523655,"lon":-0.199293,"name":"Westminster Registration Office","parentId":"490G00007865","stationId":"490G00007865","stopLetter":"H","topMostParentId":"490G00007865"},{"icsId":"1003444","id":"490003444W","lat":51.524807,"lon":-0.202894,"name":"Ashmore Road","parentId":"490G00003444","stationId":"490G00003444","stopLetter":"S","topMostParentId":"490G00003444"},{"icsId":"1007666","id":"490007666W","lat":51.526377,"lon":-0.206797,"name":"Second Avenue","parentId":"490G00007666","stationId":"490G00007666","stopLetter":"T","topMostParentId":"490G00007666"},{"icsId":"1006832","id":"490006832W","lat":51.526916,"lon":-0.211475,"name":"Fifth Avenue / Queen's Park Library","parentId":"490G00006832","stationId":"490G00006832","stopLetter":"Y","topMostParentId":"490G00006832"},{"icsId":"1008711","id":"490008711V","lat":51.527491,"lon":-0.214942,"name":"Ladbroke Grove / Kilburn Lane","parentId":"490G00008711","stationId":"490G00008711","stopLetter":"V","topMostParentId":"490G00008711"},{"icsId":"1019178","id":"490014700W","lat":51.528317,"lon":-0.217259,"name":"Kensal Green Cemetery","parentId":"490G00019178","stationId":"490G00019178","stopLetter":"W","topMostParentId":"490G00019178"},{"icsId":"1000122","id":"490000122W","lat":51.529839,"lon":-0.223327,"name":"Kensal Green Station","parentId":"490G00122W","stationId":"490G00122W","stopLetter":"KU","topMostParentId":"HUBKNL","zone":"2"},{"icsId":"1012788","id":"490012788W","lat":51.530097,"lon":-0.227267,"name":"St Mary's Cemetery","parentId":"490G00012788","stationId":"490G00012788","stopLetter":"KV","topMostParentId":"490G00012788"},{"icsId":"1014962","id":"490014962W","lat":51.53211,"lon":-0.233173,"name":"Wrottesley Road","parentId":"490G00014962","stationId":"490G00014962","stopLetter":"R","topMostParentId":"490G00014962"},{"icsId":"1005491","id":"490005491W","lat":51.532316,"lon":-0.23612,"name":"Scrubs Lane","parentId":"490G00005491","stationId":"490G00005491","stopLetter":"S","topMostParentId":"490G00005491"},{"icsId":"1000271","id":"490015057H","lat":51.532899,"lon":-0.240178,"name":"Willesden Junction Station","parentId":"490G00271H","stationId":"490G00271H","stopLetter":"H","topMostParentId":"HUBWIJ","zone":"2+3"},{"icsId":"1008187","id":"490008187F","lat":51.535741,"lon":-0.244452,"name":"Park Parade","parentId":"490G00008187","stationId":"490G00008187","stopLetter":"F","topMostParentId":"490G00008187"},{"icsId":"1007803","id":"490007803X","lat":51.536033,"lon":-0.247714,"name":"Harlesden Jubilee Clock","parentId":"490G00007803","stationId":"490G00007803","stopLetter":"X","topMostParentId":"490G00007803"},{"icsId":"1012803","id":"490012803Z","lat":51.539006,"lon":-0.251089,"name":"St Mary's Road","parentId":"490G00012803","stationId":"490G00012803","stopLetter":"Z","topMostParentId":"490G00012803"},{"icsId":"1005720","id":"490005720W","lat":51.540338,"lon":-0.254773,"name":"Craven Park","parentId":"490G00005720","stationId":"490G00005720","stopLetter":"U","topMostParentId":"490G00005720"},{"icsId":"1008865","id":"490008865W","lat":51.541289,"lon":-0.257693,"name":"Knatchbull Road","parentId":"490G00008865","stationId":"490G00008865","stopLetter":"V","topMostParentId":"490G00008865"},{"icsId":"1012848","id":"490012848W","lat":51.541063,"lon":-0.261826,"name":"Shakespeare Road","parentId":"490G00012848","stationId":"490G00012848","stopLetter":"W","topMostParentId":"490G00012848"},{"icsId":"1012847","id":"490012847W","lat":51.542522,"lon":-0.267481,"name":"First Drive","parentId":"490G00012847","stationId":"490G00012847","stopLetter":"X","topMostParentId":"490G00012847"},{"icsId":"1010332","id":"490010332K","lat":51.543675,"lon":-0.27123,"name":"North Circular Road","parentId":"490G00010332","stationId":"490G00010332","stopLetter":"K","topMostParentId":"490G00010332"},{"icsId":"1009981","id":"490009981N","lat":51.546562,"lon":-0.274337,"name":"Stonebridge Pk Stn   / Point Pl","parentId":"490G00009981","stationId":"490G00009981","stopLetter":"C","topMostParentId":"490G00009981"},{"icsId":"1006871","id":"490006871N","lat":51.548292,"lon":-0.278858,"name":"Flamsted Avenue","parentId":"490G00006871","stationId":"490G00006871","stopLetter":"->N","topMostParentId":"490G00006871"},{"icsId":"1013797","id":"490013797N","lat":51.549861,"lon":-0.28164,"name":"Tring Avenue","parentId":"490G00013797","stationId":"490G00013797","topMostParentId":"490G00013797"},{"icsId":"1014315","id":"490014315N2","lat":51.552673,"lon":-0.285154,"name":"Waverley Avenue","parentId":"490G00014315","stationId":"490G00014315","stopLetter":"SJ","topMostParentId":"490G00014315"},{"icsId":"1005584","id":"490015558W2","lat":51.553652,"lon":-0.289979,"name":"Cecil Avenue","parentId":"490G00005584","stationId":"490G00005584","stopLetter":"SP","topMostParentId":"490G00005584"},{"icsId":"1014378","id":"490014378M","lat":51.553508,"lon":-0.291802,"name":"Arkelvin Academy / Park Lane","parentId":"490G00014378","stationId":"490G00014378","stopLetter":"ST","topMostParentId":"490G00014378"},{"icsId":"1000256","id":"490000256H","lat":51.552237,"lon":-0.297792,"name":"Wembley Central Station","parentId":"490G00256G","stationId":"490G00256G","stopLetter":"CS","topMostParentId":"HUBWMB","zone":"4"},{"icsId":"1006299","id":"490006299B","lat":51.55221,"lon":-0.301514,"name":"Ealing Road","parentId":"490G00006299","stationId":"490G00006299","stopLetter":"CW","topMostParentId":"490G00006299"},{"icsId":"1005583","id":"490005583W","lat":51.551577,"lon":-0.307524,"name":"Copland Avenue","parentId":"490G00005583","stationId":"490G00005583","stopLetter":"HC","topMostParentId":"490G00005583"},{"icsId":"1004335","id":"490004335F","lat":51.55238,"lon":-0.312658,"name":"Bridgewater Road","parentId":"490G00004335","stationId":"490G00004335","stopLetter":"F","topMostParentId":"490G00004335"},{"icsId":"1001282","id":"490001282N","lat":51.554166,"lon":-0.314914,"name":"Sudbury & Harrow Road Station","parentId":"490G01282J","stationId":"490G01282J","stopLetter":"->N","topMostParentId":"910GSDBRYHR"}]}]}