{"direction":"inbound","lineId":"180","lineName":"180","mode":"bus","stopPointSequences":[{"stopPoint":[{"icsId":"1009105","id":"490009105V","lat":51.461127,"lon":-0.010494,"name":"Lewisham Centre","parentId":"490G00009105","stationId":"490G00009105","stopLetter":"V","topMostParentId":"490G00009105"},{"icsId":"1009106","id":"490009106P","lat":51.462779,"lon":-0.010379,"name":"Lewisham Clock Tower","parentId":"490G00009106","stationId":"490G00009106","stopLetter":"P","topMostParentId":"490G00009106"},{"icsId":"1001177","id":"490009104A","lat":51.464369,"lon":-0.011318,"name":"Lewisham Station","parentId":"490G01177G","stationId":"490G01177G","stopLetter":"G","topMostParentId":"HUBLEW","zone":"2+3"},{"icsId":"1004068","id":"490004068N","lat":51.467881,"lon":-0.01213,"name":"Blackheath Rise","parentId":"490G00004068","stationId":"490G00004068","stopLetter":"ED","topMostParentId":"490G00004068"},{"icsId":"1010022","id":"490010022C","lat":51.469316,"lon":-0.013521,"name":"Morden Hill","parentId":"490G00010022","stationId":"490G00010022","stopLetter":"EC","topMostParentId":"490G00010022"},{"icsId":"1012371","id":"490012371N","lat":51.471573,"lon":-0.015108,"name":"Sparta Street","parentId":"490G00012371","stationId":"490G00012371","stopLetter":"D","topMostParentId":"490G00012371"},{"icsId":"1015265","id":"490015265N","lat":51.473797,"lon":-0.014695,"name":"Greenwich South Street / Blackheath Road","parentId":"490G00015265","stationId":"490G00015265","stopLetter":"E","topMostParentId":"490G00015265"},{"icsId":"1003411","id":"490003411N","lat":51.475263,"lon":-0.013133,"name":"Ashburnham Grove","parentId":"490G00003411","stationId":"490G00003411","stopLetter":"F","topMostParentId":"490G00003411"},{"icsId":"1001123","id":"490001123R","lat":51.477266,"lon":-0.012485,"name":"Greenwich Station","parentId":"490G01123L","stationId":"490G01123L","stopLetter":"R","topMostParentId":"HUBGNW","zone":"2+3"},{"icsId":"1007513","id":"490007513H","lat":51.479589,"lon":-0.010007,"name":"Greenwich High Road / Roan Street","parentId":"490G00007513","stationId":"490G00007513","stopLetter":"H","topMostParentId":"490G00007513"},{"icsId":"1007515","id":"490007515C","lat":51.481866,"lon":-0.008526,"name":"Greenwich Town Centre / Cutty Sark","parentId":"490G000548","stationId":"490G000548","stopLetter":"C","topMostParentId":"490G000548"},{"icsId":"1006196","id":"490006196F","lat":51.481459,"lon":-0.007319,"name":"National Maritime Museum","parentId":"490G000489","stationId":"490G000489","stopLetter":"F","topMostParentId":"490G000489"},{"icsId":"1013764","id":"490013764S","lat":51.483248,"lon":-0.001984,"name":"Trafalgar Estate","parentId":"490G00013764","stationId":"490G00013764","stopLetter":"S","topMostParentId":"490G00013764"},{"icsId":"1009754","id":"490009754K","lat":51.484162,"lon":0.001368,"name":"Trafalgar Road / Maze Hill","parentId":"490G000663","stationId":"490G000663","stopLetter":"H","topMostParentId":"490G000663"},{"icsId":"1005231","id":"490005231K","lat":51.484869,"lon":0.003661,"name":"King William Lane","parentId":"490G00005231","stationId":"490G00005231","stopLetter":"K","topMostParentId":"490G00005231"},{"icsId":"1004081","id":"490004081J","lat":51.485536,"lon":0.006225,"name":"Tyler Street","parentId":"490G00004081","stationId":"490G00004081","stopLetter":"J","topMostParentId":"490G00004081"},{"icsId":"1015332","id":"490007510D","lat":51.486333,"lon":0.008478,"name":"Vanbrugh Hill","parentId":"490G00015332","stationId":"490G00015332","stopLetter":"D","topMostParentId":"490G00015332"},{"icsId":"1009685","id":"490009685E","lat":51.486194,"lon":0.012923,"name":"Marlton Street","parentId":"490G00009685","stationId":"490G00009685","stopLetter":"P","topMostParentId":"490G00009685"},{"icsId":"1006356","id":"490006356E","lat":51.486324,"lon":0.015838,"name":"Kemsing Road","parentId":"490G00006356","stationId":"490G00006356","stopLetter":"E","topMostParentId":"490G00006356"},{"icsId":"1011398","id":"490011398H","lat":51.486745,"lon":0.021172,"name":"Rainton Road","parentId":"490G00011398","stationId":"490G00011398","stopLetter":"H","topMostParentId":"490G00011398"},{"icsId":"1011704","id":"490011704E","lat":51.487385,"lon":0.026299,"name":"Woolwich Road / Victoria Way","parentId":"490G00011704","stationId":"490G00011704","stopLetter":"->E","topMostParentId":"490G00011704"},{"icsId":"1007093","id":"490007093E2","lat":51.487801,"lon":0.029803,"name":"Woolwich Road / Gallions Road","parentId":"490G00007093","stationId":"490G00007093","topMostParentId":"490G00007093"},{"icsId":"1019754","id":"490001058E","lat":51.48837,"lon":0.032767,"name":"Charlton Station / Woolwich Road","parentId":"490G000946","stationId":"490G000946","stopLetter":"E","topMostParentId":"490G000946"},{"icsId":"1012854","id":"490012854E","lat":51.489402,"lon":0.036486,"name":"Stone Lake Retail Park","parentId":"490G00012854","stationId":"490G00012854","stopLetter":"C","topMostParentId":"490G00012854"},{"icsId":"1010911","id":"490010911A","lat":51.490124,"lon":0.038967,"name":"Woolwich Road / Charlton Lane","parentId":"490G00010911","stationId":"490G00010911","stopLetter":"A","topMostParentId":"490G00010911"},{"icsId":"1013207","id":"490014923E","lat":51.491339,"lon":0.041456,"name":"Greenwich Trust School","parentId":"490G00013207","stationId":"490G00013207","stopLetter":"S","topMostParentId":"490G00013207"},{"icsId":"1000889","id":"490000889Z","lat":51.492216,"lon":0.043815,"name":"Yateley Street","parentId":"490G000208","stationId":"490G000208","stopLetter":"->E","topMostParentId":"490G000208"},{"icsId":"1014247","id":"490014247E","lat":51.492461,"lon":0.047787,"name":"Warspite Road","parentId":"490G00014247","stationId":"490G00014247","stopLetter":"T","topMostParentId":"490G00014247"},{"icsId":"1006983","id":"490006983DE","lat":51.492902,"lon":0.05393,"name":"Frances Street","parentId":"490G00006983","stationId":"490G00006983","stopLetter":"DE","topMostParentId":"490G00006983"},{"icsId":"1006982","id":"490008802E","lat":51.493021,"lon":0.056398,"name":"Kingsman Street","parentId":"490G00006982","stationId":"490G00006982","topMostParentId":"490G00006982"},{"icsId":"1014928","id":"490014928E","lat":51.493676,"lon":0.059021,"name":"Woolwich Ferry","parentId":"490G00014928","stationId":"490G00014928","stopLetter":"->E","topMostParentId":"490G00014928"},{"icsId":"1011159","id":"490011159Y","lat":51.492847,"lon":0.061144,"name":"John Wilson Street / Powis Street","parentId":"490G00011159","stationId":"490G00011159","stopLetter":"Y","topMostParentId":"490G00011159"},{"icsId":"1013616","id":"490013616T","lat":51.490698,"lon":0.066291,"name":"Thomas Street / Greens End","parentId":"490G000798","stationId":"490G000798","stopLetter":"T","topMostParentId":"490G000798"},{"icsId":"1001344","id":"490001344N1","lat":51.489802,"lon":0.068109,"name":"Woolwich Arsenal Station","parentId":"490G01344G","stationId":"490G01344G","stopLetter":"N","topMostParentId":"HUBWWA"},{"icsId":"1014934","id":"490014934E","lat":51.491399,"lon":0.071379,"name":"Plumstead Road / Woolwich Public Market","parentId":"490G00014934","stationId":"490G00014934","stopLetter":"K","topMostParentId":"490G00014934"},{"icsId":"1009723","id":"490009723E","lat":51.49117,"lon":0.077232,"name":"Maxey Road","parentId":"490G00009723","stationId":"490G00009723","stopLetter":"->E","topMostParentId":"490G00009723"},{"icsId":"1011069","id":"490011069A","lat":51.491037,"lon":0.081158,"name":"Plumstead Bus Garage","parentId":"490G00011069","stationId":"490G00011069","stopLetter":"A","topMostParentId":"490G00011069"},{"icsId":"1001227","id":"490001227M","lat":51.48968,"lon":0.086153,"name":"Plumstead Station","parentId":"490G1227Z","stationId":"490G1227Z","stopLetter":"C","topMostParentId":"910GPLMS"},{"icsId":"1008908","id":"490008908P","lat":51.487833,"lon":0.090923,"name":"Lakedale Road","parentId":"490G00008908","stationId":"490G00008908","stopLetter":"D","topMostParentId":"490G00008908"},{"icsId":"1011077","id":"490011077E1","lat":51.486895,"lon":0.095115,"name":"Plumstead High Street / Police Station","parentId":"490G00011077","stationId":"490G00011077","stopLetter":"F","topMostParentId":"490G00011077"},{"icsId":"1011276","id":"490011276E2","lat":51.486143,"lon":0.098422,"name":"Purrett Road","parentId":"490G00011276","stationId":"490G00011276","stopLetter":"H","topMostParentId":"490G00011276"},{"icsId":"1011076","id":"490011075E1","lat":51.485803,"lon":0.100869,"name":"Plumstead Corner / Church Manorway","parentId":"490G00011076","stationId":"490G00011076","stopLetter":"K","topMostParentId":"490G00011076"},{"icsId":"1004163","id":"490004163N","lat":51.485035,"lon":0.106567,"name":"Basildon Road / Bostall Hill","parentId":"490G00004163","stationId":"490G00004163","stopLetter":"->N","topMostParentId":"490G00004163"},{"icsId":"1004835","id":"490004835N","lat":51.486694,"lon":0.107291,"name":"Cassilda Road","parentId":"490G00004835","stationId":"490G00004835","stopLetter":"->N","topMostParentId":"490G00004835"},{"icsId":"1004162","id":"490004162E","lat":51.487306,"lon":0.111295,"name":"Bostall Gardens","parentId":"490G00004162","stationId":"490G00004162","stopLetter":"->E","topMostParentId":"490G00004162"},{"icsId":"1004164","id":"490004164E","lat":51.487825,"lon":0.11443,"name":"Mcleod Road / Bostall Lane","parentId":"490G00004164","stationId":"490G00004164","stopLetter":"->E","topMostParentId":"490G00004164"},{"icsId":"1007459","id":"490007459E","lat":51.488379,"lon":0.118115,"name":"Greening Street","parentId":"490G00007459","stationId":"490G00007459","topMostParentId":"490G00007459"},{"icsId":"1005546","id":"490005546H","lat":51.488851,"lon":0.120859,"name":"Conference Road","parentId":"490G00005546","stationId":"490G00005546","stopLetter":"H","topMostParentId":"490G00005546"},{"icsId":"1001001","id":"490001001Z","lat":51.491181,"lon":0.121789,"name":"Abbey Wood Station","parentId":"490G1001Z","stationId":"490G1001Z","stopLetter":"->N","topMostParentId":"910GABWD"},{"icsId":"1019881","id":"490013257A","lat":51.494494,"lon":0.121078,"name":"Harrow Manorway / Lensbury Way","parentId":"490G00019881","stationId":"490G00019881","stopLetter":"A","topMostParentId":"490G00019881"},{"icsId":"1014990","id":"490014990E","lat":51.496421,"lon":0.122464,"name":"Yarnton Way / Harrow Manorway","parentId":"490G00014990","stationId":"490G00014990","stopLetter":"T","topMostParentId":"490G00014990"},{"icsId":"1009166","id":"490009166E","lat":51.496464,"lon":0.128993,"name":"Limestone Walk","parentId":"490G00009166","stationId":"490G00009166","stopLetter":"->E","topMostParentId":"490G00009166"},{"icsId":"1013211","id":"490013211E","lat":51.495441,"lon":0.133815,"name":"The Business Academy","parentId":"490G00013211","stationId":"490G00013211","stopLetter":"->E","topMostParentId":"490G00013211"},{"icsId":"1010432","id":"490010432E","lat":51.493944,"lon":0.138484,"name":"Northwood Place","parentId":"490G00010432","stationId":"490G00010432","stopLetter":"->E","topMostParentId":"490G00010432"},{"icsId":"1009042","id":"490009042E","lat":51.494193,"lon":0.142126,"name":"Thames Innovation Centre","parentId":"490G00009042","stationId":"490G00009042","stopLetter":"->E","topMostParentId":"490G00009042"},{"icsId":"1007643","id":"490007643E","lat":51.494394,"lon":0.150276,"name":"Hailey Road","parentId":"490G00007643","stationId":"490G00007643","stopLetter":"->E","topMostParentId":"490G00007643"},{"icsId":"1010308","id":"490010308N","lat":51.495794,"lon":0.152877,"name":"Yarnton Way / Norman Road","parentId":"490G00010308","stationId":"490G00010308","stopLetter":"->N","topMostParentId":"490G00010308"},{"icsId":"1006343","id":"490006343E","lat":51.498129,"lon":0.156503,"name":"Picardy Manorway / Eastern Way","parentId":"490G00006343","stationId":"490G00006343","topMostParentId":"490G00006343"},{"icsId":"1005691","id":"490005691E","lat":51.497322,"lon":0.159807,"name":"Anderson Way","parentId":"490G00005691","stationId":"490G00005691","stopLetter":"->E","topMostParentId":"490G00005691"},{"icsId":"1016301","id":"490016301N","lat":51.497675,"lon":0.166495,"name":"Dentons Wharf","parentId":"490G00016301","stationId":"490G00016301","stopLetter":"->N","topMostParentId":"490G00016301"},{"icsId":"1016254","id":"490016254W","lat":51.499138,"lon":0.16812,"name":"Fishers Way","parentId":"490G00016254","stationId":"490G00016254","stopLetter":"->W","topMostParentId":"490G00016254"},{"icsId":"1016255","id":"490016255Z","lat":51.500899,"lon":0.163823,"name":"Crabtree Manorway North","parentId":"490G00016255","stationId":"490G00016255","stopLetter":"->W","topMostParentId":"490G00016255"}]}]}