{"direction":"inbound","lineId":"181","lineName":"181","mode":"bus","stopPointSequences":[{"stopPoint":[{"icsId":"1007565","id":"490007565L","lat":51.431805,"lon":0.020832,"name":"Grove Park Bus Station","parentId":"490G000553","stationId":"490G000553","stopLetter":"M","topMostParentId":"490G000553"},{"icsId":"1001124","id":"490015256D","lat":51.430643,"lon":0.019889,"name":"Grove Park Station","parentId":"490G01124B","stationId":"490G01124B","stopLetter":"D","topMostParentId":"910GGRVPK"},{"icsId":"1013390","id":"490013390W","lat":51.430261,"lon":0.015973,"name":"The Green","parentId":"490G00013390","stationId":"490G00013390","stopLetter":"E","topMostParentId":"490G00013390"},{"icsId":"1010393","id":"490010393S","lat":51.428117,"lon":0.013563,"name":"Northover","parentId":"490G00010393","stationId":"490G00010393","stopLetter":"F","topMostParentId":"490G00010393"},{"icsId":"1012324","id":"490012324W","lat":51.425468,"lon":0.013317,"name":"Downham Way / Southover","parentId":"490G00012324","stationId":"490G00012324","stopLetter":"DU","topMostParentId":"490G00012324"},{"icsId":"1007977","id":"490007977W","lat":51.424183,"lon":0.010686,"name":"Headcorn Road","parentId":"490G00007977","stationId":"490G00007977","stopLetter":"DV","topMostParentId":"490G00007977"},{"icsId":"1013993","id":"490013993W","lat":51.424702,"lon":0.007659,"name":"Downham Way / Valeswood Road","parentId":"490G00013993","stationId":"490G00013993","stopLetter":"DW","topMostParentId":"490G00013993"},{"icsId":"1012635","id":"490012635W","lat":51.425936,"lon":0.004419,"name":"St Barnabas Hall","parentId":"490G00012635","stationId":"490G00012635","stopLetter":"DX","topMostParentId":"490G00012635"},{"icsId":"1007221","id":"490007221W","lat":51.42571,"lon":0.001316,"name":"Glenbow Road","parentId":"490G00007221","stationId":"490G00007221","stopLetter":"DY","topMostParentId":"490G00007221"},{"icsId":"1011423","id":"490011423W","lat":51.424668,"lon":-0.00244,"name":"Rangefield Road","parentId":"490G00011423","stationId":"490G00011423","stopLetter":"DZ","topMostParentId":"490G00011423"},{"icsId":"1004430","id":"490004430N","lat":51.42479,"lon":-0.004348,"name":"Bromley Road / Downham Way","parentId":"490G00004430","stationId":"490G00004430","stopLetter":"DK","topMostParentId":"490G00004430"},{"icsId":"1010528","id":"490010528N","lat":51.4261,"lon":-0.006808,"name":"Old Bromley Road","parentId":"490G00010528","stationId":"490G00010528","stopLetter":"SU","topMostParentId":"490G00010528"},{"icsId":"1012286","id":"490012286N1","lat":51.426736,"lon":-0.009845,"name":"Green Man Community Hub","parentId":"490G00012286","stationId":"490G00012286","stopLetter":"SV","topMostParentId":"490G00012286"},{"icsId":"1004432","id":"490004432W","lat":51.42814,"lon":-0.013639,"name":"Southend Lane / Bromley Road","parentId":"490G00004432","stationId":"490G00004432","stopLetter":"SH","topMostParentId":"490G00004432"},{"icsId":"1006249","id":"490006249W","lat":51.426613,"lon":-0.016928,"name":"Dunfield Road","parentId":"490G00006249","stationId":"490G00006249","stopLetter":"SJ","topMostParentId":"490G00006249"},{"icsId":"1006750","id":"490006750W","lat":51.426562,"lon":-0.022957,"name":"Farmstead Road","parentId":"490G00006750","stationId":"490G00006750","stopLetter":"LD","topMostParentId":"490G00006750"},{"icsId":"1008732","id":"490008732W","lat":51.426851,"lon":-0.026713,"name":"King Alfred Avenue","parentId":"490G00008732","stationId":"490G00008732","stopLetter":"LE","topMostParentId":"490G00008732"},{"icsId":"1014953","id":"490014953C","lat":51.427713,"lon":-0.031467,"name":"Worsley Bridge Road","parentId":"490G00014953","stationId":"490G00014953","stopLetter":"LF","topMostParentId":"490G00014953"},{"icsId":"1003848","id":"490003848N1","lat":51.429496,"lon":-0.037504,"name":"Bell Green / Southend Lane","parentId":"490G00003848","stationId":"490G00003848","stopLetter":"LZ","topMostParentId":"490G00003848"},{"icsId":"1003849","id":"490003849W3","lat":51.430641,"lon":-0.034981,"name":"Bell Green / Sainsbury's","parentId":"490G00003849","stationId":"490G00003849","stopLetter":"LL","topMostParentId":"490G00003849"},{"icsId":"1003368","id":"490003368W","lat":51.431909,"lon":-0.037703,"name":"Ardley Close","parentId":"490G00003368","stationId":"490G00003368","stopLetter":"LW","topMostParentId":"490G00003368"},{"icsId":"1008404","id":"490008404N","lat":51.433726,"lon":-0.036661,"name":"Houston Road","parentId":"490G00008404","stationId":"490G00008404","topMostParentId":"490G00008404"},{"icsId":"1004846","id":"490004846N","lat":51.43675,"lon":-0.034128,"name":"Castlands Road","parentId":"490G00004846","stationId":"490G00004846","stopLetter":"Z","topMostParentId":"490G00004846"},{"icsId":"1006510","id":"490006510E","lat":51.439384,"lon":-0.032433,"name":"Elm Lane","parentId":"490G00006510","stationId":"490G00006510","stopLetter":"S","topMostParentId":"490G00006510"},{"icsId":"1003812","id":"490003812E","lat":51.440272,"lon":-0.030682,"name":"Beechfield Road","parentId":"490G00003812","stationId":"490G00003812","stopLetter":"T","topMostParentId":"490G00003812"},{"icsId":"1004862","id":"490001053M","lat":51.44459,"lon":-0.024409,"name":"Catford & Catford Bridge Stations","parentId":"490G000444","stationId":"490G000444","stopLetter":"M","topMostParentId":"490G000444"},{"icsId":"1009117","id":"490009117J","lat":51.445114,"lon":-0.020285,"name":"Catford Road / Lewisham Town Hall","parentId":"490G00009117","stationId":"490G00009117","stopLetter":"J","topMostParentId":"490G00009117"},{"icsId":"1011056","id":"490011056F","lat":51.445179,"lon":-0.017217,"name":"Plassy Road","parentId":"490G00011056","stationId":"490G00011056","stopLetter":"F","topMostParentId":"490G00011056"},{"icsId":"1008318","id":"490008318E","lat":51.443287,"lon":-0.015385,"name":"Holy Cross School","parentId":"490G00008318","stationId":"490G00008318","stopLetter":"H","topMostParentId":"490G00008318"},{"icsId":"1012684","id":"490012684E1","lat":51.442327,"lon":-0.010721,"name":"Sangley Road / St Fillans Road","parentId":"490G00012684","stationId":"490G00012684","stopLetter":"J","topMostParentId":"490G00012684"},{"icsId":"1012534","id":"490012534N","lat":51.442549,"lon":-0.002106,"name":"Torridon Road / St Andrews Church","parentId":"490G00012534","stationId":"490G00012534","stopLetter":"R","topMostParentId":"490G00012534"},{"icsId":"1004506","id":"490004506W","lat":51.444466,"lon":-0.00221,"name":"Brownhill Road","parentId":"490G00004506","stationId":"490G00004506","stopLetter":"P","topMostParentId":"490G00004506"},{"icsId":"1008260","id":"490008260E","lat":51.447022,"lon":-0.000213,"name":"Torridon Road / Hither Green Lane","parentId":"490G00008260","stationId":"490G00008260","stopLetter":"Q","topMostParentId":"490G00008260"},{"icsId":"1006243","id":"490006243N","lat":51.448955,"lon":-0.00233,"name":"Duncrievie Road","parentId":"490G00006243","stationId":"490G00006243","stopLetter":"R","topMostParentId":"490G00006243"},{"icsId":"1008259","id":"490008259N","lat":51.449867,"lon":-0.004637,"name":"George Lane","parentId":"490G00008259","stationId":"490G00008259","stopLetter":"S","topMostParentId":"490G00008259"},{"icsId":"1013479","id":"490013479N","lat":51.451619,"lon":-0.006647,"name":"Theodore Road","parentId":"490G00013479","stationId":"490G00013479","stopLetter":"T","topMostParentId":"490G00013479"},{"icsId":"1013624","id":"490013624N","lat":51.45367,"lon":-0.008256,"name":"Thornford Road","parentId":"490G00013624","stationId":"490G00013624","stopLetter":"->N","topMostParentId":"490G00013624"},{"icsId":"1005658","id":"490005658W","lat":51.456862,"lon":-0.010924,"name":"Courthill Road","parentId":"490G00005658","stationId":"490G00005658","stopLetter":"HT","topMostParentId":"490G00005658"},{"icsId":"1009105","id":"490009105T","lat":51.460139,"lon":-0.011631,"name":"Lewisham Centre","parentId":"490G00009105","stationId":"490G00009105","stopLetter":"T","topMostParentId":"490G00009105"},{"icsId":"1001177","id":"490001177U","lat":51.464955,"lon":-0.012977,"name":"Lewisham Station","parentId":"490G01177G","stationId":"490G01177G","stopLetter":"AP","topMostParentId":"HUBLEW","zone":"2+3"}]}]}