{"direction":"inbound","lineId":"183","lineName":"183","mode":"bus","stopPointSequences":[{"stopPoint":[{"icsId":"1000181","id":"490015522C","lat":51.594341,"lon":-0.382496,"name":"Pinner Station","parentId":"490G00181B","stationId":"490G00181B","stopLetter":"C","topMostParentId":"940GZZLUPNR","zone":"5"},{"icsId":"1011018","id":"490011018A","lat":51.59101,"lon":-0.380276,"name":"Pinner Library","parentId":"490G000704","stationId":"490G000704","stopLetter":"A","topMostParentId":"490G000704"},{"icsId":"1011452","id":"490011452E","lat":51.589486,"lon":-0.377399,"name":"Rayners Lane","parentId":"490G00011452","stationId":"490G00011452","topMostParentId":"490G00011452"},{"icsId":"1011017","id":"490011017E","lat":51.590771,"lon":-0.371449,"name":"Pinner Cemetery","parentId":"490G00011017","stationId":"490G00011017","stopLetter":"->E","topMostParentId":"490G00011017"},{"icsId":"1010454","id":"490010454E","lat":51.590529,"lon":-0.365698,"name":"Nower Hill School","parentId":"490G00010454","stationId":"490G00010454","stopLetter":"->E","topMostParentId":"490G00010454"},{"icsId":"1012288","id":"490012288S","lat":51.588673,"lon":-0.362892,"name":"Southfield Park","parentId":"490G00012288","stationId":"490G00012288","stopLetter":"->S","topMostParentId":"490G00012288"},{"icsId":"1010376","id":"490010376S","lat":51.58656,"lon":-0.361553,"name":"Station Road","parentId":"490G000683","stationId":"490G000683","stopLetter":"NC","topMostParentId":"490G000683"},{"icsId":"1006271","id":"490006271E","lat":51.584006,"lon":-0.357069,"name":"Durham Road","parentId":"490G00006271","stationId":"490G00006271","stopLetter":"NH","topMostParentId":"490G00006271"},{"icsId":"1011825","id":"490011825B","lat":51.582224,"lon":-0.351837,"name":"Rutland Road","parentId":"490G00011825","stationId":"490G00011825","stopLetter":"WE","topMostParentId":"490G00011825"},{"icsId":"1010683","id":"490010683E","lat":51.581484,"lon":-0.349684,"name":"Oxford Road","parentId":"490G00010683","stationId":"490G00010683","stopLetter":"WF","topMostParentId":"490G00010683"},{"icsId":"1010175","id":"490010175E","lat":51.581266,"lon":-0.344481,"name":"Neptune Road","parentId":"490G00010175","stationId":"490G00010175","stopLetter":"WG","topMostParentId":"490G00010175"},{"icsId":"1012690","id":"490012690X1","lat":51.581025,"lon":-0.339468,"name":"St Georges Centre","parentId":"490G00012690","stationId":"490G00012690","stopLetter":"X1","topMostParentId":"490G00012690"},{"icsId":"1007845","id":"490007845E","lat":51.579995,"lon":-0.337874,"name":"Harrow Bus Station","parentId":"490G000574","stationId":"490G000574","stopLetter":"E","topMostParentId":"490G000574"},{"icsId":"1015347","id":"490007868T","lat":51.580795,"lon":-0.334035,"name":"Harrow Town Centre","parentId":"490G00015347","stationId":"490G00015347","stopLetter":"T","topMostParentId":"490G00015347"},{"icsId":"1019614","id":"490007868R","lat":51.581744,"lon":-0.333134,"name":"Harrow Town Centre / Sheepcote Road","parentId":"490G00019614","stationId":"490G00019614","stopLetter":"R","topMostParentId":"490G00019614"},{"icsId":"1016719","id":"490016719S","lat":51.581739,"lon":-0.330247,"name":"Sheepcote Road","parentId":"490G00016719","stationId":"490G00016719","stopLetter":"S","topMostParentId":"490G00016719"},{"icsId":"1007149","id":"490007149DD","lat":51.579372,"lon":-0.326957,"name":"Harrow High School","parentId":"490G00007149","stationId":"490G00007149","stopLetter":"DD","topMostParentId":"490G00007149"},{"icsId":"1010424","id":"490010424GG","lat":51.57986,"lon":-0.322075,"name":"Northwick Avenue","parentId":"490G00010424","stationId":"490G00010424","stopLetter":"GG","topMostParentId":"490G00010424"},{"icsId":"1000124","id":"490000124HH","lat":51.581364,"lon":-0.31844,"name":"Kenton Station","parentId":"490G00124II","stationId":"490G00124II","stopLetter":"HH","topMostParentId":"HUBKNT","zone":"4"},{"icsId":"1004793","id":"490004793KK","lat":51.582996,"lon":-0.315638,"name":"Carlton Avenue","parentId":"490G00004793","stationId":"490G00004793","stopLetter":"KK","topMostParentId":"490G00004793"},{"icsId":"1010517","id":"490010517E","lat":51.58415,"lon":-0.313358,"name":"Odeon Parade / Upton Gardens","parentId":"490G00010517","stationId":"490G00010517","stopLetter":"J","topMostParentId":"490G00010517"},{"icsId":"1012760","id":"490012760E","lat":51.585539,"lon":-0.309871,"name":"St Leonard's Avenue","parentId":"490G00012760","stationId":"490G00012760","stopLetter":"K","topMostParentId":"490G00012760"},{"icsId":"1008667","id":"490008667E","lat":51.586807,"lon":-0.306143,"name":"Kenton Lane","parentId":"490G00008667","stationId":"490G00008667","stopLetter":"U","topMostParentId":"490G00008667"},{"icsId":"1013499","id":"490013499E","lat":51.587248,"lon":-0.303687,"name":"Kenton Park Avenue","parentId":"490G00013499","stationId":"490G00013499","stopLetter":"V","topMostParentId":"490G00013499"},{"icsId":"1005014","id":"490005014E","lat":51.586888,"lon":-0.298691,"name":"Charlton Road","parentId":"490G00005014","stationId":"490G00005014","stopLetter":"->E","topMostParentId":"490G00005014"},{"icsId":"1012128","id":"490012128E","lat":51.586413,"lon":-0.29256,"name":"Shrewsbury Avenue","parentId":"490G00012128","stationId":"490G00012128","stopLetter":"->E","topMostParentId":"490G00012128"},{"icsId":"1005425","id":"490005425M","lat":51.585963,"lon":-0.288881,"name":"Clifton Road","parentId":"490G00005425","stationId":"490G00005425","stopLetter":"N","topMostParentId":"490G00005425"},{"icsId":"1015365","id":"490011176P","lat":51.585324,"lon":-0.283911,"name":"Kingsbury Circle","parentId":"490G000889","stationId":"490G000889","stopLetter":"P","topMostParentId":"490G000889"},{"icsId":"1000128","id":"490000128A","lat":51.584931,"lon":-0.279769,"name":"Kingsbury Station","parentId":"490G00128B","stationId":"490G00128B","stopLetter":"A","topMostParentId":"940GZZLUKBY","zone":"4"}]},{"stopPoint":[{"icsId":"1000128","id":"490000128A","lat":51.584931,"lon":-0.279769,"name":"Kingsbury Station","parentId":"490G00128B","stationId":"490G00128B","stopLetter":"A","topMostParentId":"940GZZLUKBY","zone":"4"},{"icsId":"1013997","id":"490013997L","lat":51.586027,"lon":-0.274213,"name":"Valley Drive","parentId":"490G00013997","stationId":"490G00013997","stopLetter":"L","topMostParentId":"490G00013997"},{"icsId":"1020227","id":"490013441E","lat":51.584971,"lon":-0.269057,"name":"Roe Green Park","parentId":"490G00020227","stationId":"490G00020227","stopLetter":"A","topMostParentId":"490G00020227"},{"icsId":"1011635","id":"490011635E","lat":51.58404,"lon":-0.265065,"name":"Roe Green","parentId":"490G00011635","stationId":"490G00011635","stopLetter":"B","topMostParentId":"490G00011635"},{"icsId":"1005271","id":"490005271E","lat":51.582873,"lon":-0.260967,"name":"Church Lane","parentId":"490G00005271","stationId":"490G00005271","stopLetter":"C","topMostParentId":"490G00005271"},{"icsId":"1013758","id":"490013758E","lat":51.582416,"lon":-0.256178,"name":"Townsend Lane","parentId":"490G00013758","stationId":"490G00013758","stopLetter":"D","topMostParentId":"490G00013758"},{"icsId":"1014469","id":"490014469E","lat":51.58406,"lon":-0.249461,"name":"Edgware Road / The Hyde","parentId":"490G00014469","stationId":"490G00014469","stopLetter":"HT","topMostParentId":"490G00014469"},{"icsId":"1014471","id":"490014471S","lat":51.581558,"lon":-0.244476,"name":"Hendon Magistrates Court","parentId":"490G00014471","stationId":"490G00014471","stopLetter":"HB","topMostParentId":"490G00014471"},{"icsId":"1014561","id":"490014561S","lat":51.579324,"lon":-0.2412,"name":"West Hendon Broadway / Herbert Road","parentId":"490G00014561","stationId":"490G00014561","stopLetter":"HC","topMostParentId":"490G00014561"},{"icsId":"1001148","id":"490001148A","lat":51.579343,"lon":-0.23889,"name":"Hendon Station","parentId":"490G01148B","stationId":"490G01148B","stopLetter":"HD","topMostParentId":"910GHDON"},{"icsId":"1003476","id":"490003476E2","lat":51.582638,"lon":-0.23436,"name":"Audley Road","parentId":"490G00003476","stationId":"490G00003476","topMostParentId":"490G00003476"},{"icsId":"1005485","id":"490005485L","lat":51.585397,"lon":-0.231857,"name":"Edgeworth Avenue","parentId":"490G00005485","stationId":"490G00005485","stopLetter":"L","topMostParentId":"490G00005485"},{"icsId":"1008056","id":"490008056O","lat":51.587511,"lon":-0.229566,"name":"Hendon Town Hall","parentId":"490G00008056","stationId":"490G00008056","stopLetter":"O","topMostParentId":"490G00008056"},{"icsId":"1005257","id":"490005253Q","lat":51.589369,"lon":-0.228094,"name":"Middlesex University","parentId":"490G00005257","stationId":"490G00005257","stopLetter":"Q","topMostParentId":"490G00005257"},{"icsId":"1005253","id":"490005253Z","lat":51.590014,"lon":-0.225557,"name":"Church End","parentId":"490G00005253","stationId":"490G00005253","topMostParentId":"490G00005253"},{"icsId":"1013512","id":"490013512U","lat":51.589314,"lon":-0.221499,"name":"The Quadrant","parentId":"490G00013512","stationId":"490G00013512","stopLetter":"U","topMostParentId":"490G00013512"},{"icsId":"1003853","id":"490003853W","lat":51.586208,"lon":-0.220104,"name":"Bell Lane","parentId":"490G00003853","stationId":"490G00003853","stopLetter":"W","topMostParentId":"490G00003853"},{"icsId":"1007464","id":"490007464S","lat":51.583163,"lon":-0.215561,"name":"Brent Street / Green Lane","parentId":"490G00007464","stationId":"490G00007464","stopLetter":"L","topMostParentId":"490G00007464"},{"icsId":"1010331","id":"490010331E","lat":51.581475,"lon":-0.212813,"name":"North Circular Road","parentId":"490G00010331","stationId":"490G00010331","stopLetter":"M","topMostParentId":"490G00010331"},{"icsId":"1007270","id":"490007270E","lat":51.580524,"lon":-0.210584,"name":"Golders Manor Drive","parentId":"490G00007270","stationId":"490G00007270","stopLetter":"N","topMostParentId":"490G00007270"},{"icsId":"1008152","id":"490008152S","lat":51.578513,"lon":-0.207805,"name":"Highfield Avenue","parentId":"490G00008152","stationId":"490G00008152","stopLetter":"P","topMostParentId":"490G00008152"},{"icsId":"1014904","id":"490014904E","lat":51.575988,"lon":-0.204412,"name":"Woodstock Avenue","parentId":"490G00014904","stationId":"490G00014904","stopLetter":"R","topMostParentId":"490G00014904"},{"icsId":"1015322","id":"490015322GR","lat":51.57365,"lon":-0.200348,"name":"Hoop Lane","parentId":"490G00015322","stationId":"490G00015322","stopLetter":"S","topMostParentId":"490G00015322"},{"icsId":"1006838","id":"490006838GT","lat":51.572188,"lon":-0.197058,"name":"Finchley Road","parentId":"490G00006838","stationId":"490G00006838","stopLetter":"GT","topMostParentId":"490G00006838"},{"icsId":"1000087","id":"490000087GH","lat":51.571917,"lon":-0.194053,"name":"Golders Green Station","parentId":"490G00087GB","stationId":"490G00087GB","stopLetter":"GH","topMostParentId":"940GZZLUGGN","zone":"3"}]},{"stopPoint":[{"icsId":"1019179","id":"490015769","lat":51.581395,"lon":-0.28517,"name":"Jewish Free School","parentId":"490G00019179","stationId":"490G00019179","topMostParentId":"490G00019179"},{"icsId":"1000128","id":"490000128A","lat":51.584931,"lon":-0.279769,"name":"Kingsbury Station","parentId":"490G00128B","stationId":"490G00128B","stopLetter":"A","topMostParentId":"940GZZLUKBY","zone":"4"}]}]}