{"direction":"inbound","lineId":"184","lineName":"184","mode":"bus","stopPointSequences":[{"stopPoint":[{"icsId":"1005129","id":"490005129S","lat":51.646384,"lon":-0.214756,"name":"Chesterfield Road","parentId":"490G00005129","stationId":"490G00005129","stopLetter":"->S","topMostParentId":"490G00005129"},{"icsId":"1005560","id":"490005555S","lat":51.644026,"lon":-0.211077,"name":"Mays Lane","parentId":"490G00005560","stationId":"490G00005560","topMostParentId":"490G00005560"},{"icsId":"1008624","id":"490008624E","lat":51.645263,"lon":-0.207256,"name":"Kenerne Drive","parentId":"490G00008624","stationId":"490G00008624","stopLetter":"->E","topMostParentId":"490G00008624"},{"icsId":"1009065","id":"490009065N","lat":51.646259,"lon":-0.204181,"name":"Leeside","parentId":"490G00009065","stationId":"490G00009065","stopLetter":"->N","topMostParentId":"490G00009065"},{"icsId":"1014705","id":"490014705N","lat":51.64953,"lon":-0.204052,"name":"Willow Drive","parentId":"490G00014705","stationId":"490G00014705","stopLetter":"->N","topMostParentId":"490G00014705"},{"icsId":"1009588","id":"490009588N","lat":51.652824,"lon":-0.203661,"name":"Manor Road / Wood Street","parentId":"490G00009588","stationId":"490G00009588","stopLetter":"X","topMostParentId":"490G00009588"},{"icsId":"1015142","id":"490015142F","lat":51.653063,"lon":-0.201614,"name":"Barnet Church / Wood Street","parentId":"490G00015142","stationId":"490G00015142","stopLetter":"F","topMostParentId":"490G00015142"},{"icsId":"1019009","id":"490003634H","lat":51.652624,"lon":-0.198812,"name":"Barnet High Street / Barnet Church","parentId":"490G00019009","stationId":"490G00019009","stopLetter":"H","topMostParentId":"490G00019009"},{"icsId":"1009772","id":"490009772N","lat":51.651363,"lon":-0.196896,"name":"High Barnet Station / Meadway","parentId":"490G000664","stationId":"490G000664","stopLetter":"N","topMostParentId":"490G000664"},{"icsId":"1008737","id":"490008737W2","lat":51.653301,"lon":-0.189576,"name":"King Edward Road","parentId":"490G00008737","stationId":"490G00008737","stopLetter":"->E","topMostParentId":"490G00008737"},{"icsId":"1012778","id":"490012778E","lat":51.653246,"lon":-0.186601,"name":"St Mark's Close","parentId":"490G00012778","stationId":"490G00012778","topMostParentId":"490G00012778"},{"icsId":"1005413","id":"490005413E","lat":51.652745,"lon":-0.180954,"name":"Clifford Road","parentId":"490G00005413","stationId":"490G00005413","topMostParentId":"490G00005413"},{"icsId":"1011048","id":"490011048G","lat":51.650679,"lon":-0.17881,"name":"Bulwer Road","parentId":"490G00011048","stationId":"490G00011048","stopLetter":"G","topMostParentId":"490G00011048"},{"icsId":"1001203","id":"490001201D","lat":51.649684,"lon":-0.176089,"name":"New Barnet Station  / Station Road","parentId":"490G00001203","stationId":"490G00001203","stopLetter":"D","topMostParentId":"490G00001203"},{"icsId":"1010193","id":"490010193C","lat":51.649874,"lon":-0.171572,"name":"New Barnet Sainsbury's","parentId":"490G00010193","stationId":"490G00010193","stopLetter":"C","topMostParentId":"490G00010193"},{"icsId":"1006313","id":"490006313E","lat":51.647547,"lon":-0.167647,"name":"Victoria Road","parentId":"490G00006313","stationId":"490G00006313","stopLetter":"BA","topMostParentId":"490G00006313"},{"icsId":"1006315","id":"490006315E","lat":51.64312,"lon":-0.164559,"name":"East Barnet Village","parentId":"490G00006315","stationId":"490G00006315","stopLetter":"BB","topMostParentId":"490G00006315"},{"icsId":"1019765","id":"490006316S","lat":51.641969,"lon":-0.162857,"name":"Church Hill Road","parentId":"490G00019765","stationId":"490G00019765","stopLetter":"BH","topMostParentId":"490G00019765"},{"icsId":"1004907","id":"490004907S","lat":51.639555,"lon":-0.160902,"name":"Cedar Avenue","parentId":"490G00004907","stationId":"490G00004907","stopLetter":"BJ","topMostParentId":"490G00004907"},{"icsId":"1012790","id":"490012790S","lat":51.636078,"lon":-0.155941,"name":"St Mary's Church","parentId":"490G00012790","stationId":"490G00012790","stopLetter":"BK","topMostParentId":"490G00012790"},{"icsId":"1010830","id":"490010830S","lat":51.633863,"lon":-0.152303,"name":"Parkside Gardens","parentId":"490G00010830","stationId":"490G00010830","stopLetter":"A","topMostParentId":"490G00010830"},{"icsId":"1010651","id":"490010651S","lat":51.631065,"lon":-0.149917,"name":"Osidge Library","parentId":"490G00010651","stationId":"490G00010651","stopLetter":"B","topMostParentId":"490G00010651"},{"icsId":"1007715","id":"490007715E","lat":51.632097,"lon":-0.143546,"name":"Hampden Square","parentId":"490G00007715","stationId":"490G00007715","stopLetter":"G","topMostParentId":"490G00007715"},{"icsId":"1003381","id":"490003381S","lat":51.627535,"lon":-0.14051,"name":"Arlington Road","parentId":"490G00003381","stationId":"490G00003381","stopLetter":"Y","topMostParentId":"490G00003381"},{"icsId":"1009167","id":"490009167S","lat":51.624552,"lon":-0.137237,"name":"Lincoln Avenue","parentId":"490G00009167","stationId":"490G00009167","stopLetter":"->S","topMostParentId":"490G00009167"},{"icsId":"1010052","id":"490010052S","lat":51.621167,"lon":-0.135873,"name":"Morton Way","parentId":"490G00010052","stationId":"490G00010052","topMostParentId":"490G00010052"},{"icsId":"1004448","id":"490004448S","lat":51.61968,"lon":-0.137957,"name":"Brookdale","parentId":"490G00004448","stationId":"490G00004448","stopLetter":"->S","topMostParentId":"490G00004448"},{"icsId":"1003953","id":"490003953E","lat":51.617334,"lon":-0.140841,"name":"Betstyle Circus","parentId":"490G00003953","stationId":"490G00003953","stopLetter":"E","topMostParentId":"490G00003953"},{"icsId":"1019050","id":"490011439E","lat":51.6164,"lon":-0.138077,"name":"Betstyle Road","parentId":"490G00019050","stationId":"490G00019050","stopLetter":"S","topMostParentId":"490G00019050"},{"icsId":"1000009","id":"490000009A","lat":51.616181,"lon":-0.133377,"name":"Arnos Grove Station","parentId":"490G00009E1","stationId":"490G00009E1","stopLetter":"T","topMostParentId":"940GZZLUASG","zone":"4"},{"icsId":"1013190","id":"490013190E","lat":51.614589,"lon":-0.126523,"name":"Telford Road","parentId":"490G00013190","stationId":"490G00013190","stopLetter":"GP","topMostParentId":"490G00013190"},{"icsId":"1004214","id":"490004490S","lat":51.612093,"lon":-0.12173,"name":"Bowes Road","parentId":"490G00004214","stationId":"490G00004214","stopLetter":"GK","topMostParentId":"490G00004214"},{"icsId":"1015014","id":"490015014S","lat":51.609627,"lon":-0.122756,"name":"York Road","parentId":"490G00015014","stationId":"490G00015014","stopLetter":"GB","topMostParentId":"490G00015014"},{"icsId":"1000028","id":"490000028D","lat":51.607555,"lon":-0.123636,"name":"Bounds Green Station","parentId":"490G00028C","stationId":"490G00028C","stopLetter":"BB","topMostParentId":"940GZZLUBDS","zone":"3+4"},{"icsId":"1014844","id":"490014844S","lat":51.604872,"lon":-0.127328,"name":"Woodfield Way","parentId":"490G00014844","stationId":"490G00014844","stopLetter":"GZ","topMostParentId":"490G00014844"},{"icsId":"1003158","id":"490003158S","lat":51.601675,"lon":-0.131603,"name":"Albert Road","parentId":"490G00003158","stationId":"490G00003158","stopLetter":"->S","topMostParentId":"490G00003158"},{"icsId":"1014061","id":"490014061S","lat":51.600075,"lon":-0.13499,"name":"Victoria Road","parentId":"490G00014061","stationId":"490G00014061","topMostParentId":"490G00014061"},{"icsId":"1001005","id":"490001005D","lat":51.598094,"lon":-0.119636,"name":"Alexandra Palace Station","parentId":"490G01005A","stationId":"490G01005A","stopLetter":"G","topMostParentId":"910GALEXNDP"},{"icsId":"1009734","id":"490009734E","lat":51.596633,"lon":-0.114888,"name":"Barratt Avenue","parentId":"490G00009734","stationId":"490G00009734","stopLetter":"H","topMostParentId":"490G00009734"},{"icsId":"1015471","id":"490015471B","lat":51.597143,"lon":-0.110767,"name":"Wood Green Station / River Park Road","parentId":"490G000900","stationId":"490G000900","stopLetter":"B","topMostParentId":"490G000900"},{"icsId":"1009469","id":"490014854GB","lat":51.595593,"lon":-0.108896,"name":"Wood Green Shopping City","parentId":"490G00009469","stationId":"490G00009469","stopLetter":"GB","topMostParentId":"490G00009469"},{"icsId":"1009461","id":"490009461K","lat":51.593141,"lon":-0.106284,"name":"Brampton Park Road","parentId":"490G00009461","stationId":"490G00009461","stopLetter":"K","topMostParentId":"490G00009461"},{"icsId":"1014669","id":"490000241MA","lat":51.591089,"lon":-0.104002,"name":"Coleraine Road","parentId":"490G000835","stationId":"490G000835","stopLetter":"MA","topMostParentId":"490G000835"},{"icsId":"1000241","id":"490015475Y","lat":51.589626,"lon":-0.102475,"name":"Turnpike Lane Station","parentId":"490G00241M","stationId":"490G00241M","stopLetter":"Y","topMostParentId":"940GZZLUTPN","zone":"3"}]}]}