{"direction":"inbound","lineId":"188","lineName":"188","mode":"bus","stopPointSequences":[{"stopPoint":[{"icsId":"1000200","id":"490000200E","lat":51.522336,"lon":-0.127126,"name":"Russell Square","parentId":"490G00200H","stationId":"490G00200H","stopLetter":"E","topMostParentId":"940GZZLURSQ","zone":"1"},{"icsId":"1005624","id":"490005624S","lat":51.521055,"lon":-0.123489,"name":"Southampton Row","parentId":"490G00005624","stationId":"490G00005624","stopLetter":"B","topMostParentId":"490G00005624"},{"icsId":"1013477","id":"490013477A","lat":51.519578,"lon":-0.121704,"name":"Theobald's Road","parentId":"490G00013477","stationId":"490G00013477","stopLetter":"X","topMostParentId":"490G00013477"},{"icsId":"1000350","id":"490000112M","lat":51.516741,"lon":-0.11976,"name":"Kingsway / Holborn Station","parentId":"490G00000350","stationId":"490G00000350","stopLetter":"M","topMostParentId":"490G00000350"},{"icsId":"1019704","id":"490019704K","lat":51.513339,"lon":-0.116211,"name":"Aldwych / The Royal Courts Of Justice","parentId":"490G00019704","stationId":"490G00019704","stopLetter":"K","topMostParentId":"490G00019704"},{"icsId":"1003193","id":"490003193S","lat":51.51186,"lon":-0.11705,"name":"Aldwych / Somerset House","parentId":"490G000386","stationId":"490G000386","stopLetter":"S","topMostParentId":"490G000386"},{"icsId":"1014271","id":"490014271N","lat":51.507076,"lon":-0.115403,"name":"Waterloo Bridge / South Bank","parentId":"490G000819","stationId":"490G000819","stopLetter":"N","topMostParentId":"HUBWAT"},{"icsId":"1003705","id":"490000254E","lat":51.503514,"lon":-0.111414,"name":"Waterloo Station   / Waterloo Road","parentId":"490G000401","stationId":"490G000401","stopLetter":"E","topMostParentId":"HUBWAT"},{"icsId":"1013485","id":"490013485S1","lat":51.50134,"lon":-0.108752,"name":"The Old Vic","parentId":"490G00013485","stationId":"490G00013485","stopLetter":"S","topMostParentId":"490G00013485"},{"icsId":"1012693","id":"490012693S2","lat":51.499338,"lon":-0.106198,"name":"St George's Circus","parentId":"490G00012693","stationId":"490G00012693","stopLetter":"T","topMostParentId":"490G00012693"},{"icsId":"1009281","id":"490009281E","lat":51.496103,"lon":-0.101333,"name":"Elephant & Castle / London Road","parentId":"490G000642","stationId":"490G000642","stopLetter":"E","topMostParentId":"490G000642"},{"icsId":"1009298","id":"490000073K","lat":51.495078,"lon":-0.099071,"name":"Elephant & Castle / New Kent Road","parentId":"490G000645","stationId":"490G000645","stopLetter":"K","topMostParentId":"HUBEPH"},{"icsId":"1011632","id":"490011632BA","lat":51.49422,"lon":-0.094439,"name":"Rodney Place","parentId":"490G00011632","stationId":"490G00011632","stopLetter":"BA","topMostParentId":"490G00011632"},{"icsId":"1003658","id":"490003658BC","lat":51.494416,"lon":-0.087689,"name":"Bricklayer's Arms / New Kent Road","parentId":"490G00003658","stationId":"490G00003658","stopLetter":"BC","topMostParentId":"490G00003658"},{"icsId":"1019012","id":"490004315BH","lat":51.495633,"lon":-0.08346,"name":"Bricklayer's Arms / Tower Bridge Road","parentId":"490G00019012","stationId":"490G00019012","stopLetter":"BH","topMostParentId":"490G00019012"},{"icsId":"1007362","id":"490007362N","lat":51.497026,"lon":-0.08124,"name":"Grange Road / Caledonian Market","parentId":"490G00007362","stationId":"490G00007362","stopLetter":"L","topMostParentId":"490G00007362"},{"icsId":"1003035","id":"490003035N","lat":51.499021,"lon":-0.0795,"name":"Abbey Street","parentId":"490G00003035","stationId":"490G00003035","stopLetter":"M","topMostParentId":"490G00003035"},{"icsId":"1006200","id":"490006200E","lat":51.502106,"lon":-0.077886,"name":"Druid Street","parentId":"490G00006200","stationId":"490G00006200","stopLetter":"E","topMostParentId":"490G00006200"},{"icsId":"1013745","id":"490013745S","lat":51.501704,"lon":-0.076375,"name":"Boss Street","parentId":"490G00013745","stationId":"490G00013745","stopLetter":"S","topMostParentId":"490G00013745"},{"icsId":"1006091","id":"490006091E","lat":51.499799,"lon":-0.071571,"name":"Dockhead","parentId":"490G00006091","stationId":"490G00006091","stopLetter":"H","topMostParentId":"490G00006091"},{"icsId":"1003034","id":"490003034E","lat":51.498575,"lon":-0.069318,"name":"Jamaica Road / Abbey Street","parentId":"490G00003034","stationId":"490G00003034","stopLetter":"J","topMostParentId":"490G00003034"},{"icsId":"1000021","id":"490012729D","lat":51.49809,"lon":-0.06552,"name":"Bermondsey Station","parentId":"490G00021W","stationId":"490G00021W","stopLetter":"D","topMostParentId":"940GZZLUBMY","zone":"2"},{"icsId":"1006202","id":"490006202E","lat":51.498526,"lon":-0.062548,"name":"Drummond Road","parentId":"490G00006202","stationId":"490G00006202","stopLetter":"E","topMostParentId":"490G00006202"},{"icsId":"1012349","id":"490012349F","lat":51.499075,"lon":-0.057122,"name":"Southwark Park","parentId":"490G00012349","stationId":"490G00012349","stopLetter":"F","topMostParentId":"490G00012349"},{"icsId":"1010176","id":"490010176S","lat":51.497967,"lon":-0.054273,"name":"Neptune Street / St Olaves Estate","parentId":"490G000670","stationId":"490G000670","stopLetter":"S","topMostParentId":"490G000670"},{"icsId":"1013041","id":"490013041T","lat":51.497086,"lon":-0.053216,"name":"Surrey Quays Road","parentId":"490G00013041","stationId":"490G00013041","stopLetter":"Y","topMostParentId":"490G00013041"},{"icsId":"1004733","id":"490000037S","lat":51.49795,"lon":-0.049995,"name":"Canada Water Bus Station","parentId":"490G000438","stationId":"490G000438","stopLetter":"B2","topMostParentId":"HUBZCW"},{"icsId":"1015602","id":"490015602S","lat":51.498466,"lon":-0.046458,"name":"Canada Street","parentId":"490G000912","stationId":"490G000912","stopLetter":"W","topMostParentId":"490G000912"},{"icsId":"1013040","id":"490013040G","lat":51.495614,"lon":-0.045802,"name":"Surrey Quays Leisure Park","parentId":"490G00013040","stationId":"490G00013040","stopLetter":"G","topMostParentId":"490G00013040"},{"icsId":"1000229","id":"490000229L","lat":51.493423,"lon":-0.046011,"name":"Surrey Quays Station","parentId":"490G00229S","stationId":"490G00229S","stopLetter":"L","topMostParentId":"910GSURREYQ"},{"icsId":"1011487","id":"490000229S","lat":51.492345,"lon":-0.045553,"name":"Lower Road / Surrey Quays Station","parentId":"490G00011487","stationId":"490G00011487","stopLetter":"M","topMostParentId":"490G00011487"},{"icsId":"1011484","id":"490011484S","lat":51.491274,"lon":-0.04387,"name":"Lower Road / Plough Way","parentId":"490G00011484","stationId":"490G00011484","stopLetter":"T","topMostParentId":"490G00011484"},{"icsId":"1003944","id":"490003944W","lat":51.48942,"lon":-0.041068,"name":"Bestwood Street","parentId":"490G00003944","stationId":"490G00003944","topMostParentId":"490G00003944"},{"icsId":"1006052","id":"490006052E","lat":51.488323,"lon":-0.038955,"name":"Deptford Park School","parentId":"490G00006052","stationId":"490G00006052","stopLetter":"T","topMostParentId":"490G00006052"},{"icsId":"1015333","id":"490015333E","lat":51.486985,"lon":-0.036347,"name":"Evelyn Street / Grinstead Road","parentId":"490G00015333","stationId":"490G00015333","stopLetter":"U","topMostParentId":"490G00015333"},{"icsId":"1006049","id":"490006049E","lat":51.48506,"lon":-0.033636,"name":"Deptford Fire Station","parentId":"490G00006049","stationId":"490G00006049","stopLetter":"V","topMostParentId":"490G00006049"},{"icsId":"1007585","id":"490007585E","lat":51.483552,"lon":-0.031122,"name":"Abinger Grove","parentId":"490G00007585","stationId":"490G00007585","stopLetter":"W","topMostParentId":"490G00007585"},{"icsId":"1018861","id":"490018861","lat":51.482135,"lon":-0.028159,"name":"Sayes Court Estate","parentId":"490G00018861","stationId":"490G00018861","topMostParentId":"490G00018861"},{"icsId":"1006050","id":"490006050C","lat":51.481245,"lon":-0.024986,"name":"Deptford High Street","parentId":"490G00006050","stationId":"490G00006050","stopLetter":"C","topMostParentId":"490G00006050"},{"icsId":"1011687","id":"490011687D","lat":51.480989,"lon":-0.021483,"name":"Macmillan Students Village","parentId":"490G00011687","stationId":"490G00011687","stopLetter":"D","topMostParentId":"490G00011687"},{"icsId":"1005736","id":"490005736E","lat":51.481412,"lon":-0.017244,"name":"Creekside","parentId":"490G00005736","stationId":"490G00005736","stopLetter":"Z","topMostParentId":"490G00005736"},{"icsId":"1010309","id":"490010309E","lat":51.481497,"lon":-0.014346,"name":"Creek Road / Norman Road","parentId":"490G00010309","stationId":"490G00010309","stopLetter":"Y","topMostParentId":"490G00010309"},{"icsId":"1002027","id":"490002027A","lat":51.481524,"lon":-0.011119,"name":"Greenwich Tn Ctr / Cutty Sark Stn","parentId":"490G02027A","stationId":"490G02027A","stopLetter":"A","topMostParentId":"HUBCUT","zone":"2+3"},{"icsId":"1007515","id":"490007515C","lat":51.481866,"lon":-0.008526,"name":"Greenwich Town Centre / Cutty Sark","parentId":"490G000548","stationId":"490G000548","stopLetter":"C","topMostParentId":"490G000548"},{"icsId":"1006196","id":"490006196F","lat":51.481459,"lon":-0.007319,"name":"National Maritime Museum","parentId":"490G000489","stationId":"490G000489","stopLetter":"F","topMostParentId":"490G000489"},{"icsId":"1013764","id":"490013764S","lat":51.483248,"lon":-0.001984,"name":"Trafalgar Estate","parentId":"490G00013764","stationId":"490G00013764","stopLetter":"S","topMostParentId":"490G00013764"},{"icsId":"1009754","id":"490009754K","lat":51.484162,"lon":0.001368,"name":"Trafalgar Road / Maze Hill","parentId":"490G000663","stationId":"490G000663","stopLetter":"H","topMostParentId":"490G000663"},{"icsId":"1005231","id":"490005231K","lat":51.484869,"lon":0.003661,"name":"King William Lane","parentId":"490G00005231","stationId":"490G00005231","stopLetter":"K","topMostParentId":"490G00005231"},{"icsId":"1004081","id":"490004081J","lat":51.485536,"lon":0.006225,"name":"Tyler Street","parentId":"490G00004081","stationId":"490G00004081","stopLetter":"J","topMostParentId":"490G00004081"},{"icsId":"1010892","id":"490010892C","lat":51.486374,"lon":0.00714,"name":"Pelton Road","parentId":"490G00010892","stationId":"490G00010892","stopLetter":"C","topMostParentId":"490G00010892"},{"icsId":"1013840","id":"490013840R","lat":51.489426,"lon":0.008528,"name":"Tunnel Avenue","parentId":"490G00013840","stationId":"490G00013840","stopLetter":"MQ","topMostParentId":"490G00013840"},{"icsId":"1004146","id":"490004146K","lat":51.495435,"lon":0.007394,"name":"Boord Street","parentId":"490G00004146","stationId":"490G00004146","stopLetter":"MW","topMostParentId":"490G00004146"},{"icsId":"1010374","id":"490010374E","lat":51.500611,"lon":0.002867,"name":"North Greenwich Station","parentId":"490G000682","stationId":"490G000682","stopLetter":"E","topMostParentId":"HUBNGW"}]}]}