{"direction":"inbound","lineId":"19","lineName":"19","mode":"bus","stopPointSequences":[{"stopPoint":[{"icsId":"1000441","id":"490003683N","lat":51.479772,"lon":-0.17147,"name":"Battersea Bridge","parentId":"490G000090","stationId":"490G000090","stopLetter":"BL","topMostParentId":"490G000090"},{"icsId":"1005152","id":"490005152N","lat":51.482572,"lon":-0.173979,"name":"Cheyne Walk","parentId":"490G00005152","stationId":"490G00005152","stopLetter":"BM","topMostParentId":"490G00005152"},{"icsId":"1019014","id":"490015145N","lat":51.484071,"lon":-0.175489,"name":"Beaufort Street / King's Road","parentId":"490G00019014","stationId":"490G00019014","stopLetter":"QU","topMostParentId":"490G00019014"},{"icsId":"1010534","id":"490010534E","lat":51.485537,"lon":-0.173832,"name":"Old Church Street","parentId":"490G00010534","stationId":"490G00010534","stopLetter":"KE","topMostParentId":"490G00010534"},{"icsId":"1004809","id":"490008763KF","lat":51.486629,"lon":-0.171138,"name":"Carlyle Square","parentId":"490G00004809","stationId":"490G00004809","stopLetter":"KF","topMostParentId":"490G00004809"},{"icsId":"1005073","id":"490005073KL","lat":51.487786,"lon":-0.168081,"name":"Chelsea Old Town Hall","parentId":"490G00005073","stationId":"490G00005073","stopLetter":"KL","topMostParentId":"490G00005073"},{"icsId":"1009666","id":"490009666KN","lat":51.488955,"lon":-0.165226,"name":"Markham Street","parentId":"490G00009666","stationId":"490G00009666","stopLetter":"KN","topMostParentId":"490G00009666"},{"icsId":"1006224","id":"490006224KP","lat":51.490863,"lon":-0.161288,"name":"Duke Of York Square","parentId":"490G00006224","stationId":"490G00006224","stopLetter":"KP","topMostParentId":"490G00006224"},{"icsId":"1006228","id":"490000206E","lat":51.492023,"lon":-0.159009,"name":"Cadogan Gardens / Sloane Square","parentId":"490G00006228","stationId":"490G00006228","stopLetter":"E","topMostParentId":"490G00006228"},{"icsId":"1015175","id":"490015175A","lat":51.493329,"lon":-0.157991,"name":"Sloane Street / Sloane Square Station","parentId":"490G000868","stationId":"490G000868","stopLetter":"A","topMostParentId":"490G000868"},{"icsId":"1011097","id":"490011097N","lat":51.496743,"lon":-0.158948,"name":"Pont Street","parentId":"490G00011097","stationId":"490G00011097","stopLetter":"KM","topMostParentId":"490G00011097"},{"icsId":"1000130","id":"490000130K1","lat":51.5009,"lon":-0.160207,"name":"Knightsbridge Station","parentId":"490G00130K1","stationId":"490G00130K1","stopLetter":"KJ","topMostParentId":"940GZZLUKNB","zone":"1"},{"icsId":"1000119","id":"490000119T","lat":51.503024,"lon":-0.153508,"name":"Hyde Park Corner Station","parentId":"490G00119S","stationId":"490G00119S","stopLetter":"T","topMostParentId":"940GZZLUHPC","zone":"1"},{"icsId":"1010574","id":"490010574D","lat":51.504278,"lon":-0.148025,"name":"Old Park Lane / Hard Rock Cafe","parentId":"490G00010574","stationId":"490G00010574","stopLetter":"D","topMostParentId":"490G00010574"},{"icsId":"1000093","id":"490000093PB","lat":51.507015,"lon":-0.142554,"name":"Green Park Station","parentId":"490G00093PE","stationId":"490G00093PE","stopLetter":"J","topMostParentId":"940GZZLUGPK","zone":"1"},{"icsId":"1010526","id":"490011748H","lat":51.508295,"lon":-0.13936,"name":"Old Bond Street / Royal Academy","parentId":"490G00010526","stationId":"490G00010526","stopLetter":"L","topMostParentId":"490G00010526"},{"icsId":"1000179","id":"490000179B","lat":51.509307,"lon":-0.136235,"name":"Piccadilly Circus","parentId":"490G00179B","stationId":"490G00179B","stopLetter":"B","topMostParentId":"940GZZLUPCC","zone":"1"},{"icsId":"1016425","id":"490016425WA","lat":51.512685,"lon":-0.13039,"name":"Gerrard Place / Chinatown","parentId":"490G00016425","stationId":"490G00016425","stopLetter":"P","topMostParentId":"490G00016425"},{"icsId":"1019157","id":"490004695A","lat":51.514339,"lon":-0.129803,"name":"Denmark Street","parentId":"490G00019157","stationId":"490G00019157","stopLetter":"A","topMostParentId":"490G00019157"},{"icsId":"1000379","id":"490000235P","lat":51.516761,"lon":-0.128321,"name":"Tottenham Ct Rd Stn  / New Oxford St","parentId":"490G000030","stationId":"490G000030","stopLetter":"Y","topMostParentId":"490G000030"},{"icsId":"1010131","id":"490010131WB","lat":51.517579,"lon":-0.124338,"name":"Museum Street","parentId":"490G00010131","stationId":"490G00010131","stopLetter":"E","topMostParentId":"490G00010131"},{"icsId":"1004114","id":"490004114X","lat":51.518595,"lon":-0.122076,"name":"Bloomsbury Square","parentId":"490G00004114","stationId":"490G00004114","stopLetter":"F","topMostParentId":"490G00004114"},{"icsId":"1007834","id":"490007834C","lat":51.520112,"lon":-0.119117,"name":"Red Lion Street","parentId":"490G00007834","stationId":"490G00007834","stopLetter":"G","topMostParentId":"490G00007834"},{"icsId":"1007391","id":"490007391E","lat":51.521354,"lon":-0.114136,"name":"Gray's Inn Road","parentId":"490G00007391","stationId":"490G00007391","stopLetter":"CA","topMostParentId":"490G00007391"},{"icsId":"1011686","id":"490011686E","lat":51.523041,"lon":-0.111687,"name":"Rosebery Avenue","parentId":"490G00011686","stationId":"490G00011686","stopLetter":"CE","topMostParentId":"490G00011686"},{"icsId":"1010085","id":"490010085N1","lat":51.523749,"lon":-0.111543,"name":"Mount Pleasant","parentId":"490G00010085","stationId":"490G00010085","stopLetter":"CF","topMostParentId":"490G00010085"},{"icsId":"1013891","id":"490013891N","lat":51.526236,"lon":-0.109623,"name":"Tysoe Street","parentId":"490G00013891","stationId":"490G00013891","stopLetter":"CH","topMostParentId":"490G00013891"},{"icsId":"1007780","id":"490007780N","lat":51.527705,"lon":-0.107588,"name":"Hardwick Street","parentId":"490G00007780","stationId":"490G00007780","stopLetter":"UA","topMostParentId":"490G00007780"},{"icsId":"1011849","id":"490011849RA","lat":51.529202,"lon":-0.10617,"name":"Sadler's Wells Theatre","parentId":"490G00011849","stationId":"490G00011849","stopLetter":"UB","topMostParentId":"490G00011849"},{"icsId":"1013229","id":"490013229P","lat":51.531416,"lon":-0.10628,"name":"St John Street / Goswell Road","parentId":"490G00013229","stationId":"490G00013229","stopLetter":"P","topMostParentId":"490G00013229"},{"icsId":"1000007","id":"490000007Y","lat":51.53432,"lon":-0.105655,"name":"Angel Station","parentId":"490G00007G","stationId":"490G00007G","stopLetter":"Y","topMostParentId":"940GZZLUAGL","zone":"1"},{"icsId":"1013261","id":"490013261Z","lat":51.537127,"lon":-0.10352,"name":"Theberton Street","parentId":"490G00013261","stationId":"490G00013261","stopLetter":"Z","topMostParentId":"490G00013261"},{"icsId":"1008514","id":"490008514N2","lat":51.539277,"lon":-0.102493,"name":"St Mary's Church","parentId":"490G00008514","stationId":"490G00008514","stopLetter":"P","topMostParentId":"490G00008514"},{"icsId":"1008517","id":"490008517N1","lat":51.542211,"lon":-0.103164,"name":"Islington Town Hall","parentId":"490G00008517","stationId":"490G00008517","stopLetter":"R","topMostParentId":"490G00008517"},{"icsId":"1008143","id":"490000108F","lat":51.544984,"lon":-0.103395,"name":"Highbury Corner","parentId":"490G00008143","stationId":"490G00008143","stopLetter":"F","topMostParentId":"490G00008143"},{"icsId":"1008149","id":"490008143C","lat":51.546292,"lon":-0.100874,"name":"St Paul's Road / Highbury Corner","parentId":"490G00008149","stationId":"490G00008149","stopLetter":"C","topMostParentId":"490G00008149"},{"icsId":"1019898","id":"490015544N","lat":51.548865,"lon":-0.098142,"name":"Highbury Grove School / Baalbec Road","parentId":"490G00019898","stationId":"490G00019898","stopLetter":"CW","topMostParentId":"490G00019898"},{"icsId":"1003053","id":"490003053N","lat":51.550437,"lon":-0.098596,"name":"Aberdeen Park","parentId":"490G00003053","stationId":"490G00003053","stopLetter":"CX","topMostParentId":"490G00003053"},{"icsId":"1000333","id":"490008616N","lat":51.554172,"lon":-0.098238,"name":"Highbury Barn","parentId":"490G00000333","stationId":"490G00000333","stopLetter":"EH","topMostParentId":"490G00000333"},{"icsId":"1015699","id":"490015699N","lat":51.556446,"lon":-0.098143,"name":"St Joan Of Arc School","parentId":"490G00015699","stationId":"490G00015699","stopLetter":"EJ","topMostParentId":"490G00015699"},{"icsId":"1011601","id":"490011601Z","lat":51.557946,"lon":-0.0986,"name":"Riversdale Road","parentId":"490G00011601","stationId":"490G00011601","stopLetter":"EK","topMostParentId":"490G00011601"},{"icsId":"1009986","id":"490009986V","lat":51.561331,"lon":-0.099411,"name":"Monsell Road","parentId":"490G00009986","stationId":"490G00009986","stopLetter":"EL","topMostParentId":"490G00009986"},{"icsId":"1011623","id":"490011623P","lat":51.563846,"lon":-0.104226,"name":"Rock Street","parentId":"490G00011623","stationId":"490G00011623","stopLetter":"P","topMostParentId":"490G00011623"},{"icsId":"1006849","id":"490000083AP","lat":51.564248,"lon":-0.10571,"name":"Finsbury Park Interchange","parentId":"490G000516","stationId":"490G000516","stopLetter":"AP","topMostParentId":"HUBFPK"}]}]}