{"direction":"inbound","lineId":"191","lineName":"191","mode":"bus","stopPointSequences":[{"stopPoint":[{"icsId":"1001033","id":"490001033B","lat":51.655615,"lon":-0.031611,"name":"Brimsdown Station","parentId":"490G01033S","stationId":"490G01033S","stopLetter":"D","topMostParentId":"910GBRIMSDN"},{"icsId":"1006964","id":"490006964N","lat":51.659862,"lon":-0.031268,"name":"Fouracres","parentId":"490G00006964","stationId":"490G00006964","stopLetter":"E","topMostParentId":"490G00006964"},{"icsId":"1009127","id":"490009127N","lat":51.662887,"lon":-0.03092,"name":"Leys Road East","parentId":"490G00009127","stationId":"490G00009127","stopLetter":"F","topMostParentId":"490G00009127"},{"icsId":"1003135","id":"490003135W","lat":51.665255,"lon":-0.032162,"name":"Castle Road","parentId":"490G00003135","stationId":"490G00003135","stopLetter":"->W","topMostParentId":"490G00003135"},{"icsId":"1003145","id":"490003145W","lat":51.665686,"lon":-0.037537,"name":"Albany Park Avenue","parentId":"490G00003145","stationId":"490G00003145","stopLetter":"S","topMostParentId":"490G00003145"},{"icsId":"1006348","id":"490006348W","lat":51.666047,"lon":-0.039763,"name":"Hertford Road","parentId":"490G00006348","stationId":"490G00006348","stopLetter":"T","topMostParentId":"490G00006348"},{"icsId":"1005757","id":"490008479S","lat":51.665731,"lon":-0.043421,"name":"Ingersoll Road","parentId":"490G00005757","stationId":"490G00005757","stopLetter":"N","topMostParentId":"490G00005757"},{"icsId":"1003254","id":"49003254EA","lat":51.662029,"lon":-0.045749,"name":"Oatlands Road","parentId":"490G00003254","stationId":"490G00003254","stopLetter":"EA","topMostParentId":"490G00003254"},{"icsId":"1004828","id":"490004828S","lat":51.660556,"lon":-0.046391,"name":"Carterhatch Lane","parentId":"490G00004828","stationId":"490G00004828","stopLetter":"EB","topMostParentId":"490G00004828"},{"icsId":"1012075","id":"490012075W","lat":51.659808,"lon":-0.048491,"name":"Sherborne Avenue","parentId":"490G00012075","stationId":"490G00012075","stopLetter":"ES","topMostParentId":"490G00012075"},{"icsId":"1010894","id":"490010894W","lat":51.659728,"lon":-0.05341,"name":"Larksfield Road","parentId":"490G00010894","stationId":"490G00010894","stopLetter":"A","topMostParentId":"490G00010894"},{"icsId":"1004831","id":"490004831W","lat":51.659934,"lon":-0.057161,"name":"Great Cambridge Road","parentId":"490G00004831","stationId":"490G00004831","stopLetter":"B","topMostParentId":"490G00004831"},{"icsId":"1007588","id":"490007588W","lat":51.659911,"lon":-0.060111,"name":"Baynes Close","parentId":"490G00007588","stationId":"490G00007588","stopLetter":"C","topMostParentId":"490G00007588"},{"icsId":"1005985","id":"490005985W","lat":51.661178,"lon":-0.063368,"name":"Ladysmith Road","parentId":"490G00005985","stationId":"490G00005985","stopLetter":"D","topMostParentId":"490G00005985"},{"icsId":"1014707","id":"490014707W","lat":51.663624,"lon":-0.067732,"name":"Willow Road","parentId":"490G00014707","stationId":"490G00014707","stopLetter":"E","topMostParentId":"490G00014707"},{"icsId":"1006955","id":"490006955W","lat":51.665924,"lon":-0.071987,"name":"Forty Hill","parentId":"490G00006955","stationId":"490G00006955","stopLetter":"F","topMostParentId":"490G00006955"},{"icsId":"1008625","id":"490008625S","lat":51.664821,"lon":-0.074882,"name":"Kenilworth Crescent","parentId":"490G00008625","stationId":"490G00008625","stopLetter":"G","topMostParentId":"490G00008625"},{"icsId":"1003547","id":"490003547W","lat":51.663127,"lon":-0.077947,"name":"Baker Street","parentId":"490G00003547","stationId":"490G00003547","stopLetter":"P","topMostParentId":"490G00003547"},{"icsId":"1003382","id":"490003382W","lat":51.663923,"lon":-0.080993,"name":"Browning Road","parentId":"490G00003382","stationId":"490G00003382","stopLetter":"Q","topMostParentId":"490G00003382"},{"icsId":"1009006","id":"490009006S","lat":51.662466,"lon":-0.086535,"name":"Laurel Bank Road","parentId":"490G00009006","stationId":"490G00009006","stopLetter":"T","topMostParentId":"490G00009006"},{"icsId":"1010857","id":"490010857S2","lat":51.658891,"lon":-0.087871,"name":"Parsonage Lane","parentId":"490G00010857","stationId":"490G00010857","stopLetter":"V","topMostParentId":"490G00010857"},{"icsId":"1014762","id":"490014762CE","lat":51.654213,"lon":-0.088271,"name":"Windmill Hill / Enfield War Memorial","parentId":"490G000838","stationId":"490G000838","stopLetter":"CE","topMostParentId":"490G000838"},{"icsId":"1006587","id":"490006587E","lat":51.652213,"lon":-0.083064,"name":"Enfield Town / Church Street","parentId":"490G00006587","stationId":"490G00006587","stopLetter":"E","topMostParentId":"490G00006587"},{"icsId":"1001101","id":"490001101K","lat":51.65241,"lon":-0.078632,"name":"Enfield Town Station","parentId":"490G01101L","stationId":"490G01101L","stopLetter":"K","topMostParentId":"910GENFLDTN"},{"icsId":"1008903","id":"490008903E","lat":51.652263,"lon":-0.074084,"name":"Ladysmith Road","parentId":"490G00008903","stationId":"490G00008903","stopLetter":"->E","topMostParentId":"490G00008903"},{"icsId":"1004902","id":"490004902E","lat":51.651683,"lon":-0.07048,"name":"Cecil Avenue","parentId":"490G00004902","stationId":"490G00004902","stopLetter":"M","topMostParentId":"490G00004902"},{"icsId":"1003937","id":"490010933E","lat":51.650726,"lon":-0.065924,"name":"Percival Road","parentId":"490G00003937","stationId":"490G00003937","stopLetter":"N","topMostParentId":"490G00003937"},{"icsId":"1007396","id":"490007396E1","lat":51.64991,"lon":-0.061695,"name":"Great Cambridge Road","parentId":"490G00007396","stationId":"490G00007396","stopLetter":"P","topMostParentId":"490G00007396"},{"icsId":"1015329","id":"490015329E","lat":51.649234,"lon":-0.057792,"name":"Baird Road","parentId":"490G00015329","stationId":"490G00015329","stopLetter":"Q","topMostParentId":"490G00015329"},{"icsId":"1005843","id":"490005843E","lat":51.649057,"lon":-0.054706,"name":"Crown Road / Southbury Station","parentId":"490G00005843","stationId":"490G00005843","stopLetter":"S","topMostParentId":"490G00005843"},{"icsId":"1007258","id":"490007258C","lat":51.64863,"lon":-0.047901,"name":"Glyn Road","parentId":"490G000534","stationId":"490G000534","stopLetter":"C","topMostParentId":"490G000534"},{"icsId":"1011753","id":"490011753E","lat":51.64787,"lon":-0.041718,"name":"Royal British Legion","parentId":"490G00011753","stationId":"490G00011753","stopLetter":"PM","topMostParentId":"490G00011753"},{"icsId":"1003082","id":"490003082E","lat":51.647345,"lon":-0.039356,"name":"Alexandra Road","parentId":"490G00003082","stationId":"490G00003082","stopLetter":"PN","topMostParentId":"490G00003082"},{"icsId":"1015127","id":"490015127N","lat":51.647642,"lon":-0.037767,"name":"Durants Road","parentId":"490G00015127","stationId":"490G00015127","topMostParentId":"490G00015127"},{"icsId":"1011951","id":"490011951S","lat":51.647016,"lon":-0.034195,"name":"Scotland Green Road","parentId":"490G00011951","stationId":"490G00011951","stopLetter":"PC","topMostParentId":"490G00011951"},{"icsId":"1001228","id":"490001228S","lat":51.642656,"lon":-0.035858,"name":"Ponders End Station","parentId":"490G01228S","stationId":"490G01228S","stopLetter":"PT","topMostParentId":"910GPNDRSEN"},{"icsId":"1006724","id":"490006723W","lat":51.642726,"lon":-0.037893,"name":"Oasis Academy Hadley","parentId":"490G00006724","stationId":"490G00006724","stopLetter":"PU","topMostParentId":"490G00006724"},{"icsId":"1012809","id":"490012809W","lat":51.643774,"lon":-0.0436,"name":"St Matthew's Church","parentId":"490G00012809","stationId":"490G00012809","stopLetter":"PV","topMostParentId":"490G00012809"},{"icsId":"1010364","id":"490010364S","lat":51.641665,"lon":-0.047102,"name":"Orchard Road","parentId":"490G00010364","stationId":"490G00010364","stopLetter":"LZ","topMostParentId":"490G00010364"},{"icsId":"1007087","id":"490010278S","lat":51.640021,"lon":-0.047707,"name":"Nightingale Road","parentId":"490G00007087","stationId":"490G00007087","stopLetter":"LB","topMostParentId":"490G00007087"},{"icsId":"1011941","id":"490011941S","lat":51.637374,"lon":-0.045884,"name":"Scarborough Road","parentId":"490G00011941","stationId":"490G00011941","stopLetter":"->S","topMostParentId":"490G00011941"},{"icsId":"1012095","id":"490012095S","lat":51.6343,"lon":-0.044384,"name":"Shirley Grove","parentId":"490G00012095","stationId":"490G00012095","stopLetter":"->S","topMostParentId":"490G00012095"},{"icsId":"1012802","id":"490012802S","lat":51.631693,"lon":-0.043369,"name":"St Mary's Road","parentId":"490G00012802","stationId":"490G00012802","stopLetter":"->S","topMostParentId":"490G00012802"},{"icsId":"1000396","id":"490009991W2","lat":51.627768,"lon":-0.046326,"name":"Warley Road","parentId":"490G000046","stationId":"490G000046","stopLetter":"->W","topMostParentId":"490G000046"},{"icsId":"1006686","id":"490006686W","lat":51.628007,"lon":-0.048772,"name":"Exeter Road","parentId":"490G00006686","stationId":"490G00006686","stopLetter":"LT","topMostParentId":"490G00006686"},{"icsId":"1005134","id":"490005134W","lat":51.628301,"lon":-0.052415,"name":"Chester Road","parentId":"490G00005134","stationId":"490G00005134","stopLetter":"LW","topMostParentId":"490G00005134"},{"icsId":"1019080","id":"490004180W","lat":51.628734,"lon":-0.055763,"name":"St Edmunds Catholic Primary School","parentId":"490G00019080","stationId":"490G00019080","stopLetter":"LY","topMostParentId":"490G00019080"},{"icsId":"1004181","id":"490004181W","lat":51.627494,"lon":-0.056336,"name":"Monmouth Road","parentId":"490G00004181","stationId":"490G00004181","stopLetter":"LH","topMostParentId":"490G00004181"},{"icsId":"1009983","id":"490009983F","lat":51.625203,"lon":-0.059194,"name":"Edmonton Green Bus Station","parentId":"490G00009983","stationId":"490G00009983","stopLetter":"F","topMostParentId":"490G00009983"}]}]}