{"direction":"inbound","lineId":"195","lineName":"195","mode":"bus","stopPointSequences":[{"stopPoint":[{"icsId":"1004289","id":"490004289C","lat":51.484344,"lon":-0.305161,"name":"Brentford County Court","parentId":"490G00004289","stationId":"490G00004289","stopLetter":"BQ","topMostParentId":"490G00004289"},{"icsId":"1004294","id":"490004294H","lat":51.484787,"lon":-0.307204,"name":"Half Acre","parentId":"490G00004294","stationId":"490G00004294","stopLetter":"SH","topMostParentId":"490G00004294"},{"icsId":"1014768","id":"490014768K","lat":51.486392,"lon":-0.308138,"name":"Windmill Road","parentId":"490G000839","stationId":"490G000839","stopLetter":"SJ","topMostParentId":"490G000839"},{"icsId":"1001032","id":"490005314S","lat":51.487701,"lon":-0.311619,"name":"Brentford Station","parentId":"490G05314T","stationId":"490G05314T","stopLetter":"SK","topMostParentId":"910GBNTFORD"},{"icsId":"1007424","id":"490007424N","lat":51.488739,"lon":-0.314375,"name":"Great West Road","parentId":"490G00007424","stationId":"490G00007424","stopLetter":"SY","topMostParentId":"490G00007424"},{"icsId":"1009593","id":"490009593N","lat":51.490247,"lon":-0.316033,"name":"Manor Vale","parentId":"490G00009593","stationId":"490G00009593","topMostParentId":"490G00009593"},{"icsId":"1013524","id":"490013524N","lat":51.491614,"lon":-0.317322,"name":"The Ride","parentId":"490G00013524","stationId":"490G00013524","stopLetter":"S","topMostParentId":"490G00013524"},{"icsId":"1004167","id":"490004167N","lat":51.494316,"lon":-0.320767,"name":"Swyncombe Avenue","parentId":"490G00004167","stationId":"490G00004167","stopLetter":"T","topMostParentId":"490G00004167"},{"icsId":"1000027","id":"490000027A","lat":51.495923,"lon":-0.324972,"name":"Boston Manor Station","parentId":"490G00027A","stationId":"490G00027A","stopLetter":"U","topMostParentId":"940GZZLUBOS","zone":"4"},{"icsId":"1004168","id":"490004168N","lat":51.498829,"lon":-0.327617,"name":"Haslemere Avenue","parentId":"490G00004168","stationId":"490G00004168","stopLetter":"V","topMostParentId":"490G00004168"},{"icsId":"1005242","id":"490005242N","lat":51.500723,"lon":-0.329277,"name":"Christopher Avenue","parentId":"490G00005242","stationId":"490G00005242","stopLetter":"W","topMostParentId":"490G00005242"},{"icsId":"1006549","id":"490006549N","lat":51.50269,"lon":-0.33164,"name":"Elthorne Park Road","parentId":"490G00006549","stationId":"490G00006549","stopLetter":"X","topMostParentId":"490G00006549"},{"icsId":"1005899","id":"490005899N","lat":51.504945,"lon":-0.335304,"name":"Studley Grange Road","parentId":"490G00005899","stationId":"490G00005899","stopLetter":"Y","topMostParentId":"490G00005899"},{"icsId":"1009408","id":"490009408Y","lat":51.50638,"lon":-0.338191,"name":"Lower Boston Road","parentId":"490G00009408","stationId":"490G00009408","stopLetter":"Y","topMostParentId":"490G00009408"},{"icsId":"1006292","id":"490015230W","lat":51.508594,"lon":-0.34595,"name":"Ealing Hospital","parentId":"490G00006292","stationId":"490G00006292","stopLetter":"W","topMostParentId":"490G00006292"},{"icsId":"1006292","id":"490015230Q","lat":51.508741,"lon":-0.347429,"name":"Ealing Hospital","parentId":"490G00006292","stationId":"490G00006292","stopLetter":"Q","topMostParentId":"490G00006292"},{"icsId":"1012638","id":"490012638W","lat":51.508864,"lon":-0.349802,"name":"St Bernard's Gatehouse / Windmill Park","parentId":"490G00012638","stationId":"490G00012638","stopLetter":"UJ","topMostParentId":"490G00012638"},{"icsId":"1008498","id":"490008498W","lat":51.509686,"lon":-0.357741,"name":"Iron Bridge","parentId":"490G00008498","stationId":"490G00008498","stopLetter":"UK","topMostParentId":"490G00008498"},{"icsId":"1009465","id":"490009465W","lat":51.510209,"lon":-0.361094,"name":"Lyndhurst Avenue","parentId":"490G00009465","stationId":"490G00009465","stopLetter":"UL","topMostParentId":"490G00009465"},{"icsId":"1015281","id":"490015281U","lat":51.510757,"lon":-0.364274,"name":"Dormer's Wells Lane","parentId":"490G00015281","stationId":"490G00015281","stopLetter":"UM","topMostParentId":"490G00015281"},{"icsId":"1012244","id":"490012244S","lat":51.511047,"lon":-0.368918,"name":"Southall Park","parentId":"490G00012244","stationId":"490G00012244","stopLetter":"UN","topMostParentId":"490G00012244"},{"icsId":"1013594","id":"490013594K","lat":51.510852,"lon":-0.373018,"name":"Southall Police Station","parentId":"490G00013594","stationId":"490G00013594","stopLetter":"K","topMostParentId":"490G00013594"},{"icsId":"1012241","id":"490015439M","lat":51.509917,"lon":-0.376279,"name":"Southall Broadway","parentId":"490G00012241","stationId":"490G00012241","stopLetter":"M","topMostParentId":"490G00012241"},{"icsId":"1010754","id":"490010754Q","lat":51.5078,"lon":-0.377925,"name":"Park Avenue","parentId":"490G00010754","stationId":"490G00010754","stopLetter":"Q","topMostParentId":"490G00010754"},{"icsId":"1001255","id":"490001255O","lat":51.505322,"lon":-0.378892,"name":"Southall Station","parentId":"490G012554","stationId":"490G012554","stopLetter":"O","topMostParentId":"910GSTHALL"},{"icsId":"1013388","id":"490013388M","lat":51.502443,"lon":-0.381372,"name":"The Green","parentId":"490G00013388","stationId":"490G00013388","stopLetter":"M","topMostParentId":"490G00013388"},{"icsId":"1008833","id":"490008833F","lat":51.500415,"lon":-0.382971,"name":"King Street","parentId":"490G00008833","stationId":"490G00008833","stopLetter":"F","topMostParentId":"490G00008833"},{"icsId":"1013056","id":"490013052W2","lat":51.499851,"lon":-0.38642,"name":"Montague Waye","parentId":"490G00013056","stationId":"490G00013056","stopLetter":"->W","topMostParentId":"490G00013056"},{"icsId":"1006056","id":"490006056W","lat":51.49868,"lon":-0.392181,"name":"Derley Road","parentId":"490G00006056","stationId":"490G00006056","stopLetter":"BE","topMostParentId":"490G00006056"},{"icsId":"1012133","id":"490012133W","lat":51.497866,"lon":-0.394471,"name":"Brent Road","parentId":"490G00012133","stationId":"490G00012133","stopLetter":"BF","topMostParentId":"490G00012133"},{"icsId":"1014393","id":"490014393W2","lat":51.496875,"lon":-0.398914,"name":"Wentworth Road","parentId":"490G00014393","stationId":"490G00014393","stopLetter":"BP","topMostParentId":"490G00014393"},{"icsId":"1004573","id":"490004573W","lat":51.497752,"lon":-0.40394,"name":"Hayes Road / Tesco","parentId":"490G00004573","stationId":"490G00004573","stopLetter":"BS","topMostParentId":"490G00004573"},{"icsId":"1013312","id":"490013312W","lat":51.49794,"lon":-0.413788,"name":"Roseville Road","parentId":"490G00013312","stationId":"490G00013312","stopLetter":"->W","topMostParentId":"490G00013312"},{"icsId":"1007825","id":"490007825W","lat":51.49945,"lon":-0.419095,"name":"Harold Avenue","parentId":"490G00007825","stationId":"490G00007825","stopLetter":"J","topMostParentId":"490G00007825"},{"icsId":"1006702","id":"490006702N","lat":51.5019,"lon":-0.423347,"name":"Fairey Corner","parentId":"490G00006702","stationId":"490G00006702","stopLetter":"K","topMostParentId":"490G00006702"},{"icsId":"1001144","id":"490001144N","lat":51.503431,"lon":-0.420917,"name":"Hayes and Harlington Station","parentId":"490G01144N","stationId":"490G01144N","stopLetter":"L","topMostParentId":"910GHAYESAH"},{"icsId":"1007942","id":"490007942K","lat":51.504415,"lon":-0.419831,"name":"Clayton Road","parentId":"490G000581","stationId":"490G000581","stopLetter":"M","topMostParentId":"490G000581"},{"icsId":"1000828","id":"490000828Z","lat":51.506815,"lon":-0.419085,"name":"Hayes Town","parentId":"490G000162","stationId":"490G000162","stopLetter":"P","topMostParentId":"490G000162"},{"icsId":"1004178","id":"490004178N","lat":51.510057,"lon":-0.420817,"name":"Botwell Lane","parentId":"490G00004178","stationId":"490G00004178","stopLetter":"N","topMostParentId":"490G00004178"},{"icsId":"1013751","id":"490013751N","lat":51.512638,"lon":-0.420152,"name":"Townfield Road","parentId":"490G00013751","stationId":"490G00013751","stopLetter":"M","topMostParentId":"490G00013751"},{"icsId":"1007009","id":"490007009N","lat":51.515997,"lon":-0.419863,"name":"Freemans Lane","parentId":"490G00007009","stationId":"490G00007009","stopLetter":"L","topMostParentId":"490G00007009"},{"icsId":"1005262","id":"490005262N","lat":51.518494,"lon":-0.418969,"name":"Church Green","parentId":"490G00005262","stationId":"490G00005262","stopLetter":"K","topMostParentId":"490G00005262"},{"icsId":"1013977","id":"490013977G","lat":51.520885,"lon":-0.417531,"name":"Adam & Eve","parentId":"490G00013977","stationId":"490G00013977","stopLetter":"G","topMostParentId":"490G00013977"},{"icsId":"1008962","id":"490015587E","lat":51.522162,"lon":-0.420197,"name":"Uxbridge County Court","parentId":"490G00008962","stationId":"490G00008962","stopLetter":"FF","topMostParentId":"490G00008962"},{"icsId":"1013978","id":"490013978C","lat":51.523405,"lon":-0.421754,"name":"Whittington Avenue","parentId":"490G00013978","stationId":"490G00013978","stopLetter":"C","topMostParentId":"490G00013978"},{"icsId":"1003572","id":"490003572N","lat":51.526748,"lon":-0.418885,"name":"Balmoral Drive","parentId":"490G00003572","stationId":"490G00003572","stopLetter":"->N","topMostParentId":"490G00003572"},{"icsId":"1006715","id":"490006715N","lat":51.53005,"lon":-0.417675,"name":"Fairholme Crescent","parentId":"490G00006715","stationId":"490G00006715","stopLetter":"Q","topMostParentId":"490G00006715"},{"icsId":"1008963","id":"490008963W","lat":51.532029,"lon":-0.419755,"name":"The Brook House","parentId":"490G00008963","stationId":"490G00008963","stopLetter":"U","topMostParentId":"490G00008963"},{"icsId":"1003111","id":"490003111N","lat":51.53245,"lon":-0.422941,"name":"Adelphi Crescent","parentId":"490G00003111","stationId":"490G00003111","stopLetter":"V","topMostParentId":"490G00003111"},{"icsId":"1014544","id":"490014544N","lat":51.533694,"lon":-0.425897,"name":"Weymouth Road","parentId":"490G00014544","stationId":"490G00014544","stopLetter":"W","topMostParentId":"490G00014544"},{"icsId":"1004631","id":"490008786N","lat":51.535176,"lon":-0.4271,"name":"Charville Library","parentId":"490G00004631","stationId":"490G00004631","stopLetter":"X","topMostParentId":"490G00004631"},{"icsId":"1005031","id":"490005031N","lat":51.536751,"lon":-0.429237,"name":"Charville School","parentId":"490G00005031","stationId":"490G00005031","stopLetter":"Y","topMostParentId":"490G00005031"},{"icsId":"1005030","id":"490005030E","lat":51.535596,"lon":-0.434987,"name":"Charville Lane Estate","parentId":"490G00005030","stationId":"490G00005030","stopLetter":"Z","topMostParentId":"490G00005030"}]}]}