{"direction":"inbound","lineId":"196","lineName":"196","mode":"bus","stopPointSequences":[{"stopPoint":[{"icsId":"1001216","id":"490001216E","lat":51.398636,"lon":-0.07511,"name":"Norwood Junction Station","parentId":"490G01216E","stationId":"490G01216E","stopLetter":"E","topMostParentId":"HUBNWD"},{"icsId":"1011128","id":"490011128F","lat":51.399046,"lon":-0.07541,"name":"Portland Road","parentId":"490G000710","stationId":"490G000710","stopLetter":"F","topMostParentId":"490G000710"},{"icsId":"1012551","id":"490012551H","lat":51.400215,"lon":-0.075964,"name":"Stanley Hall","parentId":"490G00012551","stationId":"490G00012551","stopLetter":"H","topMostParentId":"490G00012551"},{"icsId":"1006512","id":"490006512N","lat":51.401989,"lon":-0.07888,"name":"Elm Park Road","parentId":"490G00006512","stationId":"490G00006512","stopLetter":"->N","topMostParentId":"490G00006512"},{"icsId":"1008410","id":"490008410N","lat":51.404713,"lon":-0.082087,"name":"Howden Road","parentId":"490G00008410","stationId":"490G00008410","stopLetter":"NA","topMostParentId":"490G00008410"},{"icsId":"1014227","id":"490014227N","lat":51.406464,"lon":-0.084732,"name":"Wharncliffe Gardens","parentId":"490G00014227","stationId":"490G00014227","stopLetter":"NB","topMostParentId":"490G00014227"},{"icsId":"1007344","id":"490007344N","lat":51.407781,"lon":-0.086057,"name":"Grange Avenue","parentId":"490G00007344","stationId":"490G00007344","stopLetter":"NC","topMostParentId":"490G00007344"},{"icsId":"1018970","id":"490003242N","lat":51.40906,"lon":-0.086737,"name":"South Norwood Hill / All Saints Church","parentId":"490G00018970","stationId":"490G00018970","stopLetter":"ND","topMostParentId":"490G00018970"},{"icsId":"1013929","id":"490013929N","lat":51.411906,"lon":-0.088085,"name":"Upper Beulah Hill","parentId":"490G00013929","stationId":"490G00013929","stopLetter":"NE","topMostParentId":"490G00013929"},{"icsId":"1003959","id":"490003959N","lat":51.414529,"lon":-0.092908,"name":"Beulah Spa","parentId":"490G00003959","stationId":"490G00003959","stopLetter":"NH","topMostParentId":"490G00003959"},{"icsId":"1015337","id":"490015337N","lat":51.4171,"lon":-0.098353,"name":"Hermitage Road","parentId":"490G00015337","stationId":"490G00015337","stopLetter":"NJ","topMostParentId":"490G00015337"},{"icsId":"1005559","id":"490005559N","lat":51.418401,"lon":-0.101506,"name":"Convent Hill","parentId":"490G00005559","stationId":"490G00005559","stopLetter":"NK","topMostParentId":"490G00005559"},{"icsId":"1003992","id":"490003992N","lat":51.418916,"lon":-0.105023,"name":"Biggin Hill","parentId":"490G00003992","stationId":"490G00003992","stopLetter":"->N","topMostParentId":"490G00003992"},{"icsId":"1005839","id":"490005839N","lat":51.421725,"lon":-0.106287,"name":"Crown Point / Beulah Hill","parentId":"490G00005839","stationId":"490G00005839","stopLetter":"CS","topMostParentId":"490G00005839"},{"icsId":"1005840","id":"490005840N","lat":51.423038,"lon":-0.105744,"name":"Crown Point / Knights Hill","parentId":"490G00005840","stationId":"490G00005840","stopLetter":"CL","topMostParentId":"490G00005840"},{"icsId":"1020110","id":"490020110N","lat":51.424776,"lon":-0.105356,"name":"Lakeview Road","parentId":"490G00020110","stationId":"490G00020110","stopLetter":"->N","topMostParentId":"490G00020110"},{"icsId":"1012969","id":"490012969N","lat":51.427106,"lon":-0.104871,"name":"West Norwood Fire Station","parentId":"490G00012969","stationId":"490G00012969","stopLetter":"CM","topMostParentId":"490G00012969"},{"icsId":"1012754","id":"490012754N","lat":51.430156,"lon":-0.104414,"name":"St Julian's Farm Road","parentId":"490G00012754","stationId":"490G00012754","stopLetter":"Y","topMostParentId":"490G00012754"},{"icsId":"1001331","id":"490001331W","lat":51.432222,"lon":-0.104227,"name":"West Norwood Station","parentId":"490G01331T","stationId":"490G01331T","stopLetter":"W","topMostParentId":"910GWNORWOD"},{"icsId":"1013670","id":"490013655N","lat":51.434077,"lon":-0.103849,"name":"Norwood Road / Robson Road","parentId":"490G00013670","stationId":"490G00013670","stopLetter":"N","topMostParentId":"490G00013670"},{"icsId":"1008927","id":"490008927K","lat":51.436591,"lon":-0.105255,"name":"Lancaster Avenue","parentId":"490G00008927","stationId":"490G00008927","stopLetter":"K","topMostParentId":"490G00008927"},{"icsId":"1001298","id":"490001298F1","lat":51.44067,"lon":-0.106166,"name":"Tulse Hill Station","parentId":"490G01298G","stationId":"490G01298G","stopLetter":"F","topMostParentId":"910GTULSEH"},{"icsId":"1013656","id":"490013656B","lat":51.442121,"lon":-0.105789,"name":"Thurlow Park Road","parentId":"490G00013656","stationId":"490G00013656","stopLetter":"B","topMostParentId":"490G00013656"},{"icsId":"1006058","id":"490006058N","lat":51.444483,"lon":-0.105029,"name":"Deronda Road","parentId":"490G00006058","stationId":"490G00006058","stopLetter":"->N","topMostParentId":"490G00006058"},{"icsId":"1004404","id":"490004404N","lat":51.446567,"lon":-0.1049,"name":"Brockwell Park Gardens","parentId":"490G00004404","stationId":"490G00004404","stopLetter":"Q","topMostParentId":"490G00004404"},{"icsId":"1011701","id":"490011701N","lat":51.449088,"lon":-0.101773,"name":"Rosendale Road","parentId":"490G00011701","stationId":"490G00011701","stopLetter":"A","topMostParentId":"490G00011701"},{"icsId":"1004403","id":"490004403N","lat":51.451543,"lon":-0.10124,"name":"Brockwell Park","parentId":"490G000428","stationId":"490G000428","stopLetter":"H","topMostParentId":"490G000428"},{"icsId":"1001149","id":"490001149L","lat":51.452452,"lon":-0.102915,"name":"Herne Hill Station","parentId":"490G01149L","stationId":"490G01149L","stopLetter":"L","topMostParentId":"910GHERNEH"},{"icsId":"1004402","id":"490004402W","lat":51.453702,"lon":-0.106792,"name":"Brockwell Lido","parentId":"490G00004402","stationId":"490G00004402","stopLetter":"S","topMostParentId":"490G00004402"},{"icsId":"1005054","id":"490005054N","lat":51.455268,"lon":-0.110268,"name":"Chaucer Road / Effra Parade","parentId":"490G00005054","stationId":"490G00005054","stopLetter":"T","topMostParentId":"490G00005054"},{"icsId":"1015275","id":"490015275W","lat":51.45518,"lon":-0.112575,"name":"Brixton Water Lane","parentId":"490G00015275","stationId":"490G00015275","stopLetter":"V","topMostParentId":"490G00015275"},{"icsId":"1005847","id":"490005847N","lat":51.456612,"lon":-0.114401,"name":"Morval Road","parentId":"490G00005847","stationId":"490G00005847","stopLetter":"N","topMostParentId":"490G00005847"},{"icsId":"1012810","id":"490012810N","lat":51.458349,"lon":-0.115078,"name":"St Matthews Estate","parentId":"490G00012810","stationId":"490G00012810","stopLetter":"P","topMostParentId":"490G00012810"},{"icsId":"1008919","id":"490008919W","lat":51.460335,"lon":-0.116638,"name":"Lambeth Town Hall","parentId":"490G000627","stationId":"490G000627","stopLetter":"W","topMostParentId":"490G000627"},{"icsId":"1000031","id":"490000031T","lat":51.461969,"lon":-0.115375,"name":"Brixton Station","parentId":"490G00031N","stationId":"490G00031N","stopLetter":"T","topMostParentId":"HUBBRX","zone":"2"},{"icsId":"1007526","id":"490007523C","lat":51.464902,"lon":-0.114895,"name":"Brixton Academy","parentId":"490G00007526","stationId":"490G00007526","stopLetter":"C","topMostParentId":"490G00007526"},{"icsId":"1012578","id":"490012578N","lat":51.466567,"lon":-0.11723,"name":"Stansfield Road","parentId":"490G00012578","stationId":"490G00012578","stopLetter":"->N","topMostParentId":"490G00012578"},{"icsId":"1012833","id":"490012833S2","lat":51.468576,"lon":-0.11912,"name":"Stockwell Green","parentId":"490G00012833","stationId":"490G00012833","topMostParentId":"490G00012833"},{"icsId":"1012832","id":"490000223R","lat":51.471641,"lon":-0.121831,"name":"Stockwell Gardens","parentId":"490G000768","stationId":"490G000768","stopLetter":"R","topMostParentId":"490G000768"},{"icsId":"1019445","id":"4900019445","lat":51.472588,"lon":-0.123145,"name":"Binfield Road / Stockwell Station","parentId":"490G00019445","stationId":"490G00019445","stopLetter":"C","topMostParentId":"490G00019445"},{"icsId":"1012831","id":"490012831N","lat":51.474288,"lon":-0.125423,"name":"Stockwell Bus Garage","parentId":"490G00012831","stationId":"490G00012831","stopLetter":"N","topMostParentId":"490G00012831"},{"icsId":"1008969","id":"490008969N","lat":51.475994,"lon":-0.130868,"name":"Lansdowne Green","parentId":"490G00008969","stationId":"490G00008969","stopLetter":"H","topMostParentId":"490G00008969"},{"icsId":"1014679","id":"490014679N","lat":51.479369,"lon":-0.1288,"name":"Wilcox Road","parentId":"490G00014679","stationId":"490G00014679","stopLetter":"J","topMostParentId":"490G00014679"},{"icsId":"1005678","id":"490005678N","lat":51.482343,"lon":-0.127512,"name":"Covent Garden Market East Side","parentId":"490G00005678","stationId":"490G00005678","stopLetter":"K","topMostParentId":"490G00005678"},{"icsId":"1020252","id":"490000247F","lat":51.485109,"lon":-0.124446,"name":"Vauxhall Bus Station","parentId":"490G00020252","stationId":"490G00020252","stopLetter":"F","topMostParentId":"HUBVXH"},{"icsId":"1012571","id":"490012571T","lat":51.486308,"lon":-0.120148,"name":"St Anne's Church","parentId":"490G00012571","stationId":"490G00012571","stopLetter":"T","topMostParentId":"490G00012571"},{"icsId":"1009375","id":"490009375E","lat":51.487163,"lon":-0.114582,"name":"Loughborough Street","parentId":"490G00009375","stationId":"490G00009375","stopLetter":"KL","topMostParentId":"490G00009375"},{"icsId":"1008646","id":"490008646KD","lat":51.489182,"lon":-0.110451,"name":"Kennington Road","parentId":"490G00008646","stationId":"490G00008646","stopLetter":"KD","topMostParentId":"490G00008646"},{"icsId":"1011521","id":"490011521E","lat":51.490988,"lon":-0.105853,"name":"Renfrew Road","parentId":"490G00011521","stationId":"490G00011521","stopLetter":"BJ","topMostParentId":"490G00011521"},{"icsId":"1010223","id":"490010223N","lat":51.491739,"lon":-0.102811,"name":"Newington Butts","parentId":"490G00010223","stationId":"490G00010223","stopLetter":"BL","topMostParentId":"490G00010223"},{"icsId":"1000073","id":"490000073T","lat":51.494214,"lon":-0.100749,"name":"Elephant & Castle Station","parentId":"490G00073G","stationId":"490G00073G","stopLetter":"T","topMostParentId":"HUBEPH","zone":"1+2"},{"icsId":"1009297","id":"490000073F","lat":51.496432,"lon":-0.09998,"name":"Elephant & Castle / Newington Causeway","parentId":"490G000644","stationId":"490G000644","stopLetter":"F","topMostParentId":"490G000644"}]}]}