{"direction":"inbound","lineId":"20","lineName":"20","mode":"bus","stopPointSequences":[{"stopPoint":[{"icsId":"1016793","id":"1500IM1055","lat":51.646934,"lon":0.082205,"name":"The Broadway","parentId":"150G00003600","stationId":"150G00003600","topMostParentId":"150G00003601"},{"icsId":"1016794","id":"1500IM1055B","lat":51.647309,"lon":0.082353,"name":"Torrington Drive","parentId":"150G00003664","stationId":"150G00003664","topMostParentId":"150G00003601"},{"icsId":"1018894","id":"150042004003","lat":51.648417,"lon":0.08476,"name":"Burton Road","topMostParentId":"150042004003"},{"icsId":"1016528","id":"150042005002","lat":51.651915,"lon":0.084284,"name":"Etheridge Road","parentId":"150G00000916","stationId":"150G00000916","topMostParentId":"150G00000916"},{"icsId":"1016527","id":"150042005004","lat":51.653207,"lon":0.083938,"name":"Mannock Drive","parentId":"150G00000917","stationId":"150G00000917","topMostParentId":"150G00000917"},{"icsId":"1016526","id":"150042005006","lat":51.654956,"lon":0.085739,"name":"Goldingham Avenue","parentId":"150G00000918","stationId":"150G00000918","topMostParentId":"150G00000918"},{"icsId":"1016525","id":"150042005008","lat":51.657093,"lon":0.085375,"name":"The Cottage Loaf","parentId":"150G00000919","stationId":"150G00000919","topMostParentId":"150G00000919"},{"icsId":"1016524","id":"150042005010","lat":51.658748,"lon":0.083354,"name":"Colebrook Lane","parentId":"150G00000920","stationId":"150G00000920","topMostParentId":"150G00000920"},{"icsId":"1005135","id":"1500625","lat":51.659484,"lon":0.081421,"name":"Castell Road","parentId":"150G00000125","stationId":"150G00000125","topMostParentId":"150G00000125"},{"icsId":"1016522","id":"150042006003","lat":51.657857,"lon":0.079843,"name":"Chandler Road","parentId":"150G00000921","stationId":"150G00000921","topMostParentId":"150G00000921"},{"icsId":"1016521","id":"1500DEBDEN8","lat":51.656944,"lon":0.077575,"name":"Pyrles Lane","parentId":"150G00000922","stationId":"150G00000922","topMostParentId":"150G00000922"},{"icsId":"1016520","id":"150042008004","lat":51.656345,"lon":0.072776,"name":"Hillcroft","parentId":"150G00000924","stationId":"150G00000924","topMostParentId":"150G00000924"},{"icsId":"1013316","id":"150042008006","lat":51.656166,"lon":0.069689,"name":"Hillyfields","parentId":"150G00000925","stationId":"150G00000925","topMostParentId":"150G00000925"},{"icsId":"1004554","id":"150042002001","lat":51.655838,"lon":0.06791,"name":"Maple Gate","parentId":"150G00000907","stationId":"150G00000907","topMostParentId":"150G00000907"},{"icsId":"1009390","id":"1500IM387","lat":51.655735,"lon":0.066604,"name":"Homebase","parentId":"150G00000906","stationId":"150G00000906","topMostParentId":"150G00000906"},{"icsId":"1005249","id":"150042009003","lat":51.653442,"lon":0.063016,"name":"Church Lane","parentId":"150G00000905","stationId":"150G00000905","topMostParentId":"150G00000905"},{"icsId":"1013576","id":"150042009002","lat":51.651642,"lon":0.059985,"name":"The Uplands","parentId":"150G00000904","stationId":"150G00000904","topMostParentId":"150G00000904"},{"icsId":"1009391","id":"150042010008","lat":51.649286,"lon":0.056944,"name":"Traps Hill","parentId":"150G00000903","stationId":"150G00000903","topMostParentId":"150G00000903"},{"icsId":"1009384","id":"150042010006","lat":51.646951,"lon":0.054684,"name":"Forest Road","parentId":"150G00000902","stationId":"150G00000902","topMostParentId":"150G00000902"},{"icsId":"1009382","id":"1500IM504","lat":51.644212,"lon":0.05245,"name":"The Crown","parentId":"150G00000959","stationId":"150G00000959","topMostParentId":"150G00000959"},{"icsId":"1000316","id":"150042015006","lat":51.642155,"lon":0.054872,"name":"Loughton Station","stopLetter":"B","topMostParentId":"150042015006"},{"icsId":"1009386","id":"1500SAINS1","lat":51.643338,"lon":0.053552,"name":"Sainsbury's","topMostParentId":"1500SAINS1"},{"icsId":"1009382","id":"1500LOUGHTON","lat":51.643965,"lon":0.051615,"name":"The Crown","parentId":"150G00000959","stationId":"150G00000959","topMostParentId":"150G00000959"},{"icsId":"1009387","id":"150042010002","lat":51.641535,"lon":0.048152,"name":"The Crescent","topMostParentId":"150042010002"},{"icsId":"1009388","id":"150042011010","lat":51.640351,"lon":0.04489,"name":"Spring Grove","parentId":"150G00000900","stationId":"150G00000900","topMostParentId":"150G00000900"},{"icsId":"1004544","id":"150042011008","lat":51.63753,"lon":0.041093,"name":"North Farm","parentId":"150G00000899","stationId":"150G00000899","topMostParentId":"150G00000899"},{"icsId":"1004549","id":"150042011007","lat":51.631791,"lon":0.036529,"name":"Cricket Ground","parentId":"150G00000898","stationId":"150G00000898","topMostParentId":"150G00000898"},{"icsId":"1004548","id":"150042011005","lat":51.628678,"lon":0.034034,"name":"Russell Road","parentId":"150G00000897","stationId":"150G00000897","topMostParentId":"150G00000897"},{"icsId":"1004543","id":"1500IM2419","lat":51.626011,"lon":0.032282,"name":"Stag Lane","parentId":"150G00000205","stationId":"150G00000205","topMostParentId":"150G00000205"},{"icsId":"1008871","id":"490008871S","lat":51.622588,"lon":0.029991,"name":"Knighton Lane","parentId":"490G00008871","stationId":"490G00008871","stopLetter":"FN","topMostParentId":"490G00008871"},{"icsId":"1014589","id":"490014589S","lat":51.619218,"lon":0.027269,"name":"Whitehall Road / Bancrofts School","parentId":"490G00014589","stationId":"490G00014589","stopLetter":"FD","topMostParentId":"490G00014589"},{"icsId":"1015121","id":"490015121S","lat":51.615828,"lon":0.025717,"name":"St Thomas Of Canterbury Church","parentId":"490G00015121","stationId":"490G00015121","stopLetter":"FS","topMostParentId":"490G00015121"},{"icsId":"1009973","id":"490009973S","lat":51.612292,"lon":0.02374,"name":"Monkhams Lane","parentId":"490G00009973","stationId":"490G00009973","stopLetter":"A","topMostParentId":"490G00009973"},{"icsId":"1014847","id":"490014847S","lat":51.609184,"lon":0.021421,"name":"Woodford Green / Broadmead Road","parentId":"490G000842","stationId":"490G000842","stopLetter":"B","topMostParentId":"490G000842"},{"icsId":"1005177","id":"490005177S","lat":51.607043,"lon":0.019896,"name":"Chingford Lane","parentId":"490G00005177","stationId":"490G00005177","stopLetter":"C","topMostParentId":"490G00005177"},{"icsId":"1012623","id":"490012623S","lat":51.602592,"lon":0.015727,"name":"St Aubyn's School","parentId":"490G00012623","stationId":"490G00012623","stopLetter":"E","topMostParentId":"490G00012623"},{"icsId":"1005061","id":"490005061S","lat":51.599508,"lon":0.013049,"name":"Chelmsford Road","parentId":"490G00005061","stationId":"490G00005061","stopLetter":"F","topMostParentId":"490G00005061"},{"icsId":"1014288","id":"490014288S","lat":51.596783,"lon":0.011528,"name":"Waterworks Corner","parentId":"490G00014288","stationId":"490G00014288","stopLetter":"G","topMostParentId":"490G00014288"},{"icsId":"1006926","id":"490006926S","lat":51.593457,"lon":0.009894,"name":"Forest Road","parentId":"490G00006926","stationId":"490G00006926","stopLetter":"H","topMostParentId":"490G00006926"},{"icsId":"1013533","id":"490013533S","lat":51.587767,"lon":0.007102,"name":"St Peters Church","parentId":"490G00013533","stationId":"490G00013533","stopLetter":"->S","topMostParentId":"490G00013533"},{"icsId":"1012216","id":"490012216S","lat":51.584111,"lon":0.006335,"name":"Snaresbrook Road","parentId":"490G00012216","stationId":"490G00012216","stopLetter":"->S","topMostParentId":"490G00012216"},{"icsId":"1007647","id":"490007647H","lat":51.582992,"lon":0.004496,"name":"Hainault Court","parentId":"490G00007647","stationId":"490G00007647","stopLetter":"->S","topMostParentId":"490G00007647"},{"id":"490002116W","lat":51.581145,"lon":0.001499,"name":"Whipps Cross Bus Stand","parentId":"490G000338","stationId":"490G000338","topMostParentId":"490G000338"},{"icsId":"1014569","id":"490014569B","lat":51.580894,"lon":-0.001139,"name":"Whipps Cross / Wood Street","parentId":"490G00014569","stationId":"490G00014569","stopLetter":"B","topMostParentId":"490G00014569"},{"icsId":"1006342","id":"490013295W","lat":51.579509,"lon":-0.004332,"name":"Peterborough Road","parentId":"490G00006342","stationId":"490G00006342","stopLetter":"WA","topMostParentId":"490G00006342"},{"icsId":"1006644","id":"490006644W","lat":51.578373,"lon":-0.006778,"name":"Essex Road","parentId":"490G00006644","stationId":"490G00006644","stopLetter":"WB","topMostParentId":"490G00006644"},{"icsId":"1009135","id":"490009135WK","lat":51.576589,"lon":-0.007635,"name":"Leyton Green Road","parentId":"490G00009135","stationId":"490G00009135","stopLetter":"WK","topMostParentId":"490G00009135"},{"icsId":"1015102","id":"490015100H","lat":51.574755,"lon":-0.011915,"name":"Lea Bridge Road / Bakers Arms","parentId":"490G00015102","stationId":"490G00015102","stopLetter":"ND","topMostParentId":"490G00015102"},{"icsId":"1015100","id":"490015099B","lat":51.575856,"lon":-0.014306,"name":"Hoe Street / Bakers Arms","parentId":"490G00015100","stationId":"490G00015100","stopLetter":"NE","topMostParentId":"490G00015100"},{"icsId":"1007576","id":"490007576N","lat":51.578217,"lon":-0.017248,"name":"Grove Road","parentId":"490G00007576","stationId":"490G00007576","stopLetter":"NH","topMostParentId":"490G00007576"},{"icsId":"1011349","id":"490011349N","lat":51.580612,"lon":-0.018501,"name":"Queen's Road","parentId":"490G00011349","stationId":"490G00011349","stopLetter":"L","topMostParentId":"490G00011349"},{"icsId":"1000249","id":"490000249M","lat":51.583099,"lon":-0.019836,"name":"Walthamstow Central Station","parentId":"490G00249M","stationId":"490G00249M","stopLetter":"AP","topMostParentId":"HUBWHC","zone":"3"},{"icsId":"1014164","id":"490014164N","lat":51.583626,"lon":-0.020188,"name":"Walthamstow Bus Station","parentId":"490G000817","stationId":"490G000817","topMostParentId":"490G000817"}]}]}