{"direction":"inbound","lineId":"203","lineName":"203","mode":"bus","stopPointSequences":[{"stopPoint":[{"icsId":"1012479","id":"40004402126C","lat":51.432723,"lon":-0.509356,"name":"Staines Bus Station","parentId":"400G4402126A","stationId":"400G4402126A","stopLetter":"3","topMostParentId":"400G4402126A"},{"icsId":"1012482","id":"40004402125A","lat":51.435139,"lon":-0.507681,"name":"High Street","stopLetter":"J","topMostParentId":"40004402125A"},{"icsId":"1004008","id":"40004402021A","lat":51.436143,"lon":-0.503188,"name":"Birch Green","parentId":"400G4402021A","stationId":"400G4402021A","topMostParentId":"400G4402021A"},{"icsId":"1012477","id":"40004402020A","lat":51.436958,"lon":-0.49873,"name":"Crooked Billet Roundabout","parentId":"400G4402020A","stationId":"400G4402020A","topMostParentId":"400G4402020A"},{"icsId":"1012125","id":"40004402019A","lat":51.438878,"lon":-0.491415,"name":"Shortwood Avenue","parentId":"400G4402019A","stationId":"400G4402019A","topMostParentId":"400G4402019A"},{"icsId":"1008629","id":"40004402018A","lat":51.440969,"lon":-0.482699,"name":"Kenilworth Road","parentId":"400G4402018A","stationId":"400G4402018A","topMostParentId":"400G4402018A"},{"icsId":"1013752","id":"40004402017A","lat":51.442724,"lon":-0.475245,"name":"Town Lane","parentId":"400G4402017D","stationId":"400G4402017D","topMostParentId":"400G4402017D"},{"icsId":"1003431","id":"40004402075A","lat":51.444627,"lon":-0.474951,"name":"Ashford Hospital","parentId":"400G4402014A","stationId":"400G4402014A","topMostParentId":"400G4402014A"},{"icsId":"1003431","id":"40004402014B","lat":51.4441,"lon":-0.47589,"name":"Town Lane / Ashford Hospital","parentId":"400G4402014A","stationId":"400G4402014A","topMostParentId":"400G4402014A"},{"icsId":"1011952","id":"40004402013B","lat":51.447114,"lon":-0.478092,"name":"Scots Close","parentId":"400G4402013B","stationId":"400G4402013B","topMostParentId":"400G4402013B"},{"icsId":"1012570","id":"40004402012B","lat":51.449367,"lon":-0.478477,"name":"St Anne's Avenue","parentId":"400G4402012B","stationId":"400G4402012B","topMostParentId":"400G4402012B"},{"icsId":"1005364","id":"40004402011B","lat":51.451187,"lon":-0.476028,"name":"Viscount Road","parentId":"400G4402011B","stationId":"400G4402011B","topMostParentId":"400G4402011B"},{"icsId":"1005606","id":"40004402010B","lat":51.453375,"lon":-0.473465,"name":"Cordelia Road","parentId":"400G4402010B","stationId":"400G4402010B","topMostParentId":"400G4402010B"},{"icsId":"1006662","id":"40004402009B","lat":51.455109,"lon":-0.473321,"name":"Everest Road","parentId":"400G4402009B","stationId":"400G4402009B","topMostParentId":"400G4402009B"},{"icsId":"1003792","id":"40004402008B","lat":51.457741,"lon":-0.471779,"name":"Bedfont Road","parentId":"400G4402008B","stationId":"400G4402008B","stopLetter":"before","topMostParentId":"400G4402008B"},{"icsId":"1009325","id":"40004402007B","lat":51.457299,"lon":-0.462726,"name":"Long Lane","parentId":"400G4402007A","stationId":"400G4402007A","topMostParentId":"400G4402007A"},{"icsId":"1003704","id":"490003704SE","lat":51.455491,"lon":-0.456525,"name":"Beacon Road","parentId":"490G00003704","stationId":"490G00003704","topMostParentId":"490G00003704"},{"icsId":"1003332","id":"490003332E","lat":51.454823,"lon":-0.453583,"name":"Animal Reception Centre","parentId":"490G00003332","stationId":"490G00003332","stopLetter":"->E","topMostParentId":"490G00003332"},{"icsId":"1007415","id":"490007415E","lat":51.453418,"lon":-0.445945,"name":"Great South West Road","parentId":"490G00007415","stationId":"490G00007415","stopLetter":"BC","topMostParentId":"490G00007415"},{"icsId":"1007903","id":"490007903E","lat":51.452641,"lon":-0.441625,"name":"Spinney Drive","parentId":"490G00007903","stationId":"490G00007903","stopLetter":"BD","topMostParentId":"490G00007903"},{"icsId":"1003784","id":"490003784N","lat":51.45356,"lon":-0.439679,"name":"Bedfont Close","parentId":"490G00003784","stationId":"490G00003784","stopLetter":"U","topMostParentId":"490G00003784"},{"icsId":"1014513","id":"490014513N","lat":51.455623,"lon":-0.436629,"name":"West Road","parentId":"490G00014513","stationId":"490G00014513","stopLetter":"V","topMostParentId":"490G00014513"},{"icsId":"1007972","id":"490007972N","lat":51.458362,"lon":-0.432952,"name":"Hazelmere Close","parentId":"490G00007972","stationId":"490G00007972","stopLetter":"->N","topMostParentId":"490G00007972"},{"icsId":"1004673","id":"490004673N","lat":51.460353,"lon":-0.429904,"name":"Cains Lane","parentId":"490G00004673","stationId":"490G00004673","stopLetter":"->N","topMostParentId":"490G00004673"},{"icsId":"1010142","id":"490010142N","lat":51.462961,"lon":-0.42587,"name":"Myrtle Avenue","parentId":"490G00010142","stationId":"490G00010142","stopLetter":"->N","topMostParentId":"490G00010142"},{"icsId":"1000103","id":"490000103D","lat":51.46676,"lon":-0.423508,"name":"Hatton Cross Station","parentId":"490G00103G","stationId":"490G00103G","stopLetter":"B","topMostParentId":"940GZZLUHNX","zone":"5+6"},{"icsId":"1007196","id":"490007196E","lat":51.469776,"lon":-0.412461,"name":"Girling Way","parentId":"490G00007196","stationId":"490G00007196","stopLetter":"->E","topMostParentId":"490G00007196"},{"icsId":"1013285","id":"490013285E","lat":51.472789,"lon":-0.403876,"name":"The Parkway","parentId":"490G00013285","stationId":"490G00013285","stopLetter":"->E","topMostParentId":"490G00013285"},{"icsId":"1007370","id":"490007370E","lat":51.473867,"lon":-0.400526,"name":"Grantley Road","parentId":"490G00007370","stationId":"490G00007370","stopLetter":"->E","topMostParentId":"490G00007370"},{"icsId":"1015462","id":"490015462E","lat":51.474571,"lon":-0.398731,"name":"Henlys Roundabout","parentId":"490G00015462","stationId":"490G00015462","stopLetter":"CW","topMostParentId":"490G00015462"},{"icsId":"1000391","id":"490007425E","lat":51.474448,"lon":-0.39106,"name":"Great West Road / Renfrew Road","parentId":"490G000040","stationId":"490G000040","stopLetter":"M","topMostParentId":"490G000040"},{"icsId":"1000118","id":"490000118A","lat":51.472944,"lon":-0.385656,"name":"Hounslow West Station","parentId":"490G00118B","stationId":"490G00118B","stopLetter":"A","topMostParentId":"940GZZLUHWT","zone":"5"},{"icsId":"1012458","id":"490014357E","lat":51.471179,"lon":-0.380895,"name":"St Paul's Church","parentId":"490G00012458","stationId":"490G00012458","stopLetter":"E","topMostParentId":"490G00012458"},{"icsId":"1006406","id":"490006406E","lat":51.469717,"lon":-0.376584,"name":"Wellington Road North","parentId":"490G00006406","stationId":"490G00006406","stopLetter":"F","topMostParentId":"490G00006406"},{"icsId":"1012454","id":"490005431E","lat":51.468967,"lon":-0.373126,"name":"St Michael & St Martin Church","parentId":"490G00012454","stationId":"490G00012454","stopLetter":"G","topMostParentId":"490G00012454"},{"icsId":"1013259","id":"490013259V","lat":51.467293,"lon":-0.366505,"name":"The Bell","parentId":"490G00013259","stationId":"490G00013259","stopLetter":"V","topMostParentId":"490G00013259"},{"icsId":"1013777","id":"490013777P","lat":51.467281,"lon":-0.363065,"name":"Treaty Centre","parentId":"490G00013777","stationId":"490G00013777","stopLetter":"P","topMostParentId":"490G00013777"},{"icsId":"1008399","id":"490008399K","lat":51.469449,"lon":-0.358006,"name":"Hounslow High Street","parentId":"490G00008399","stationId":"490G00008399","stopLetter":"K","topMostParentId":"490G00008399"},{"icsId":"1008392","id":"490008392Z1","lat":51.470928,"lon":-0.354454,"name":"Hounslow Bus Station","parentId":"490G000601","stationId":"490G000601","stopLetter":"Z1","topMostParentId":"490G000601"}]}]}