{"direction":"inbound","lineId":"211","lineName":"211","mode":"bus","stopPointSequences":[{"stopPoint":[{"icsId":"1003722","id":"490000254B","lat":51.50373,"lon":-0.113062,"name":"Waterloo Station   / Upper Taxi Road","parentId":"490G000404","stationId":"490G000404","stopLetter":"B","topMostParentId":"HUBWAT"},{"icsId":"1001551","id":"490000254W","lat":51.503531,"lon":-0.115261,"name":"Waterloo Station   / York Road","parentId":"490G000275","stationId":"490G000275","stopLetter":"W","topMostParentId":"490G000275"},{"icsId":"1005646","id":"490005646G","lat":51.50205,"lon":-0.116575,"name":"County Hall","parentId":"490G00005646","stationId":"490G00005646","stopLetter":"G","topMostParentId":"490G00005646"},{"icsId":"1018956","id":"490005646D","lat":51.500719,"lon":-0.119368,"name":"St Thomas' Hospital / County Hall","parentId":"490G00018956","stationId":"490G00018956","stopLetter":"D","topMostParentId":"490G00018956"},{"icsId":"1015048","id":"490015048W","lat":51.500173,"lon":-0.12681,"name":"Parliament Square / Westminster Abbey","parentId":"490G000852","stationId":"490G000852","stopLetter":"P","topMostParentId":"HUBWSM"},{"icsId":"1019865","id":"490014495V","lat":51.498691,"lon":-0.131438,"name":"Great Smith Street / Westminster Abbey","parentId":"490G00019865","stationId":"490G00019865","stopLetter":"V","topMostParentId":"490G00019865"},{"icsId":"1000221","id":"490010260SD","lat":51.497585,"lon":-0.134797,"name":"St James's Park Station","parentId":"490G00221V","stationId":"490G00221V","stopLetter":"SD","topMostParentId":"940GZZLUSJP","zone":"1"},{"icsId":"1003384","id":"490003384SB","lat":51.49715,"lon":-0.137451,"name":"Westminster City Hall","parentId":"490G000394","stationId":"490G000394","stopLetter":"SB","topMostParentId":"490G000394"},{"icsId":"1014502","id":"490014496M","lat":51.496626,"lon":-0.141276,"name":"Westminster Cathedral / Victoria Stn","parentId":"490G000830","stationId":"490G000830","stopLetter":"M","topMostParentId":"490G000830"},{"icsId":"1000248","id":"490000248G","lat":51.496535,"lon":-0.143484,"name":"Victoria Station","parentId":"490G00248G","stationId":"490G00248G","stopLetter":"G","topMostParentId":"HUBVIC","zone":"1"},{"icsId":"1014051","id":"490014051V","lat":51.492085,"lon":-0.148116,"name":"Victoria Coach Station","parentId":"490G000813","stationId":"490G000813","stopLetter":"V","topMostParentId":"490G000813"},{"icsId":"1020327","id":"490006399W","lat":51.490738,"lon":-0.151628,"name":"Pimlico Road / Ebury Bridge Road","parentId":"490G00020327","stationId":"490G00020327","stopLetter":"Q","topMostParentId":"490G00020327"},{"icsId":"1011764","id":"490011763N","lat":51.489951,"lon":-0.156471,"name":"Royal Hospital Road","parentId":"490G00011764","stationId":"490G00011764","stopLetter":"L","topMostParentId":"490G00011764"},{"icsId":"1000206","id":"490000206K","lat":51.491451,"lon":-0.157491,"name":"Sloane Square Station","parentId":"490G00206H","stationId":"490G00206H","stopLetter":"K","topMostParentId":"940GZZLUSSQ","zone":"1"},{"icsId":"1006224","id":"490006224G","lat":51.491129,"lon":-0.1605,"name":"Duke Of York Square","parentId":"490G00006224","stationId":"490G00006224","stopLetter":"G","topMostParentId":"490G00006224"},{"icsId":"1014150","id":"490014150KA","lat":51.490204,"lon":-0.162266,"name":"Walpole Street","parentId":"490G00014150","stationId":"490G00014150","stopLetter":"KA","topMostParentId":"490G00014150"},{"icsId":"1009666","id":"490009666KB","lat":51.489002,"lon":-0.164763,"name":"Markham Street","parentId":"490G00009666","stationId":"490G00009666","stopLetter":"KB","topMostParentId":"490G00009666"},{"icsId":"1005073","id":"490005073KC","lat":51.488312,"lon":-0.166634,"name":"Chelsea Old Town Hall","parentId":"490G00005073","stationId":"490G00005073","stopLetter":"KC","topMostParentId":"490G00005073"},{"icsId":"1005077","id":"490005073KH","lat":51.487847,"lon":-0.169116,"name":"Sydney Street / Chelsea Old Town Hall","parentId":"490G00005077","stationId":"490G00005077","stopLetter":"KH","topMostParentId":"490G00005077"},{"icsId":"1011754","id":"490011754N","lat":51.489638,"lon":-0.170355,"name":"Cale Street / Royal Brompton Hospital","parentId":"490G00011754","stationId":"490G00011754","stopLetter":"HS","topMostParentId":"490G00011754"},{"icsId":"1015421","id":"490015421S","lat":51.49037,"lon":-0.174056,"name":"Royal Brompton Hosp / Royal Marsden Hosp","parentId":"490G00015421","stationId":"490G00015421","stopLetter":"HP","topMostParentId":"490G00015421"},{"icsId":"1006514","id":"490006514S","lat":51.488699,"lon":-0.176486,"name":"Old Church Street","parentId":"490G00006514","stationId":"490G00006514","stopLetter":"HQ","topMostParentId":"490G00006514"},{"icsId":"1003726","id":"490003726W2","lat":51.487286,"lon":-0.178702,"name":"Fulham Road / Beaufort Street","parentId":"490G00003726","stationId":"490G00003726","stopLetter":"HR","topMostParentId":"490G00003726"},{"icsId":"1005062","id":"490005062HA","lat":51.485383,"lon":-0.181817,"name":"Chelsea and Westminster Hospital","parentId":"490G00005062","stationId":"490G00005062","stopLetter":"HA","topMostParentId":"490G00005062"},{"icsId":"1006437","id":"490006437HB","lat":51.484378,"lon":-0.183715,"name":"Edith Grove","parentId":"490G00006437","stationId":"490G00006437","stopLetter":"HB","topMostParentId":"490G00006437"},{"icsId":"1008380","id":"490008380HC","lat":51.482506,"lon":-0.186512,"name":"Hortensia Road","parentId":"490G00008380","stationId":"490G00008380","stopLetter":"HC","topMostParentId":"490G00008380"},{"icsId":"1005069","id":"490005069W","lat":51.480068,"lon":-0.18995,"name":"Chelsea Football Club","parentId":"490G00005069","stationId":"490G00005069","stopLetter":"W","topMostParentId":"490G00005069"},{"icsId":"1000084","id":"490000084M","lat":51.480025,"lon":-0.194704,"name":"Fulham Broadway Station","parentId":"490G00084L","stationId":"490G00084L","stopLetter":"M","topMostParentId":"940GZZLUFBY","zone":"2"},{"icsId":"1000352","id":"490008547F","lat":51.480385,"lon":-0.197656,"name":"Fulham Broadway","parentId":"490G00000352","stationId":"490G00000352","stopLetter":"F","topMostParentId":"490G00000352"},{"icsId":"1007875","id":"490007875C","lat":51.480357,"lon":-0.201143,"name":"North End Road","parentId":"490G00007875","stationId":"490G00007875","stopLetter":"C","topMostParentId":"490G00007875"},{"icsId":"1012117","id":"490012117W","lat":51.480403,"lon":-0.204107,"name":"Shorrolds Road","parentId":"490G00012117","stationId":"490G00012117","stopLetter":"D","topMostParentId":"490G00012117"},{"icsId":"1013556","id":"490013548W","lat":51.480959,"lon":-0.208118,"name":"Sherbrooke Road","parentId":"490G00013556","stationId":"490G00013556","stopLetter":"->W","topMostParentId":"490G00013556"},{"icsId":"1007759","id":"490007754W","lat":51.481391,"lon":-0.212278,"name":"Munster Road","parentId":"490G00007759","stationId":"490G00007759","stopLetter":"HK","topMostParentId":"490G00007759"},{"icsId":"1007050","id":"490007050W","lat":51.482911,"lon":-0.215272,"name":"Fulham Cross","parentId":"490G00007050","stationId":"490G00007050","stopLetter":"HE","topMostParentId":"490G00007050"},{"icsId":"1007530","id":"490007530N","lat":51.484259,"lon":-0.2199,"name":"Greyhound Road","parentId":"490G00007530","stationId":"490G00007530","stopLetter":"HS","topMostParentId":"490G00007530"},{"icsId":"1004991","id":"490004991N","lat":51.487116,"lon":-0.221531,"name":"Charing Cross Hospital","parentId":"490G00004991","stationId":"490G00004991","stopLetter":"HT","topMostParentId":"490G00004991"},{"icsId":"1007702","id":"490007702Y","lat":51.489977,"lon":-0.223394,"name":"Hammersmith Broadway","parentId":"490G000563","stationId":"490G000563","stopLetter":"N","topMostParentId":"490G000563"},{"icsId":"1007705","id":"490007705F","lat":51.492164,"lon":-0.223525,"name":"Hammersmith Bus Station","parentId":"490G000565","stationId":"490G000565","stopLetter":"E","topMostParentId":"HUBHMS"}]}]}