{"direction":"inbound","lineId":"219","lineName":"219","mode":"bus","stopPointSequences":[{"stopPoint":[{"icsId":"1016275","id":"490016275J","lat":51.46434,"lon":-0.165652,"name":"Falcon Lane","parentId":"490G00016275","stationId":"490G00016275","stopLetter":"J","topMostParentId":"490G00016275"},{"icsId":"1005332","id":"490005332T","lat":51.463086,"lon":-0.167689,"name":"Clapham Junction Station  / The Falcon","parentId":"490G000462","stationId":"490G000462","stopLetter":"T","topMostParentId":"HUBCLJ"},{"icsId":"1005333","id":"490005333Y","lat":51.461281,"lon":-0.167257,"name":"Clapham Junction / The Northcote","parentId":"490G00005333","stationId":"490G00005333","stopLetter":"Y","topMostParentId":"HUBCLJ"},{"icsId":"1004133","id":"490004133W","lat":51.460083,"lon":-0.170573,"name":"Bolingbroke Grove","parentId":"490G00004133","stationId":"490G00004133","stopLetter":"SC","topMostParentId":"490G00004133"},{"icsId":"1012386","id":"490012386W","lat":51.458451,"lon":-0.175503,"name":"Spencer Road","parentId":"490G00012386","stationId":"490G00012386","stopLetter":"SD","topMostParentId":"490G00012386"},{"icsId":"1009638","id":"490009638W1","lat":51.458138,"lon":-0.180237,"name":"Marcilly Road","parentId":"490G00009638","stationId":"490G00009638","stopLetter":"SE","topMostParentId":"490G00009638"},{"icsId":"1014515","id":"490014515S","lat":51.454994,"lon":-0.178693,"name":"West Side","parentId":"490G00014515","stationId":"490G00014515","stopLetter":"SP","topMostParentId":"490G00014515"},{"icsId":"1015485","id":"490015485S","lat":51.452883,"lon":-0.176575,"name":"Windmill Road","parentId":"490G00015485","stationId":"490G00015485","stopLetter":"SR","topMostParentId":"490G00015485"},{"icsId":"1005643","id":"490005643S","lat":51.449945,"lon":-0.173799,"name":"County Arms","parentId":"490G00005643","stationId":"490G00005643","stopLetter":"ST","topMostParentId":"490G00005643"},{"icsId":"1011735","id":"490011735S","lat":51.447512,"lon":-0.171205,"name":"Routh Road","parentId":"490G00011735","stationId":"490G00011735","stopLetter":"S","topMostParentId":"490G00011735"},{"icsId":"1013044","id":"490013044D","lat":51.444385,"lon":-0.168452,"name":"Burntwood Lane","parentId":"490G00013044","stationId":"490G00013044","stopLetter":"D","topMostParentId":"490G00013044"},{"icsId":"1004406","id":"490004406S","lat":51.441884,"lon":-0.166091,"name":"Brodrick Road","parentId":"490G00004406","stationId":"490G00004406","stopLetter":"T","topMostParentId":"490G00004406"},{"icsId":"1013948","id":"490013948S","lat":51.439985,"lon":-0.164253,"name":"Upper Tooting Park","parentId":"490G00013948","stationId":"490G00013948","stopLetter":"->S","topMostParentId":"490G00013948"},{"icsId":"1006395","id":"490006395S","lat":51.438478,"lon":-0.162789,"name":"Eatonville Road","parentId":"490G00006395","stationId":"490G00006395","stopLetter":"T","topMostParentId":"490G00006395"},{"icsId":"1000233","id":"490000233A","lat":51.435888,"lon":-0.159943,"name":"Tooting Bec Station","parentId":"490G00233G","stationId":"490G00233G","stopLetter":"A","topMostParentId":"940GZZLUTBC","zone":"3"},{"icsId":"1008612","id":"490008612D","lat":51.434725,"lon":-0.161429,"name":"Dafforne Road","parentId":"490G00008612","stationId":"490G00008612","stopLetter":"D","topMostParentId":"490G00008612"},{"icsId":"1009484","id":"490009484S","lat":51.432869,"lon":-0.163546,"name":"Lynwood Road","parentId":"490G00009484","stationId":"490G00009484","stopLetter":"P","topMostParentId":"490G00009484"},{"icsId":"1005921","id":"490005921J","lat":51.430293,"lon":-0.165591,"name":"Broadwater Road","parentId":"490G00005921","stationId":"490G00005921","stopLetter":"J","topMostParentId":"490G00005921"},{"icsId":"1000234","id":"490015512B","lat":51.42856,"lon":-0.16743,"name":"Tooting Broadway Station","parentId":"490G00234G","stationId":"490G00234G","stopLetter":"B","topMostParentId":"940GZZLUTBY","zone":"3"},{"icsId":"1015513","id":"490015513K","lat":51.427232,"lon":-0.168792,"name":"Tooting Broadway  / Sth Thames College","parentId":"490G000906","stationId":"490G000906","stopLetter":"K","topMostParentId":"490G000906"},{"icsId":"1010468","id":"490010468H10","lat":51.425874,"lon":-0.169925,"name":"Nutwell Street","parentId":"490G00010468","stationId":"490G00010468","stopLetter":"HF","topMostParentId":"490G00010468"},{"icsId":"1009332","id":"490009332H9","lat":51.423981,"lon":-0.171972,"name":"Longley Road","parentId":"490G00009332","stationId":"490G00009332","stopLetter":"HG","topMostParentId":"490G00009332"},{"icsId":"1014149","id":"490014149S","lat":51.421392,"lon":-0.174908,"name":"Walpole Road","parentId":"490G00014149","stationId":"490G00014149","stopLetter":"M","topMostParentId":"490G00014149"},{"icsId":"1000055","id":"490000055A","lat":51.418558,"lon":-0.177711,"name":"Colliers Wood Station","parentId":"490G00055A","stationId":"490G00055A","stopLetter":"A","topMostParentId":"940GZZLUCSD","zone":"3"},{"icsId":"1009830","id":"490009830G","lat":51.41612,"lon":-0.183388,"name":"Merton Abbey","parentId":"490G00009830","stationId":"490G00009830","stopLetter":"G","topMostParentId":"490G00009830"},{"icsId":"1007938","id":"490007938E","lat":51.415985,"lon":-0.185752,"name":"Abbey Road","parentId":"490G00007938","stationId":"490G00007938","stopLetter":"SE","topMostParentId":"490G00007938"},{"icsId":"1000216","id":"490000216C","lat":51.415572,"lon":-0.191578,"name":"South Wimbledon Station","parentId":"490G00216C","stationId":"490G00216C","stopLetter":"SF","topMostParentId":"940GZZLUSWN","zone":"3+4"},{"icsId":"1009835","id":"490009835I","lat":51.417027,"lon":-0.192613,"name":"Merton Road","parentId":"490G00009835","stationId":"490G00009835","stopLetter":"ST","topMostParentId":"490G00009835"},{"icsId":"1013807","id":"490013807W","lat":51.419379,"lon":-0.195268,"name":"The Polka Theatre","parentId":"490G00013807","stationId":"490G00013807","stopLetter":"SW","topMostParentId":"490G00013807"},{"icsId":"1014742","id":"490014742Y","lat":51.419296,"lon":-0.200995,"name":"Wimbledon Theatre","parentId":"490G00014742","stationId":"490G00014742","stopLetter":"Y","topMostParentId":"490G00014742"},{"icsId":"1014731","id":"490014731G","lat":51.418801,"lon":-0.20333,"name":"Wimbledon Bus Station","parentId":"490G00014731","stationId":"490G00014731","stopLetter":"G","topMostParentId":"490G00014731"},{"icsId":"1000272","id":"490015472L","lat":51.42029,"lon":-0.206594,"name":"Wimbledon Station","parentId":"490G00272P","stationId":"490G00272P","stopLetter":"L","topMostParentId":"HUBWIM","zone":"3"},{"icsId":"1006987","id":"490006987W","lat":51.420286,"lon":-0.209859,"name":"Francis Grove","parentId":"490G00006987","stationId":"490G00006987","stopLetter":"->W","topMostParentId":"490G00006987"}]}]}