{"direction":"inbound","lineId":"220","lineName":"220","mode":"bus","stopPointSequences":[{"stopPoint":[{"icsId":"1009631","id":"490009631N","lat":51.453863,"lon":-0.192224,"name":"Mapleton Road","parentId":"490G00009631","stationId":"490G00009631","stopLetter":"->N","topMostParentId":"490G00009631"},{"icsId":"1019847","id":"490014184V","lat":51.456228,"lon":-0.192807,"name":"Southside Shopping Centre","parentId":"490G00019847","stationId":"490G00019847","stopLetter":"V","topMostParentId":"490G00019847"},{"icsId":"1003045","id":"490003045X","lat":51.457308,"lon":-0.195802,"name":"Wandsworth Police Station","parentId":"490G00003045","stationId":"490G00003045","stopLetter":"X","topMostParentId":"490G00003045"},{"icsId":"1007044","id":"490007044B","lat":51.458583,"lon":-0.198573,"name":"Frogmore","parentId":"490G00007044","stationId":"490G00007044","stopLetter":"B","topMostParentId":"490G00007044"},{"icsId":"1006768","id":"490006768W","lat":51.461151,"lon":-0.203006,"name":"Riverside Quarter Pier","parentId":"490G00006768","stationId":"490G00006768","stopLetter":"L","topMostParentId":"490G00006768"},{"icsId":"1012188","id":"490012188W","lat":51.461911,"lon":-0.20623,"name":"Skelgill Road / Wandsworth Park","parentId":"490G00012188","stationId":"490G00012188","stopLetter":"->W","topMostParentId":"490G00012188"},{"icsId":"1006048","id":"490006048W","lat":51.462524,"lon":-0.208725,"name":"Deodar Road","parentId":"490G00006048","stationId":"490G00006048","stopLetter":"W","topMostParentId":"490G00006048"},{"icsId":"1011279","id":"490011279N","lat":51.464453,"lon":-0.213746,"name":"Brewhouse Lane","parentId":"490G00011279","stationId":"490G00011279","stopLetter":"N","topMostParentId":"490G00011279"},{"icsId":"1011278","id":"490011278S","lat":51.466722,"lon":-0.213341,"name":"St Mary's Church / Putney Pier","parentId":"490G00011278","stationId":"490G00011278","stopLetter":"S","topMostParentId":"490G00011278"},{"icsId":"1007281","id":"490015157V","lat":51.468039,"lon":-0.211835,"name":"Putney Bridge Stn  / Gonville Street","parentId":"490G000536","stationId":"490G000536","stopLetter":"FH","topMostParentId":"490G000536"},{"icsId":"1008436","id":"490007051N","lat":51.470672,"lon":-0.211127,"name":"Fulham High Street","parentId":"490G00008436","stationId":"490G00008436","stopLetter":"FJ","topMostParentId":"490G00008436"},{"icsId":"1004044","id":"490005444N","lat":51.474894,"lon":-0.214375,"name":"Bishop's Park Road","parentId":"490G00004044","stationId":"490G00004044","stopLetter":"FK","topMostParentId":"490G00004044"},{"icsId":"1006845","id":"490006845N","lat":51.476899,"lon":-0.216111,"name":"Kingwood Road","parentId":"490G00006845","stationId":"490G00006845","stopLetter":"FL","topMostParentId":"490G00006845"},{"icsId":"1008677","id":"490008677N","lat":51.479612,"lon":-0.217719,"name":"Fulham Cemetery","parentId":"490G00008677","stationId":"490G00008677","stopLetter":"HP","topMostParentId":"490G00008677"},{"icsId":"1009155","id":"490009155N","lat":51.482674,"lon":-0.219198,"name":"Lillie Road","parentId":"490G00009155","stationId":"490G00009155","stopLetter":"HQ","topMostParentId":"490G00009155"},{"icsId":"1007530","id":"490007530N","lat":51.484259,"lon":-0.2199,"name":"Greyhound Road","parentId":"490G00007530","stationId":"490G00007530","stopLetter":"HS","topMostParentId":"490G00007530"},{"icsId":"1004991","id":"490004991N","lat":51.487116,"lon":-0.221531,"name":"Charing Cross Hospital","parentId":"490G00004991","stationId":"490G00004991","stopLetter":"HT","topMostParentId":"490G00004991"},{"icsId":"1007702","id":"490007702Y","lat":51.489977,"lon":-0.223394,"name":"Hammersmith Broadway","parentId":"490G000563","stationId":"490G000563","stopLetter":"N","topMostParentId":"490G000563"},{"icsId":"1007705","id":"490007705B","lat":51.492464,"lon":-0.224348,"name":"Hammersmith Bus Station","parentId":"490G000565","stationId":"490G000565","stopLetter":"A","topMostParentId":"HUBHMS"},{"icsId":"1007708","id":"490007708V","lat":51.49362,"lon":-0.224044,"name":"Hammersmith Library","parentId":"490G000567","stationId":"490G000567","stopLetter":"Q","topMostParentId":"490G000567"},{"icsId":"1004456","id":"490004456N","lat":51.497664,"lon":-0.222691,"name":"Brook Green","parentId":"490G00004456","stationId":"490G00004456","stopLetter":"C","topMostParentId":"490G00004456"},{"icsId":"1004121","id":"490004121N","lat":51.500398,"lon":-0.222167,"name":"Blythe Road","parentId":"490G00004121","stationId":"490G00004121","stopLetter":"D","topMostParentId":"490G00004121"},{"icsId":"1012127","id":"490012127P","lat":51.502468,"lon":-0.222821,"name":"Goldhawk Road","parentId":"490G00012127","stationId":"490G00012127","stopLetter":"H","topMostParentId":"490G00012127"},{"icsId":"1012068","id":"490012068S","lat":51.503874,"lon":-0.224236,"name":"Shepherd's Bush Green","parentId":"490G000742","stationId":"490G000742","stopLetter":"N","topMostParentId":"490G000742"},{"icsId":"1009501","id":"490009501Q","lat":51.506345,"lon":-0.224702,"name":"Uxbridge Rd / Westfield Shopping Centre","parentId":"490G000650","stationId":"490G000650","stopLetter":"S","topMostParentId":"490G000650"},{"icsId":"1018981","id":"490003375WD","lat":51.508449,"lon":-0.224721,"name":"Ariel Way / White City Bus Station","parentId":"490G00018981","stationId":"490G00018981","stopLetter":"WD","topMostParentId":"490G00018981"},{"icsId":"1000269","id":"490000269N","lat":51.512006,"lon":-0.225044,"name":"White City Station","parentId":"490G00269B","stationId":"490G00269B","stopLetter":"WE","topMostParentId":"940GZZLUWCY","zone":"2"},{"icsId":"1012238","id":"490012238N","lat":51.513103,"lon":-0.225607,"name":"Westway","parentId":"490G000748","stationId":"490G000748","stopLetter":"N","topMostParentId":"490G000748"},{"icsId":"1014876","id":"490014869N","lat":51.516297,"lon":-0.226924,"name":"Cavell House","parentId":"490G00014876","stationId":"490G00014876","stopLetter":"P","topMostParentId":"490G00014876"},{"icsId":"1010398","id":"490010398N","lat":51.518083,"lon":-0.227864,"name":"North Pole Road","parentId":"490G00010398","stationId":"490G00010398","stopLetter":"Q","topMostParentId":"490G00010398"},{"icsId":"1009957","id":"490009957N","lat":51.52135,"lon":-0.229827,"name":"Mitre Way / Wormwood Scrubs","parentId":"490G00009957","stationId":"490G00009957","stopLetter":"R","topMostParentId":"490G00009957"},{"icsId":"1009955","id":"490009955N","lat":51.524837,"lon":-0.233887,"name":"Mitre Bridge","parentId":"490G00009955","stationId":"490G00009955","stopLetter":"D","topMostParentId":"490G00009955"},{"icsId":"1008451","id":"490008451N","lat":51.527306,"lon":-0.235449,"name":"Hythe Road","parentId":"490G00008451","stationId":"490G00008451","stopLetter":"E","topMostParentId":"490G00008451"},{"icsId":"1014505","id":"490014505N","lat":51.528851,"lon":-0.236485,"name":"Cumberland Business Park","parentId":"490G00014505","stationId":"490G00014505","stopLetter":"F","topMostParentId":"490G00014505"},{"icsId":"1007859","id":"490007859N","lat":51.531544,"lon":-0.23739,"name":"Harrow Road / College Park","parentId":"490G00007859","stationId":"490G00007859","stopLetter":"G","topMostParentId":"490G00007859"},{"icsId":"1000271","id":"490015057H","lat":51.532899,"lon":-0.240178,"name":"Willesden Junction Station","parentId":"490G00271H","stationId":"490G00271H","stopLetter":"H","topMostParentId":"HUBWIJ","zone":"2+3"},{"icsId":"1008187","id":"490008187F","lat":51.535741,"lon":-0.244452,"name":"Park Parade","parentId":"490G00008187","stationId":"490G00008187","stopLetter":"F","topMostParentId":"490G00008187"},{"icsId":"1007803","id":"490007803W","lat":51.534808,"lon":-0.248164,"name":"Harlesden Jubilee Clock","parentId":"490G00007803","stationId":"490G00007803","stopLetter":"W","topMostParentId":"490G00007803"},{"icsId":"1000271","id":"490014692E","lat":51.532236,"lon":-0.245149,"name":"Willesden Junction Station","parentId":"490G00271L","stationId":"490G00271L","stopLetter":"P","topMostParentId":"HUBWIJ","zone":"2+3"}]}]}