{"direction":"inbound","lineId":"225","lineName":"225","mode":"bus","stopPointSequences":[{"stopPoint":[{"icsId":"1004733","id":"490000037S","lat":51.49795,"lon":-0.049995,"name":"Canada Water Bus Station","parentId":"490G000438","stationId":"490G000438","stopLetter":"B2","topMostParentId":"HUBZCW"},{"icsId":"1011723","id":"490011723E","lat":51.495008,"lon":-0.050452,"name":"Rotherhithe Police Station","parentId":"490G00011723","stationId":"490G00011723","stopLetter":"E","topMostParentId":"490G00011723"},{"icsId":"1013042","id":"490013042K","lat":51.494005,"lon":-0.045856,"name":"Surrey Quays Shopping Centre","parentId":"490G000775","stationId":"490G000775","stopLetter":"K","topMostParentId":"490G000775"},{"icsId":"1000229","id":"490000229L","lat":51.493423,"lon":-0.046011,"name":"Surrey Quays Station","parentId":"490G00229S","stationId":"490G00229S","stopLetter":"L","topMostParentId":"910GSURREYQ"},{"icsId":"1011487","id":"490000229S","lat":51.492345,"lon":-0.045553,"name":"Lower Road / Surrey Quays Station","parentId":"490G00011487","stationId":"490G00011487","stopLetter":"M","topMostParentId":"490G00011487"},{"icsId":"1011484","id":"490011484S","lat":51.491274,"lon":-0.04387,"name":"Lower Road / Plough Way","parentId":"490G00011484","stationId":"490G00011484","stopLetter":"T","topMostParentId":"490G00011484"},{"icsId":"1008572","id":"490008572S","lat":51.489597,"lon":-0.044705,"name":"John Silkin Lane","parentId":"490G00008572","stationId":"490G00008572","stopLetter":"G","topMostParentId":"490G00008572"},{"icsId":"1003241","id":"490003241S","lat":51.487791,"lon":-0.043688,"name":"Alloa Road","parentId":"490G00003241","stationId":"490G00003241","stopLetter":"H","topMostParentId":"490G00003241"},{"icsId":"1007534","id":"490007534S","lat":51.485673,"lon":-0.042352,"name":"Grinstead Road","parentId":"490G00007534","stationId":"490G00007534","stopLetter":"J","topMostParentId":"490G00007534"},{"icsId":"1005460","id":"490005460S","lat":51.482739,"lon":-0.041657,"name":"Cold Blow Lane","parentId":"490G00005460","stationId":"490G00005460","stopLetter":"K","topMostParentId":"490G00005460"},{"icsId":"1012674","id":"490012674S","lat":51.481327,"lon":-0.04166,"name":"Sterling Gardens","parentId":"490G00012674","stationId":"490G00012674","stopLetter":"L","topMostParentId":"490G00012674"},{"icsId":"1005634","id":"490005634S","lat":51.479668,"lon":-0.040824,"name":"Cottesbrook Street","parentId":"490G00005634","stationId":"490G00005634","stopLetter":"M","topMostParentId":"490G00005634"},{"icsId":"1006451","id":"490006451E","lat":51.478664,"lon":-0.036733,"name":"Edward Street","parentId":"490G00006451","stationId":"490G00006451","stopLetter":"Z","topMostParentId":"490G00006451"},{"icsId":"1006688","id":"490006688U","lat":51.47701,"lon":-0.034068,"name":"Exeter Way","parentId":"490G00006688","stationId":"490G00006688","stopLetter":"U","topMostParentId":"490G00006688"},{"icsId":"1000155","id":"490000155V","lat":51.475858,"lon":-0.031353,"name":"New Cross Station","parentId":"490G00155V","stationId":"490G00155V","stopLetter":"V","topMostParentId":"HUBNWX"},{"icsId":"1006051","id":"490006051E","lat":51.47517,"lon":-0.027365,"name":"Deptford High Street","parentId":"490G00006051","stationId":"490G00006051","stopLetter":"E","topMostParentId":"490G00006051"},{"icsId":"1007024","id":"490007024R","lat":51.472764,"lon":-0.023322,"name":"Friendly Street","parentId":"490G00007024","stationId":"490G00007024","stopLetter":"R","topMostParentId":"490G00007024"},{"icsId":"1005696","id":"490005696S","lat":51.470646,"lon":-0.021441,"name":"Cranbrook Road","parentId":"490G000470","stationId":"490G000470","stopLetter":"SV","topMostParentId":"490G000470"},{"icsId":"1002035","id":"490002035B","lat":51.468141,"lon":-0.018497,"name":"Elverson Road","parentId":"490G02035B","stationId":"490G02035B","stopLetter":"EB","topMostParentId":"940GZZDLELV","zone":"2+3"},{"icsId":"1008550","id":"490008550E","lat":51.466164,"lon":-0.016451,"name":"Jerrard Street","parentId":"490G00008550","stationId":"490G00008550","stopLetter":"ST","topMostParentId":"490G00008550"},{"icsId":"1009234","id":"490009234E","lat":51.465287,"lon":-0.014546,"name":"Loampit Vale","parentId":"490G000640","stationId":"490G000640","topMostParentId":"490G000640"},{"icsId":"1001177","id":"490001177V","lat":51.463965,"lon":-0.012444,"name":"Lewisham Station","parentId":"490GA00005","stationId":"490GA00005","stopLetter":"C","topMostParentId":"HUBLEW","zone":"2+3"},{"icsId":"1009105","id":"490009105X","lat":51.460479,"lon":-0.010997,"name":"Lewisham Centre","parentId":"490G00009105","stationId":"490G00009105","stopLetter":"X","topMostParentId":"490G00009105"},{"icsId":"1010038","id":"490010038Y","lat":51.458913,"lon":-0.012015,"name":"Morley Road","parentId":"490G00010038","stationId":"490G00010038","stopLetter":"Y","topMostParentId":"490G00010038"},{"icsId":"1020225","id":"490020225E","lat":51.456768,"lon":-0.0128,"name":"Longbridge Way","parentId":"490G00020225","stationId":"490G00020225","stopLetter":"->E","topMostParentId":"490G00020225"},{"icsId":"1013624","id":"490013624S","lat":51.454508,"lon":-0.008896,"name":"Thornford Road","parentId":"490G00013624","stationId":"490G00013624","stopLetter":"->S","topMostParentId":"490G00013624"},{"icsId":"1013479","id":"490013479S","lat":51.451368,"lon":-0.006197,"name":"Theodore Road","parentId":"490G00013479","stationId":"490G00013479","stopLetter":"B","topMostParentId":"490G00013479"},{"icsId":"1008259","id":"490008259S","lat":51.449895,"lon":-0.003642,"name":"George Lane","parentId":"490G00008259","stationId":"490G00008259","stopLetter":"C","topMostParentId":"490G00008259"},{"icsId":"1015429","id":"490015429S","lat":51.449691,"lon":0.000407,"name":"Springbank Road / Hither Green Station","parentId":"490G00015429","stationId":"490G00015429","stopLetter":"A","topMostParentId":"490G00015429"}]}]}