{"direction":"inbound","lineId":"231","lineName":"231","mode":"bus","stopPointSequences":[{"stopPoint":[{"icsId":"1013852","id":"490013852T","lat":51.5902,"lon":-0.102407,"name":"Turnpike Lane Bus Station","parentId":"490G000808","stationId":"490G000808","stopLetter":"T","topMostParentId":"490G000808"},{"icsId":"1008909","id":"490008909E","lat":51.59382,"lon":-0.097694,"name":"Westbury Avenue Baptist Church","parentId":"490G00008909","stationId":"490G00008909","stopLetter":"->E","topMostParentId":"490G00008909"},{"icsId":"1019107","id":"490004186N","lat":51.597615,"lon":-0.094922,"name":"Lordship Lane","parentId":"490G00019107","stationId":"490G00019107","stopLetter":"NE","topMostParentId":"490G00019107"},{"icsId":"1007377","id":"490007377N","lat":51.598876,"lon":-0.09227,"name":"Granville Road","parentId":"490G00007377","stationId":"490G00007377","stopLetter":"RA","topMostParentId":"490G00007377"},{"icsId":"1007323","id":"490007323N","lat":51.601808,"lon":-0.091209,"name":"Gospatrick Road","parentId":"490G00007323","stationId":"490G00007323","stopLetter":"RB","topMostParentId":"490G00007323"},{"icsId":"1005666","id":"490005666E","lat":51.602802,"lon":-0.088727,"name":"Courtman Road","parentId":"490G00005666","stationId":"490G00005666","stopLetter":"RC","topMostParentId":"490G00005666"},{"icsId":"1014597","id":"490014597N","lat":51.60493,"lon":-0.086327,"name":"White Hart Lane","parentId":"490G00014597","stationId":"490G00014597","stopLetter":"RD","topMostParentId":"490G00014597"},{"icsId":"1006564","id":"490006564N","lat":51.609496,"lon":-0.085644,"name":"Empire Parade","parentId":"490G00006564","stationId":"490G00006564","stopLetter":"NA","topMostParentId":"490G00006564"},{"icsId":"1010864","id":"490010864N","lat":51.612383,"lon":-0.086779,"name":"Pasteur Gardens","parentId":"490G00010864","stationId":"490G00010864","stopLetter":"NB","topMostParentId":"490G00010864"},{"icsId":"1019163","id":"490004712N","lat":51.61537,"lon":-0.086913,"name":"Cambridge Roundabout / South Side","parentId":"490G00019163","stationId":"490G00019163","stopLetter":"NC","topMostParentId":"490G00019163"},{"icsId":"1015300","id":"490015300N","lat":51.617431,"lon":-0.086422,"name":"Cambridge Roundabout / North Side","parentId":"490G00015300","stationId":"490G00015300","stopLetter":"ND","topMostParentId":"490G00015300"},{"icsId":"1013348","id":"490013348N","lat":51.622554,"lon":-0.082407,"name":"The Fairway","parentId":"490G00013348","stationId":"490G00013348","stopLetter":"NE","topMostParentId":"490G00013348"},{"icsId":"1006010","id":"490006010N","lat":51.625482,"lon":-0.081099,"name":"Deansway","parentId":"490G00006010","stationId":"490G00006010","stopLetter":"EJ","topMostParentId":"490G00006010"},{"icsId":"1005305","id":"490005305N","lat":51.62909,"lon":-0.079039,"name":"Church Street","parentId":"490G00005305","stationId":"490G00005305","stopLetter":"EK","topMostParentId":"490G00005305"},{"icsId":"1004632","id":"490004632N","lat":51.634904,"lon":-0.069459,"name":"Bury Street","parentId":"490G00004632","stationId":"490G00004632","stopLetter":"E","topMostParentId":"490G00004632"},{"icsId":"1013798","id":"490013798N","lat":51.640645,"lon":-0.06261,"name":"Trinity Avenue / Bush Hill Park Stn","parentId":"490G000806","stationId":"490G000806","stopLetter":"B","topMostParentId":"490G000806"},{"icsId":"1009170","id":"490009170N","lat":51.64414,"lon":-0.060799,"name":"Lincoln Road","parentId":"490G00009170","stationId":"490G00009170","stopLetter":"F","topMostParentId":"490G00009170"},{"icsId":"1007396","id":"490007396W2","lat":51.649822,"lon":-0.061814,"name":"Great Cambridge Road","parentId":"490G00007396","stationId":"490G00007396","stopLetter":"J","topMostParentId":"490G00007396"},{"icsId":"1003937","id":"490003937W","lat":51.65051,"lon":-0.065341,"name":"Percival Road","parentId":"490G00003937","stationId":"490G00003937","stopLetter":"K","topMostParentId":"490G00003937"},{"icsId":"1004902","id":"490004902W","lat":51.651151,"lon":-0.069318,"name":"Cecil Avenue","parentId":"490G00004902","stationId":"490G00004902","stopLetter":"L","topMostParentId":"490G00004902"},{"icsId":"1008903","id":"490008903W","lat":51.652188,"lon":-0.074955,"name":"Ladysmith Road","parentId":"490G00008903","stationId":"490G00008903","stopLetter":"->W","topMostParentId":"490G00008903"},{"icsId":"1001101","id":"490001101M","lat":51.652188,"lon":-0.078815,"name":"Enfield Town Station","parentId":"490G01101L","stationId":"490G01101L","stopLetter":"M","topMostParentId":"910GENFLDTN"},{"icsId":"1006586","id":"490006586S","lat":51.650553,"lon":-0.082758,"name":"Enfield Town / Cecil Road","parentId":"490G00006586","stationId":"490G00006586","stopLetter":"S","topMostParentId":"490G00006586"},{"icsId":"1001099","id":"490001099W2","lat":51.653534,"lon":-0.090207,"name":"Enfield Chase Station","parentId":"490G01099CC","stationId":"490G01099CC","stopLetter":"CB","topMostParentId":"910GENFC"}]}]}