{"direction":"inbound","lineId":"234","lineName":"234","mode":"bus","stopPointSequences":[{"stopPoint":[{"icsId":"1016116","id":"490016116S","lat":51.581204,"lon":-0.155162,"name":"Highgate Wood","parentId":"490G00016116","stationId":"490G00016116","stopLetter":"L","topMostParentId":"490G00016116"},{"icsId":"1014894","id":"490014894N","lat":51.58252,"lon":-0.15824,"name":"Woodside Avenue","parentId":"490G00014894","stationId":"490G00014894","stopLetter":"K","topMostParentId":"490G00014894"},{"icsId":"1013265","id":"490013265N","lat":51.585323,"lon":-0.163237,"name":"The Bishops Avenue","parentId":"490G00013265","stationId":"490G00013265","stopLetter":"D","topMostParentId":"490G00013265"},{"icsId":"1000067","id":"490000067E","lat":51.586589,"lon":-0.164254,"name":"East Finchley Station","parentId":"490G00067G","stationId":"490G00067G","stopLetter":"E","topMostParentId":"940GZZLUEFY","zone":"3"},{"icsId":"1013254","id":"490013880K","lat":51.58971,"lon":-0.163161,"name":"Fairlawn Avenue","parentId":"490G00013254","stationId":"490G00013254","stopLetter":"K","topMostParentId":"490G00013254"},{"icsId":"1012392","id":"490012392E","lat":51.590252,"lon":-0.159299,"name":"Twyford Avenue","parentId":"490G00012392","stationId":"490G00012392","stopLetter":"N","topMostParentId":"490G00012392"},{"icsId":"1006947","id":"490006947E","lat":51.591053,"lon":-0.15303,"name":"Midhurst Avenue","parentId":"490G00006947","stationId":"490G00006947","stopLetter":"->E","topMostParentId":"490G00006947"},{"icsId":"1006949","id":"490006949E","lat":51.59114,"lon":-0.149981,"name":"Fortismere Avenue","parentId":"490G00006949","stationId":"490G00006949","topMostParentId":"490G00006949"},{"icsId":"1010135","id":"490010135K","lat":51.589942,"lon":-0.145886,"name":"Muswell Hill Road","parentId":"490G00010135","stationId":"490G00010135","stopLetter":"K","topMostParentId":"490G00010135"},{"icsId":"1015187","id":"490015187F","lat":51.590812,"lon":-0.14292,"name":"Muswell Hill","parentId":"490G00015187","stationId":"490G00015187","stopLetter":"F","topMostParentId":"490G00015187"},{"icsId":"1015186","id":"490015186A","lat":51.591849,"lon":-0.143094,"name":"Queens Avenue","parentId":"490G00015186","stationId":"490G00015186","stopLetter":"A","topMostParentId":"490G00015186"},{"icsId":"1009765","id":"490009765N","lat":51.594194,"lon":-0.144644,"name":"Meadow Drive","parentId":"490G00009765","stationId":"490G00009765","stopLetter":"CA","topMostParentId":"490G00009765"},{"icsId":"1019551","id":"490019551W","lat":51.594725,"lon":-0.146384,"name":"Pages Hill","parentId":"490G00019551","stationId":"490G00019551","stopLetter":"->W","topMostParentId":"490G00019551"},{"icsId":"1000428","id":"490000428Z","lat":51.596146,"lon":-0.15099,"name":"Creighton Avenue Muswell Hill","parentId":"490G000077","stationId":"490G000077","stopLetter":"->N","topMostParentId":"490G000077"},{"icsId":"1006663","id":"490006663Z","lat":51.598206,"lon":-0.152134,"name":"Everington Road","parentId":"490G00006663","stationId":"490G00006663","stopLetter":"->N","topMostParentId":"490G00006663"},{"icsId":"1005590","id":"490005590Y","lat":51.602068,"lon":-0.15358,"name":"Osier Crescent","parentId":"490G00005590","stationId":"490G00005590","stopLetter":"->N","topMostParentId":"490G00005590"},{"icsId":"1019549","id":"490019549N","lat":51.603872,"lon":-0.153333,"name":"Trott Road","parentId":"490G00019549","stationId":"490G00019549","topMostParentId":"490G00019549"},{"icsId":"1010327","id":"490010327N","lat":51.607368,"lon":-0.152671,"name":"North Circular Road","parentId":"490G00010327","stationId":"490G00010327","stopLetter":"CH","topMostParentId":"490G00010327"},{"icsId":"1006852","id":"490006852N","lat":51.609479,"lon":-0.153654,"name":"Firs Avenue","parentId":"490G00006852","stationId":"490G00006852","stopLetter":"CJ","topMostParentId":"490G00006852"},{"icsId":"1003443","id":"490008237N","lat":51.611435,"lon":-0.156233,"name":"Hillside Avenue","parentId":"490G00003443","stationId":"490G00003443","stopLetter":"FJ","topMostParentId":"490G00003443"},{"icsId":"1007029","id":"490007029N","lat":51.612503,"lon":-0.15837,"name":"Friern Barnet Road","parentId":"490G00007029","stationId":"490G00007029","stopLetter":"FK","topMostParentId":"490G00007029"},{"icsId":"1019128","id":"490007030N","lat":51.61395,"lon":-0.158904,"name":"Constable Close","parentId":"490G00019128","stationId":"490G00019128","stopLetter":"FS","topMostParentId":"490G00019128"},{"icsId":"1013525","id":"490013525N","lat":51.618773,"lon":-0.16024,"name":"The Ridgeway","parentId":"490G00013525","stationId":"490G00013525","stopLetter":"->N","topMostParentId":"490G00013525"},{"icsId":"1007018","id":"490007018N","lat":51.620573,"lon":-0.162666,"name":"Friary Road","parentId":"490G00007018","stationId":"490G00007018","stopLetter":"->N","topMostParentId":"490G00007018"},{"icsId":"1007280","id":"490007280N","lat":51.622992,"lon":-0.166671,"name":"Golfside Close","parentId":"490G00007280","stationId":"490G00007280","stopLetter":"->N","topMostParentId":"490G00007280"},{"icsId":"1010139","id":"490010139S2","lat":51.624198,"lon":-0.167909,"name":"Myddelton Park","parentId":"490G00010139","stationId":"490G00010139","topMostParentId":"490G00010139"},{"icsId":"1009021","id":"490009021N","lat":51.625268,"lon":-0.170235,"name":"Lawrence Campe Close","parentId":"490G00009021","stationId":"490G00009021","topMostParentId":"490G00009021"},{"icsId":"1014564","id":"490014564G","lat":51.626849,"lon":-0.174159,"name":"Sweets Way","parentId":"490G00014564","stationId":"490G00014564","stopLetter":"G","topMostParentId":"490G00014564"},{"icsId":"1007028","id":"490007028N","lat":51.62827,"lon":-0.174723,"name":"Whetstone High Road / Friern Barnet Lane","parentId":"490G00007028","stationId":"490G00007028","stopLetter":"I","topMostParentId":"490G00007028"},{"icsId":"1015488","id":"490015488J","lat":51.631157,"lon":-0.17533,"name":"Athenaeum Road","parentId":"490G000901","stationId":"490G000901","stopLetter":"J","topMostParentId":"490G000901"},{"icsId":"1004978","id":"490004978N","lat":51.633333,"lon":-0.175936,"name":"Chandos Avenue","parentId":"490G00004978","stationId":"490G00004978","stopLetter":"K","topMostParentId":"490G00004978"},{"icsId":"1004553","id":"490004553N","lat":51.635762,"lon":-0.177168,"name":"Buckingham Avenue","parentId":"490G00004553","stationId":"490G00004553","topMostParentId":"490G00004553"},{"icsId":"1007031","id":"490007031N","lat":51.637056,"lon":-0.178258,"name":"Friern Mount Drive","parentId":"490G00007031","stationId":"490G00007031","stopLetter":"->N","topMostParentId":"490G00007031"},{"icsId":"1014131","id":"490014131N","lat":51.638669,"lon":-0.179638,"name":"Walfield Avenue","parentId":"490G00014131","stationId":"490G00014131","stopLetter":"L","topMostParentId":"490G00014131"},{"icsId":"1009489","id":"490009489N","lat":51.641892,"lon":-0.181605,"name":"Lyonsdown Road","parentId":"490G00009489","stationId":"490G00009489","stopLetter":"P","topMostParentId":"490G00009489"},{"icsId":"1006086","id":"490006086N","lat":51.643779,"lon":-0.183856,"name":"Dinsdale Gardens","parentId":"490G00006086","stationId":"490G00006086","stopLetter":"Q","topMostParentId":"490G00006086"},{"icsId":"1012613","id":"490003640N","lat":51.646089,"lon":-0.186655,"name":"Barnet Everyman Cinema","parentId":"490G00012613","stationId":"490G00012613","stopLetter":"R","topMostParentId":"490G00012613"},{"icsId":"1013897","id":"490013897N","lat":51.648139,"lon":-0.191343,"name":"Underhill","parentId":"490G00013897","stationId":"490G00013897","topMostParentId":"490G00013897"},{"icsId":"1000107","id":"490000107Q","lat":51.650081,"lon":-0.194836,"name":"High Barnet Station","parentId":"490G00107E","stationId":"490G00107E","stopLetter":"Q","topMostParentId":"940GZZLUHBT","zone":"5"},{"icsId":"1003634","id":"490003634L","lat":51.652628,"lon":-0.199043,"name":"Barnet Church","parentId":"490G000398","stationId":"490G000398","stopLetter":"L","topMostParentId":"490G000398"},{"icsId":"1003639","id":"490003639J","lat":51.653529,"lon":-0.201494,"name":"Barnet High Street","parentId":"490G00003639","stationId":"490G00003639","stopLetter":"J","topMostParentId":"490G00003639"},{"icsId":"1012424","id":"490012424B","lat":51.655972,"lon":-0.201947,"name":"St Albans Road","parentId":"490G00012424","stationId":"490G00012424","stopLetter":"B","topMostParentId":"490G00012424"},{"icsId":"1013559","id":"490013559S","lat":51.656453,"lon":-0.203966,"name":"The Spires","parentId":"490G00013559","stationId":"490G00013559","stopLetter":"S","topMostParentId":"490G00013559"}]}]}