{"direction":"inbound","lineId":"240","lineName":"240","mode":"bus","stopPointSequences":[{"stopPoint":[{"icsId":"1000070","id":"490015287E","lat":51.612734,"lon":-0.274197,"name":"Edgware Bus Station","parentId":"490G00070C","stationId":"490G00070C","stopLetter":"E","topMostParentId":"940GZZLUEGW","zone":"5"},{"icsId":"1000070","id":"490000070A","lat":51.614772,"lon":-0.275824,"name":"Edgware Station","parentId":"490G00070S","stationId":"490G00070S","stopLetter":"A","topMostParentId":"940GZZLUEGW","zone":"5"},{"icsId":"1004366","id":"490004366E","lat":51.618247,"lon":-0.271807,"name":"Broadfields Avenue","parentId":"490G00004366","stationId":"490G00004366","stopLetter":"N","topMostParentId":"490G00004366"},{"icsId":"1006748","id":"490008197E","lat":51.617846,"lon":-0.266564,"name":"Farm Road","parentId":"490G00006748","stationId":"490G00006748","stopLetter":"A","topMostParentId":"490G00006748"},{"icsId":"1005442","id":"490005442E","lat":51.617193,"lon":-0.261302,"name":"Cloister Gardens","parentId":"490G00005442","stationId":"490G00005442","stopLetter":"B","topMostParentId":"490G00005442"},{"icsId":"1003407","id":"490003407E","lat":51.615488,"lon":-0.255488,"name":"Ashbourne Grove","parentId":"490G00003407","stationId":"490G00003407","stopLetter":"C","topMostParentId":"490G00003407"},{"icsId":"1007665","id":"490007665E","lat":51.614373,"lon":-0.251877,"name":"Hale Grove Gardens","parentId":"490G00007665","stationId":"490G00007665","stopLetter":"D","topMostParentId":"490G00007665"},{"icsId":"1001193","id":"490015207F","lat":51.614407,"lon":-0.248106,"name":"Mill Hill Broadway Station","parentId":"490G01193A","stationId":"490G01193A","stopLetter":"F","topMostParentId":"910GMLHB"},{"icsId":"1009905","id":"490009905M","lat":51.615889,"lon":-0.245015,"name":"Mill Hill Circus / Flower Lane","parentId":"490G00009905","stationId":"490G00009905","stopLetter":"M","topMostParentId":"490G00009905"},{"icsId":"1004031","id":"490004031E","lat":51.615638,"lon":-0.239652,"name":"Birkbeck Road","parentId":"490G00004031","stationId":"490G00004031","topMostParentId":"490G00004031"},{"icsId":"1014791","id":"490014797N","lat":51.615908,"lon":-0.236651,"name":"Wise Lane","parentId":"490G00014791","stationId":"490G00014791","stopLetter":"M","topMostParentId":"490G00014791"},{"icsId":"1012035","id":"490012035N","lat":51.61891,"lon":-0.235943,"name":"Shakespeare Road","parentId":"490G00012035","stationId":"490G00012035","stopLetter":"->N","topMostParentId":"490G00012035"},{"icsId":"1009902","id":"490009902E","lat":51.621144,"lon":-0.232678,"name":"Mill Hill / The Three Hammers","parentId":"490G00009902","stationId":"490G00009902","topMostParentId":"490G00009902"},{"icsId":"1009907","id":"490009907S","lat":51.618588,"lon":-0.228935,"name":"Mill Hill School","parentId":"490G00009907","stationId":"490G00009907","stopLetter":"->S","topMostParentId":"490G00009907"},{"icsId":"1012971","id":"490012971E","lat":51.617554,"lon":-0.222966,"name":"St Vincent's School","parentId":"490G00012971","stationId":"490G00012971","stopLetter":"->E","topMostParentId":"490G00012971"},{"icsId":"1009783","id":"490009783E","lat":51.617216,"lon":-0.220264,"name":"Burtonhole Lane","parentId":"490G00009783","stationId":"490G00009783","stopLetter":"->E","topMostParentId":"490G00009783"},{"icsId":"1006590","id":"490006590E","lat":51.614147,"lon":-0.214736,"name":"Engel Park","parentId":"490G00006590","stationId":"490G00006590","topMostParentId":"490G00006590"},{"icsId":"1011892","id":"490011892S","lat":51.610218,"lon":-0.212435,"name":"Sanders Lane","parentId":"490G00011892","stationId":"490G00011892","topMostParentId":"490G00011892"},{"icsId":"1000147","id":"490000147B","lat":51.608293,"lon":-0.209406,"name":"Mill Hill East Station","parentId":"490G00147E","stationId":"490G00147E","stopLetter":"B","topMostParentId":"940GZZLUMHL","zone":"4"},{"icsId":"1007038","id":"490007038S","lat":51.605876,"lon":-0.207825,"name":"Frith Lane","parentId":"490G00007038","stationId":"490G00007038","stopLetter":"D","topMostParentId":"490G00007038"},{"icsId":"1008278","id":"490008278S","lat":51.603932,"lon":-0.207657,"name":"Holders Hill Circus","parentId":"490G00008278","stationId":"490G00008278","stopLetter":"J","topMostParentId":"490G00008278"},{"icsId":"1008051","id":"490008051S","lat":51.601265,"lon":-0.209119,"name":"Hendon Cemetery","parentId":"490G00008051","stationId":"490G00008051","stopLetter":"->S","topMostParentId":"490G00008051"},{"icsId":"1008279","id":"490008279S","lat":51.597367,"lon":-0.212954,"name":"Holders Hill Crescent","parentId":"490G00008279","stationId":"490G00008279","topMostParentId":"490G00008279"},{"icsId":"1007412","id":"490007412S","lat":51.595557,"lon":-0.216346,"name":"Great North Way","parentId":"490G00007412","stationId":"490G00007412","stopLetter":"->S","topMostParentId":"490G00007412"},{"icsId":"1003441","id":"490003441S","lat":51.593171,"lon":-0.219125,"name":"Ashley Lane","parentId":"490G00003441","stationId":"490G00003441","stopLetter":"->S","topMostParentId":"490G00003441"},{"icsId":"1006880","id":"490006880SA","lat":51.590519,"lon":-0.221538,"name":"Florence Street","parentId":"490G00006880","stationId":"490G00006880","stopLetter":"F","topMostParentId":"490G00006880"},{"icsId":"1013512","id":"490013512U","lat":51.589314,"lon":-0.221499,"name":"The Quadrant","parentId":"490G00013512","stationId":"490G00013512","stopLetter":"U","topMostParentId":"490G00013512"},{"icsId":"1003853","id":"490003853W","lat":51.586208,"lon":-0.220104,"name":"Bell Lane","parentId":"490G00003853","stationId":"490G00003853","stopLetter":"W","topMostParentId":"490G00003853"},{"icsId":"1007464","id":"490007464S","lat":51.583163,"lon":-0.215561,"name":"Brent Street / Green Lane","parentId":"490G00007464","stationId":"490G00007464","stopLetter":"L","topMostParentId":"490G00007464"},{"icsId":"1010331","id":"490010331E","lat":51.581475,"lon":-0.212813,"name":"North Circular Road","parentId":"490G00010331","stationId":"490G00010331","stopLetter":"M","topMostParentId":"490G00010331"},{"icsId":"1007270","id":"490007270E","lat":51.580524,"lon":-0.210584,"name":"Golders Manor Drive","parentId":"490G00007270","stationId":"490G00007270","stopLetter":"N","topMostParentId":"490G00007270"},{"icsId":"1008152","id":"490008152S","lat":51.578513,"lon":-0.207805,"name":"Highfield Avenue","parentId":"490G00008152","stationId":"490G00008152","stopLetter":"P","topMostParentId":"490G00008152"},{"icsId":"1014904","id":"490014904E","lat":51.575988,"lon":-0.204412,"name":"Woodstock Avenue","parentId":"490G00014904","stationId":"490G00014904","stopLetter":"R","topMostParentId":"490G00014904"},{"icsId":"1015322","id":"490015322GR","lat":51.57365,"lon":-0.200348,"name":"Hoop Lane","parentId":"490G00015322","stationId":"490G00015322","stopLetter":"S","topMostParentId":"490G00015322"},{"icsId":"1006838","id":"490006838GT","lat":51.572188,"lon":-0.197058,"name":"Finchley Road","parentId":"490G00006838","stationId":"490G00006838","stopLetter":"GT","topMostParentId":"490G00006838"},{"icsId":"1000087","id":"490000087GI","lat":51.571995,"lon":-0.194439,"name":"Golders Green Station","parentId":"490G00087GB","stationId":"490G00087GB","stopLetter":"GI","topMostParentId":"940GZZLUGGN","zone":"3"}]}]}