{"direction":"inbound","lineId":"242","lineName":"242","mode":"bus","stopPointSequences":[{"stopPoint":[{"icsId":"1003184","id":"490003184L","lat":51.513505,"lon":-0.07546,"name":"Aldgate Bus Station","parentId":"490G000384","stationId":"490G000384","stopLetter":"L","topMostParentId":"490G000384"},{"icsId":"1000004","id":"490000004N","lat":51.515721,"lon":-0.072384,"name":"Aldgate East Station","parentId":"490G00004G","stationId":"490G00004G","stopLetter":"F","topMostParentId":"940GZZLUADE","zone":"1"},{"icsId":"1009259","id":"490009259E","lat":51.517716,"lon":-0.073957,"name":"Lolesworth Close","parentId":"490G00009259","stationId":"490G00009259","stopLetter":"Y","topMostParentId":"490G00009259"},{"icsId":"1006766","id":"490010584N","lat":51.518868,"lon":-0.0746,"name":"Brushfield Street","parentId":"490G00006766","stationId":"490G00006766","stopLetter":"->N","topMostParentId":"490G00006766"},{"icsId":"1001571","id":"490006883N","lat":51.520911,"lon":-0.07522,"name":"Shoreditch High Street Station","parentId":"490G06883N","stationId":"490G06883N","stopLetter":"S","topMostParentId":"910GSHRDHST"},{"icsId":"1019064","id":"490006463G","lat":51.522269,"lon":-0.076907,"name":"Elder Street","parentId":"490G00019064","stationId":"490G00019064","stopLetter":"G","topMostParentId":"490G00019064"},{"icsId":"1006411","id":"490016266N","lat":51.524318,"lon":-0.07734,"name":"Shoreditch High St / Bethnal Green Road","parentId":"490G00006411","stationId":"490G00006411","stopLetter":"L","topMostParentId":"490G00006411"},{"icsId":"1007625","id":"490016267N","lat":51.525948,"lon":-0.078021,"name":"Shoreditch Church","parentId":"490G00007625","stationId":"490G00007625","stopLetter":"P","topMostParentId":"490G00007625"},{"icsId":"1019062","id":"490007625V","lat":51.528259,"lon":-0.078024,"name":"Waterson Street","parentId":"490G00019062","stationId":"490G00019062","stopLetter":"V","topMostParentId":"490G00019062"},{"icsId":"1006733","id":"490006726N","lat":51.530164,"lon":-0.077411,"name":"Hoxton Station  / Geffrye Museum","parentId":"490G000509","stationId":"490G000509","stopLetter":"KA","topMostParentId":"490G000509"},{"icsId":"1000390","id":"490007155KB","lat":51.532869,"lon":-0.077282,"name":"Pearson Street","parentId":"490G00000390","stationId":"490G00000390","stopLetter":"KB","topMostParentId":"490G00000390"},{"icsId":"1012445","id":"490012445N","lat":51.534314,"lon":-0.077135,"name":"St Leonard's Hospital","parentId":"490G00012445","stationId":"490G00012445","stopLetter":"KC","topMostParentId":"490G00012445"},{"icsId":"1008893","id":"490010985N","lat":51.535922,"lon":-0.077024,"name":"Laburnum Street","parentId":"490G00008893","stationId":"490G00008893","stopLetter":"KD","topMostParentId":"490G00008893"},{"icsId":"1006170","id":"490006170N1","lat":51.538024,"lon":-0.076892,"name":"Haggerston Station","parentId":"490G00006170","stationId":"490G00006170","stopLetter":"KE","topMostParentId":"490G00006170"},{"icsId":"1009859","id":"490009859N","lat":51.541445,"lon":-0.076546,"name":"Middleton Road","parentId":"490G00009859","stationId":"490G00009859","stopLetter":"KF","topMostParentId":"490G00009859"},{"icsId":"1001568","id":"490006929C","lat":51.544541,"lon":-0.076156,"name":"Dalston Junction Station","parentId":"490G06929C","stationId":"490G06929C","stopLetter":"C","topMostParentId":"910GDALS"},{"icsId":"1005945","id":"490005945K","lat":51.546289,"lon":-0.073111,"name":"Dalston Lane / Dalston Junction Stn","parentId":"490G000481","stationId":"490G000481","stopLetter":"K","topMostParentId":"490G000481"},{"icsId":"1012569","id":"490012569E","lat":51.546148,"lon":-0.067824,"name":"Stannard Road","parentId":"490G00012569","stationId":"490G00012569","stopLetter":"D","topMostParentId":"490G00012569"},{"icsId":"1010160","id":"490010160E1","lat":51.54586,"lon":-0.063956,"name":"Greenwood Road","parentId":"490G00010160","stationId":"490G00010160","stopLetter":"E","topMostParentId":"490G00010160"},{"icsId":"1010161","id":"490010161E","lat":51.546421,"lon":-0.060356,"name":"Royal Oak Road","parentId":"490G00010161","stationId":"490G00010161","stopLetter":"F","topMostParentId":"490G00010161"},{"icsId":"1009644","id":"490009644G","lat":51.546696,"lon":-0.055801,"name":"Hackney Central / Mare Street","parentId":"490G000658","stationId":"490G000658","stopLetter":"G","topMostParentId":"490G000658"},{"icsId":"1001127","id":"490001127K","lat":51.548021,"lon":-0.0571,"name":"Hackney Central Station","parentId":"490G01127JA","stationId":"490G01127JA","stopLetter":"K","topMostParentId":"910GHACKNYC"},{"icsId":"1019876","id":"490001128L","lat":51.548655,"lon":-0.058415,"name":"Amhurst Road / Hackney Downs Station","parentId":"490G000961","stationId":"490G000961","stopLetter":"L","topMostParentId":"490G000961"},{"icsId":"1003004","id":"490003001E","lat":51.54955,"lon":-0.055997,"name":"Clarence Road / Narrow Way","parentId":"490G00003004","stationId":"490G00003004","stopLetter":"Q","topMostParentId":"490G00003004"},{"icsId":"1007619","id":"490007619T","lat":51.550916,"lon":-0.052722,"name":"Hackney Baths","parentId":"490G00007619","stationId":"490G00007619","topMostParentId":"490G00007619"},{"icsId":"1015383","id":"490015383R","lat":51.552737,"lon":-0.051865,"name":"Powerscroft Road / Lower Clapton Road","parentId":"490G00015383","stationId":"490G00015383","stopLetter":"R","topMostParentId":"490G00015383"},{"icsId":"1011157","id":"490011157E2","lat":51.556675,"lon":-0.046994,"name":"Chatsworth Road","parentId":"490G00011157","stationId":"490G00011157","stopLetter":"->E","topMostParentId":"490G00011157"},{"icsId":"1010470","id":"490012010E","lat":51.557219,"lon":-0.045081,"name":"Millfields Road / Clapton Park","parentId":"490G00010470","stationId":"490G00010470","topMostParentId":"490G00010470"},{"icsId":"1010662","id":"490010662E","lat":51.557995,"lon":-0.040907,"name":"Oswald Street","parentId":"490G00010662","stationId":"490G00010662","topMostParentId":"490G00010662"},{"icsId":"1020008","id":"490008855E","lat":51.556376,"lon":-0.03877,"name":"Mandeville Street","parentId":"490G00020008","stationId":"490G00020008","topMostParentId":"490G00020008"},{"icsId":"1005980","id":"490005980S","lat":51.554501,"lon":-0.037379,"name":"Daubeney Road","parentId":"490G00005980","stationId":"490G00005980","topMostParentId":"490G00005980"},{"icsId":"1011494","id":"490011494W","lat":51.553597,"lon":-0.040909,"name":"Redwald Road","parentId":"490G00011494","stationId":"490G00011494","stopLetter":"K","topMostParentId":"490G00011494"},{"icsId":"1001982","id":"490001982Z","lat":51.552059,"lon":-0.043557,"name":"Clifden Road","parentId":"490G000306","stationId":"490G000306","topMostParentId":"490G000306"}]}]}