{"direction":"inbound","lineId":"244","lineName":"244","mode":"bus","stopPointSequences":[{"stopPoint":[{"icsId":"1003039","id":"490003039G","lat":51.489362,"lon":0.12143,"name":"Abbey Wood Road","parentId":"490G000378","stationId":"490G000378","stopLetter":"G","topMostParentId":"490G000378"},{"icsId":"1001001","id":"490001001Z","lat":51.491181,"lon":0.121789,"name":"Abbey Wood Station","parentId":"490G1001Z","stationId":"490G1001Z","stopLetter":"->N","topMostParentId":"910GABWD"},{"icsId":"1019881","id":"490013257A","lat":51.494494,"lon":0.121078,"name":"Harrow Manorway / Lensbury Way","parentId":"490G00019881","stationId":"490G00019881","stopLetter":"A","topMostParentId":"490G00019881"},{"icsId":"1010190","id":"490010190N","lat":51.497832,"lon":0.121031,"name":"Newacres Library","parentId":"490G00010190","stationId":"490G00010190","stopLetter":"->N","topMostParentId":"490G00010190"},{"icsId":"1019078","id":"490004130N","lat":51.503435,"lon":0.118986,"name":"Carlyle Road / Bentham Road","parentId":"490G00019078","stationId":"490G00019078","stopLetter":"SK","topMostParentId":"490G00019078"},{"icsId":"1013459","id":"490013459W","lat":51.502911,"lon":0.116642,"name":"Titmuss Avenue","parentId":"490G00013459","stationId":"490G00013459","stopLetter":"SF","topMostParentId":"490G00013459"},{"icsId":"1012364","id":"490012364N","lat":51.502136,"lon":0.112715,"name":"Southwood Road","parentId":"490G00012364","stationId":"490G00012364","stopLetter":"SG","topMostParentId":"490G00012364"},{"icsId":"1007923","id":"490007923N","lat":51.504141,"lon":0.111252,"name":"Hawksmoor School","parentId":"490G00007923","stationId":"490G00007923","stopLetter":"SH","topMostParentId":"490G00007923"},{"icsId":"1007092","id":"490007092F","lat":51.506115,"lon":0.110032,"name":"Gallions Reach Health Centre","parentId":"490G00007092","stationId":"490G00007092","stopLetter":"F","topMostParentId":"490G00007092"},{"icsId":"1013214","id":"490013214A","lat":51.507389,"lon":0.109183,"name":"Thamesmead Town Centre","parentId":"490G00013214","stationId":"490G00013214","stopLetter":"A","topMostParentId":"490G00013214"},{"icsId":"1014285","id":"490014285S","lat":51.505044,"lon":0.105069,"name":"Watersmeet Place","parentId":"490G00014285","stationId":"490G00014285","stopLetter":"->S","topMostParentId":"490G00014285"},{"icsId":"1007382","id":"490007382S","lat":51.501361,"lon":0.102853,"name":"Grasshaven Way","parentId":"490G00007382","stationId":"490G00007382","stopLetter":"X","topMostParentId":"490G00007382"},{"icsId":"1003857","id":"490003857W","lat":51.497303,"lon":0.089872,"name":"Belmarsh Prison","parentId":"490G00003857","stationId":"490G00003857","stopLetter":"G","topMostParentId":"490G00003857"},{"icsId":"1003692","id":"490003692N","lat":51.498205,"lon":0.088703,"name":"Goldfinch Road","parentId":"490G00003692","stationId":"490G00003692","stopLetter":"H","topMostParentId":"490G00003692"},{"icsId":"1009807","id":"490009807N","lat":51.499644,"lon":0.088193,"name":"Merbury Road","parentId":"490G00009807","stationId":"490G00009807","stopLetter":"J","topMostParentId":"490G00009807"},{"icsId":"1004119","id":"490004119W","lat":51.500279,"lon":0.086882,"name":"Bluebird Way","parentId":"490G00004119","stationId":"490G00004119","stopLetter":"G","topMostParentId":"490G00004119"},{"icsId":"1011572","id":"490011572S","lat":51.499407,"lon":0.084335,"name":"Ridge Close","parentId":"490G00011572","stationId":"490G00011572","topMostParentId":"490G00011572"},{"icsId":"1007091","id":"490007091S","lat":51.497932,"lon":0.084873,"name":"Gallions Park","parentId":"490G00007091","stationId":"490G00007091","stopLetter":"->S","topMostParentId":"490G00007091"},{"icsId":"1014663","id":"490014663S","lat":51.495759,"lon":0.084183,"name":"Wigeon Path","parentId":"490G00014663","stationId":"490G00014663","stopLetter":"->S","topMostParentId":"490G00014663"},{"icsId":"1008098","id":"490008098S","lat":51.493642,"lon":0.082876,"name":"Heronsgate Primary School","parentId":"490G00008098","stationId":"490G00008098","topMostParentId":"490G00008098"},{"icsId":"1004816","id":"490004816S","lat":51.493742,"lon":0.080749,"name":"Carronade Place","parentId":"490G00004816","stationId":"490G00004816","stopLetter":"->S","topMostParentId":"490G00004816"},{"icsId":"1013703","id":"490013703S","lat":51.492572,"lon":0.080306,"name":"Tom Cribb Road","parentId":"490G00013703","stationId":"490G00013703","stopLetter":"WT","topMostParentId":"490G00013703"},{"icsId":"1019871","id":"490001227F","lat":51.490334,"lon":0.083806,"name":"Plumstead Road / Plumstead Station","parentId":"490G000959","stationId":"490G000959","stopLetter":"WL","topMostParentId":"490G000959"},{"icsId":"1014924","id":"490014924D","lat":51.4909,"lon":0.080273,"name":"Greenwich Community College","parentId":"490G00014924","stationId":"490G00014924","stopLetter":"WP","topMostParentId":"490G00014924"},{"icsId":"1009723","id":"490009723W","lat":51.49087,"lon":0.076872,"name":"Maxey Road","parentId":"490G00009723","stationId":"490G00009723","stopLetter":"->W","topMostParentId":"490G00009723"},{"icsId":"1014934","id":"490014934W","lat":51.491195,"lon":0.070722,"name":"Plumstead Road / Woolwich Public Market","parentId":"490G00014934","stationId":"490G00014934","stopLetter":"Z","topMostParentId":"490G00014934"},{"icsId":"1001344","id":"490001344J","lat":51.489649,"lon":0.068116,"name":"Woolwich Arsenal Station","parentId":"490G01344G","stationId":"490G01344G","stopLetter":"J","topMostParentId":"HUBWWA"},{"icsId":"1005370","id":"490005370S","lat":51.486446,"lon":0.065148,"name":"Claydown Mews","parentId":"490G00005370","stationId":"490G00005370","stopLetter":"E","topMostParentId":"490G00005370"},{"icsId":"1007601","id":"490007601S","lat":51.484303,"lon":0.062732,"name":"Gunner Lane","parentId":"490G00007601","stationId":"490G00007601","stopLetter":"F","topMostParentId":"490G00007601"},{"icsId":"1014926","id":"490014926E","lat":51.482545,"lon":0.062999,"name":"Woolwich Common","parentId":"490G00014926","stationId":"490G00014926","stopLetter":"S","topMostParentId":"490G00014926"},{"icsId":"1010281","id":"490010281E","lat":51.482297,"lon":0.065364,"name":"Nightingale Vale","parentId":"490G00010281","stationId":"490G00010281","stopLetter":"T","topMostParentId":"490G00010281"},{"icsId":"1018995","id":"490008079E","lat":51.482332,"lon":0.067929,"name":"Elmdene Road","parentId":"490G00018995","stationId":"490G00018995","stopLetter":"WN","topMostParentId":"490G00018995"},{"icsId":"1011074","id":"490011074S","lat":51.481794,"lon":0.069907,"name":"Herbert Road / Plumstead Common Road","parentId":"490G00011074","stationId":"490G00011074","stopLetter":"WE","topMostParentId":"490G00011074"},{"icsId":"1013452","id":"490013452W","lat":51.479302,"lon":0.068959,"name":"Eglinton Road","parentId":"490G00013452","stationId":"490G00013452","stopLetter":"WF","topMostParentId":"490G00013452"},{"icsId":"1004767","id":"490004767S","lat":51.477789,"lon":0.068573,"name":"Cantwell Road","parentId":"490G00004767","stationId":"490G00004767","topMostParentId":"490G00004767"},{"icsId":"1004299","id":"490004299S","lat":51.475703,"lon":0.068047,"name":"Brent Road","parentId":"490G00004299","stationId":"490G00004299","stopLetter":"->S","topMostParentId":"490G00004299"},{"icsId":"1012107","id":"490012107S","lat":51.473696,"lon":0.069641,"name":"Eaglesfield Road","parentId":"490G00012107","stationId":"490G00012107","stopLetter":"->S","topMostParentId":"490G00012107"},{"icsId":"1006969","id":"490006969S","lat":51.471485,"lon":0.068576,"name":"Shrewsbury Lane / Foxcroft Road","parentId":"490G00006969","stationId":"490G00006969","stopLetter":"WM","topMostParentId":"490G00006969"},{"icsId":"1009803","id":"490009803S","lat":51.46955,"lon":0.066602,"name":"Shooters Hill / The Bull","parentId":"490G00009803","stationId":"490G00009803","stopLetter":"WN","topMostParentId":"490G00009803"},{"icsId":"1009805","id":"490009803W","lat":51.469432,"lon":0.064639,"name":"Memorial Hospital","parentId":"490G00009805","stationId":"490G00009805","stopLetter":"SM","topMostParentId":"490G00009805"},{"icsId":"1011486","id":"490011486W","lat":51.470361,"lon":0.059353,"name":"Red Lion Lane","parentId":"490G00011486","stationId":"490G00011486","stopLetter":"SN","topMostParentId":"490G00011486"},{"icsId":"1012108","id":"490012108W","lat":51.471124,"lon":0.05429,"name":"Shooters Hill Road / Well Hall Road","parentId":"490G00012108","stationId":"490G00012108","stopLetter":"SP","topMostParentId":"490G00012108"},{"icsId":"1007509","id":"490007509N","lat":51.474758,"lon":0.048074,"name":"Greenwich Heights","parentId":"490G00007509","stationId":"490G00007509","stopLetter":"H5","topMostParentId":"490G00007509"},{"icsId":"1011307","id":"490011307H3","lat":51.476916,"lon":0.050677,"name":"Queen Elizabeth Hospital / West Entrance","parentId":"490G00011307","stationId":"490G00011307","stopLetter":"H3","topMostParentId":"490G00011307"}]}]}