{"direction":"inbound","lineId":"247","lineName":"247","mode":"bus","stopPointSequences":[{"stopPoint":[{"icsId":"1001243","id":"490001243V","lat":51.574499,"lon":0.183582,"name":"Romford Station","parentId":"490G01243W","stationId":"490G01243W","stopLetter":"V","topMostParentId":"910GROMFORD"},{"icsId":"1014452","id":"490014452P","lat":51.576976,"lon":0.183369,"name":"Western Road","parentId":"490G00014452","stationId":"490G00014452","stopLetter":"P","topMostParentId":"490G00014452"},{"icsId":"1011659","id":"490011659H","lat":51.580447,"lon":0.181919,"name":"Romford Market","parentId":"490G00011659","stationId":"490G00011659","stopLetter":"H","topMostParentId":"490G00011659"},{"icsId":"1004467","id":"490004467N1","lat":51.581603,"lon":0.176836,"name":"The Avenue","parentId":"490G00004467","stationId":"490G00004467","stopLetter":"F","topMostParentId":"490G00004467"},{"icsId":"1011658","id":"490010764N","lat":51.582895,"lon":0.175512,"name":"Romford Bus Garage","parentId":"490G00011658","stationId":"490G00011658","stopLetter":"NA","topMostParentId":"490G00011658"},{"icsId":"1011657","id":"490011657N1","lat":51.585301,"lon":0.172812,"name":"Cedar Road","parentId":"490G00011657","stationId":"490G00011657","stopLetter":"NB","topMostParentId":"490G00011657"},{"icsId":"1010782","id":"490010782N","lat":51.588236,"lon":0.171696,"name":"Parklands School","parentId":"490G00010782","stationId":"490G00010782","stopLetter":"NC","topMostParentId":"490G00010782"},{"icsId":"1007655","id":"490007655N","lat":51.589651,"lon":0.168096,"name":"Hainault Road","parentId":"490G00007655","stationId":"490G00007655","stopLetter":"ND","topMostParentId":"490G00007655"},{"icsId":"1008215","id":"490008215N","lat":51.593325,"lon":0.165427,"name":"Hillfoot Road","parentId":"490G00008215","stationId":"490G00008215","stopLetter":"EK","topMostParentId":"490G00008215"},{"icsId":"1000789","id":"490008420N","lat":51.597201,"lon":0.163922,"name":"Lowshoe Lane","parentId":"490G000141","stationId":"490G000141","stopLetter":"EL","topMostParentId":"490G000141"},{"icsId":"1005444","id":"490005438A","lat":51.598742,"lon":0.161324,"name":"Collier Row Library","parentId":"490G00005444","stationId":"490G00005444","stopLetter":"ET","topMostParentId":"490G00005444"},{"icsId":"1009801","id":"490009801W","lat":51.598287,"lon":0.159194,"name":"Melville Road","parentId":"490G00009801","stationId":"490G00009801","stopLetter":"WH","topMostParentId":"490G00009801"},{"icsId":"1014594","id":"490014594W","lat":51.597787,"lon":0.155084,"name":"White Hart Lane","parentId":"490G00014594","stationId":"490G00014594","stopLetter":"WQ","topMostParentId":"490G00014594"},{"icsId":"1007260","id":"490007260M","lat":51.597298,"lon":0.151798,"name":"Gobions Farm","parentId":"490G00007260","stationId":"490G00007260","stopLetter":"M","topMostParentId":"490G00007260"},{"icsId":"1003365","id":"490003365W","lat":51.596003,"lon":0.147376,"name":"Sungate Cottages","parentId":"490G00003365","stationId":"490G00003365","stopLetter":"->W","topMostParentId":"490G00003365"},{"icsId":"1009671","id":"490009671N","lat":51.594437,"lon":0.142061,"name":"The City Pavilion","parentId":"490G00009671","stationId":"490G00009671","stopLetter":"U","topMostParentId":"490G00009671"},{"icsId":"1014547","id":"490014547N","lat":51.602552,"lon":0.137432,"name":"Whalebone Lane North","parentId":"490G00014547","stationId":"490G00014547","stopLetter":"->N","topMostParentId":"490G00014547"},{"icsId":"1007649","id":"490007649E","lat":51.605211,"lon":0.133643,"name":"Hainault Forest Golf Club","parentId":"490G00007649","stationId":"490G00007649","stopLetter":"->N","topMostParentId":"490G00007649"},{"icsId":"1006931","id":"490006931N","lat":51.608083,"lon":0.129474,"name":"Forest Road","parentId":"490G00006931","stationId":"490G00006931","stopLetter":"->N","topMostParentId":"490G00006931"},{"icsId":"1006966","id":"490006966N","lat":51.610506,"lon":0.12628,"name":"Fowler Road","parentId":"490G00006966","stationId":"490G00006966","stopLetter":"->N","topMostParentId":"490G00006966"},{"icsId":"1007646","id":"490007646W","lat":51.613125,"lon":0.121188,"name":"Yellowpine Way","parentId":"490G00007646","stationId":"490G00007646","stopLetter":"->W","topMostParentId":"490G00007646"},{"icsId":"1011505","id":"490011505W1","lat":51.61005,"lon":0.115209,"name":"Regarder Road","parentId":"490G00011505","stationId":"490G00011505","stopLetter":"M","topMostParentId":"490G00011505"},{"icsId":"1007650","id":"490007650W","lat":51.608918,"lon":0.11312,"name":"The Forest Academy","parentId":"490G00007650","stationId":"490G00007650","stopLetter":"N","topMostParentId":"490G00007650"},{"icsId":"1013462","id":"490013454W","lat":51.607581,"lon":0.109462,"name":"Tunstall Avenue","parentId":"490G00013462","stationId":"490G00013462","stopLetter":"P","topMostParentId":"490G00013462"},{"icsId":"1012469","id":"490012469W","lat":51.607059,"lon":0.107012,"name":"Staggart Green","parentId":"490G00012469","stationId":"490G00012469","stopLetter":"Q","topMostParentId":"490G00012469"},{"icsId":"1007648","id":"490007648W","lat":51.60605,"lon":0.102575,"name":"Hainault Fire Station","parentId":"490G00007648","stationId":"490G00007648","stopLetter":"R","topMostParentId":"490G00007648"},{"icsId":"1003813","id":"490003813W","lat":51.605334,"lon":0.099393,"name":"Beech Grove","parentId":"490G00003813","stationId":"490G00003813","stopLetter":"S","topMostParentId":"490G00003813"},{"icsId":"1000095","id":"490000095A","lat":51.60419,"lon":0.094474,"name":"Hainault Station","parentId":"490G00095A","stationId":"490G00095A","stopLetter":"U","topMostParentId":"940GZZLUHLT","zone":"4"},{"icsId":"1013783","id":"490013783W","lat":51.602913,"lon":0.088927,"name":"Trelawney Road","parentId":"490G00013783","stationId":"490G00013783","stopLetter":"V","topMostParentId":"490G00013783"},{"icsId":"1013481","id":"490013481S","lat":51.600886,"lon":0.084531,"name":"New North Road","parentId":"490G00013481","stationId":"490G00013481","stopLetter":"W","topMostParentId":"490G00013481"},{"icsId":"1010189","id":"490010189S","lat":51.597868,"lon":0.084841,"name":"Neville Road","parentId":"490G00010189","stationId":"490G00010189","stopLetter":"X","topMostParentId":"490G00010189"},{"icsId":"1013704","id":"490013704S","lat":51.595779,"lon":0.084485,"name":"Tomswood Hill","parentId":"490G00013704","stationId":"490G00013704","stopLetter":"K","topMostParentId":"490G00013704"},{"icsId":"1007059","id":"490007059D","lat":51.592565,"lon":0.084179,"name":"Fullwell Cross","parentId":"490G00007059","stationId":"490G00007059","stopLetter":"D","topMostParentId":"490G00007059"},{"icsId":"1014316","id":"490014316G","lat":51.590941,"lon":0.082964,"name":"Waverley Gardens","parentId":"490G00014316","stationId":"490G00014316","stopLetter":"G","topMostParentId":"490G00014316"},{"icsId":"1000016","id":"490000016S","lat":51.587252,"lon":0.085105,"name":"Barkingside Station","parentId":"490G00016SB","stationId":"490G00016SB","stopLetter":"S","topMostParentId":"940GZZLUBKE","zone":"4"}]}]}