{"direction":"inbound","lineId":"248","lineName":"248","mode":"bus","stopPointSequences":[{"stopPoint":[{"icsId":"1010014","id":"490010014N","lat":51.561802,"lon":0.266989,"name":"Moor Lane","parentId":"490G00010014","stationId":"490G00010014","topMostParentId":"490G00010014"},{"icsId":"1008777","id":"490008777N","lat":51.565164,"lon":0.267026,"name":"Kings Gardens","parentId":"490G00008777","stationId":"490G00008777","stopLetter":"->N","topMostParentId":"490G00008777"},{"icsId":"1004309","id":"490004309N","lat":51.567376,"lon":0.267988,"name":"Briarleas Gardens","parentId":"490G00004309","stationId":"490G00004309","stopLetter":"->N","topMostParentId":"490G00004309"},{"icsId":"1013923","id":"490013923N","lat":51.570668,"lon":0.268902,"name":"Upminster Park Estate","parentId":"490G00013923","stationId":"490G00013923","topMostParentId":"490G00013923"},{"icsId":"1014322","id":"490014322S","lat":51.570946,"lon":0.270792,"name":"Lexington Way","parentId":"490G00014322","stationId":"490G00014322","topMostParentId":"490G00014322"},{"icsId":"1004529","id":"490004529S","lat":51.5685,"lon":0.270309,"name":"Brunswick Avenue","parentId":"490G00004529","stationId":"490G00004529","topMostParentId":"490G00004529"},{"icsId":"1013381","id":"490013381W","lat":51.568526,"lon":0.267107,"name":"Front Lane","parentId":"490G00013381","stationId":"490G00013381","stopLetter":"->W","topMostParentId":"490G00013381"},{"icsId":"1005829","id":"490005829W","lat":51.568787,"lon":0.26383,"name":"Crouch Valley","parentId":"490G00005829","stationId":"490G00005829","stopLetter":"->W","topMostParentId":"490G00005829"},{"icsId":"1009827","id":"490009827W","lat":51.56975,"lon":0.260544,"name":"Mersey Avenue","parentId":"490G00009827","stationId":"490G00009827","stopLetter":"->W","topMostParentId":"490G00009827"},{"icsId":"1012006","id":"490012006W","lat":51.570207,"lon":0.257363,"name":"Severn Drive","parentId":"490G00012006","stationId":"490G00012006","stopLetter":"->W","topMostParentId":"490G00012006"},{"icsId":"1003519","id":"490003519S","lat":51.569427,"lon":0.256776,"name":"River Drive","parentId":"490G00003519","stationId":"490G00003519","stopLetter":"->S","topMostParentId":"490G00003519"},{"icsId":"1013925","id":"490013925S","lat":51.566189,"lon":0.254928,"name":"Upminster Tithe Barn Museum","parentId":"490G00013925","stationId":"490G00013925","stopLetter":"->S","topMostParentId":"490G00013925"},{"icsId":"1013346","id":"490013346S","lat":51.564854,"lon":0.253751,"name":"The Fairway","parentId":"490G00013346","stationId":"490G00013346","stopLetter":"->S","topMostParentId":"490G00013346"},{"icsId":"1008487","id":"490008487S","lat":51.562907,"lon":0.25211,"name":"Ingrebourne Gardens","parentId":"490G00008487","stationId":"490G00008487","stopLetter":"V","topMostParentId":"490G00008487"},{"icsId":"1000242","id":"490000242U","lat":51.559383,"lon":0.250595,"name":"Upminster Station","parentId":"490G00242E","stationId":"910GUPMNSTR","stopLetter":"U","topMostParentId":"HUBUPM","zone":"6"},{"icsId":"1019449","id":"490015474C","lat":51.557662,"lon":0.24986,"name":"Upminster Stn   / St Lawrence Road","parentId":"490G000935","stationId":"490G000935","stopLetter":"C","topMostParentId":"HUBUPM"},{"icsId":"1012756","id":"490012756K","lat":51.556303,"lon":0.246605,"name":"St Laurence Church","parentId":"490G00012756","stationId":"490G00012756","stopLetter":"M","topMostParentId":"490G00012756"},{"icsId":"1013926","id":"490013926W","lat":51.557681,"lon":0.241811,"name":"Upminster Windmill","parentId":"490G00013926","stationId":"490G00013926","stopLetter":"N","topMostParentId":"490G00013926"},{"icsId":"1000243","id":"490000243A","lat":51.559054,"lon":0.235372,"name":"Upminster Bridge Station","parentId":"490G00243B","stationId":"490G00243B","stopLetter":"A","topMostParentId":"940GZZLUUPB","zone":"6"},{"icsId":"1007628","id":"490007628W","lat":51.560182,"lon":0.22905,"name":"Hacton Lane","parentId":"490G00007628","stationId":"490G00007628","stopLetter":"L","topMostParentId":"490G00007628"},{"icsId":"1012536","id":"490012536W","lat":51.560694,"lon":0.226204,"name":"St Andrew's Church","parentId":"490G00012536","stationId":"490G00012536","stopLetter":"->W","topMostParentId":"490G00012536"},{"icsId":"1015350","id":"490008347G","lat":51.56161,"lon":0.220579,"name":"Hornchurch Town Centre","parentId":"490G00015350","stationId":"490G00015350","stopLetter":"G","topMostParentId":"490G00015350"},{"icsId":"1004001","id":"490004001B","lat":51.562743,"lon":0.216305,"name":"Billet Lane","parentId":"490G00004001","stationId":"490G00004001","stopLetter":"B","topMostParentId":"490G00004001"},{"icsId":"1003049","id":"490003049W","lat":51.562803,"lon":0.211691,"name":"Abbs Cross Lane","parentId":"490G00003049","stationId":"490G00003049","stopLetter":"Y","topMostParentId":"490G00003049"},{"icsId":"1007851","id":"490007851W","lat":51.563303,"lon":0.208541,"name":"Harrow Lodge Park","parentId":"490G00007851","stationId":"490G00007851","stopLetter":"Z","topMostParentId":"490G00007851"},{"icsId":"1008448","id":"490008448W","lat":51.564688,"lon":0.201856,"name":"Hyland Way","parentId":"490G00008448","stationId":"490G00008448","stopLetter":"RE","topMostParentId":"490G00008448"},{"icsId":"1010785","id":"490010785W","lat":51.565051,"lon":0.194009,"name":"Park Lane","parentId":"490G00010785","stationId":"490G00010785","stopLetter":"RF","topMostParentId":"490G00010785"},{"icsId":"1011669","id":"490011669W","lat":51.565444,"lon":0.187391,"name":"Roneo Corner","parentId":"490G00011669","stationId":"490G00011669","stopLetter":"RT","topMostParentId":"490G00011669"},{"icsId":"1005450","id":"490005450N","lat":51.56804,"lon":0.186592,"name":"Clydesdale Road","parentId":"490G00005450","stationId":"490G00005450","stopLetter":"RX","topMostParentId":"490G00005450"},{"icsId":"1013483","id":"490013483N","lat":51.5708,"lon":0.185685,"name":"Brentwood Road","parentId":"490G00013483","stationId":"490G00013483","stopLetter":"J","topMostParentId":"490G00013483"},{"icsId":"1001243","id":"490015182X","lat":51.573768,"lon":0.183735,"name":"Romford Station","parentId":"490G01243W","stationId":"490G01243W","stopLetter":"X","topMostParentId":"910GROMFORD"},{"icsId":"1014452","id":"490014452E","lat":51.57738,"lon":0.184356,"name":"Western Road","parentId":"490G00014452","stationId":"490G00014452","stopLetter":"PP","topMostParentId":"490G00014452"},{"icsId":"1011659","id":"490011659L","lat":51.58037,"lon":0.182695,"name":"Romford Market","parentId":"490G00011659","stationId":"490G00011659","stopLetter":"L","topMostParentId":"490G00011659"}]}]}