{"direction":"inbound","lineId":"25","lineName":"25","mode":"bus","stopPointSequences":[{"stopPoint":[{"icsId":"1007657","id":"490007657V","lat":51.55932,"lon":0.076008,"name":"Hainault Street","parentId":"490G00007657","stationId":"490G00007657","stopLetter":"V","topMostParentId":"490G00007657"},{"icsId":"1008466","id":"490008466Q1","lat":51.557867,"lon":0.074311,"name":"Redbridge Central Library","parentId":"490G00008466","stationId":"490G00008466","stopLetter":"Q","topMostParentId":"490G00008466"},{"icsId":"1008465","id":"490008465L","lat":51.558379,"lon":0.070757,"name":"Ilford Broadway","parentId":"490G000604","stationId":"490G000604","stopLetter":"L","topMostParentId":"490G000604"},{"icsId":"1004985","id":"490004985Y","lat":51.55736,"lon":0.067854,"name":"Chapel Road","parentId":"490G00004985","stationId":"490G00004985","stopLetter":"Y","topMostParentId":"490G00004985"},{"icsId":"1006059","id":"490006059W","lat":51.555277,"lon":0.062033,"name":"Dersingham Avenue","parentId":"490G00006059","stationId":"490G00006059","stopLetter":"A","topMostParentId":"490G00006059"},{"icsId":"1009219","id":"490009219W","lat":51.55447,"lon":0.059371,"name":"Little Ilford Lane","parentId":"490G00009219","stationId":"490G00009219","stopLetter":"B","topMostParentId":"490G00009219"},{"icsId":"1009570","id":"490009570W","lat":51.55302,"lon":0.054343,"name":"Rabbits Road","parentId":"490G00009570","stationId":"490G00009570","stopLetter":"C","topMostParentId":"490G00009570"},{"icsId":"1006856","id":"490006856W","lat":51.551966,"lon":0.051367,"name":"First Avenue","parentId":"490G00006856","stationId":"490G00006856","stopLetter":"D","topMostParentId":"490G00006856"},{"icsId":"1008189","id":"490008189W","lat":51.551123,"lon":0.048675,"name":"High Street North","parentId":"490G000596","stationId":"490G000596","stopLetter":"F","topMostParentId":"490G000596"},{"icsId":"1001341","id":"490001341G","lat":51.549178,"lon":0.043655,"name":"Woodgrange Park Station","parentId":"490G01341G","stationId":"490G01341G","stopLetter":"G","topMostParentId":"910GWDGRNPK"},{"icsId":"1012131","id":"490012131W","lat":51.548162,"lon":0.039513,"name":"Shrewsbury Road","parentId":"490G00012131","stationId":"490G00012131","stopLetter":"->W","topMostParentId":"490G00012131"},{"icsId":"1008603","id":"490008603W","lat":51.54741,"lon":0.035167,"name":"Katherine Road","parentId":"490G00008603","stationId":"490G00008603","stopLetter":"->W","topMostParentId":"490G00008603"},{"icsId":"1007497","id":"490007497W","lat":51.546811,"lon":0.030294,"name":"Green Street","parentId":"490G00007497","stationId":"490G00007497","stopLetter":"Q","topMostParentId":"490G00007497"},{"icsId":"1006919","id":"490006917E","lat":51.546529,"lon":0.026849,"name":"Woodgrange Road","parentId":"490G00006919","stationId":"490G00006919","stopLetter":"E","topMostParentId":"490G00006919"},{"icsId":"1012414","id":"490012414W","lat":51.546148,"lon":0.022895,"name":"Sprowston Road","parentId":"490G00012414","stationId":"490G00012414","stopLetter":"R","topMostParentId":"490G00012414"},{"icsId":"1006936","id":"490006936W","lat":51.545409,"lon":0.019328,"name":"Margery Park Road","parentId":"490G00006936","stationId":"490G00006936","stopLetter":"S","topMostParentId":"490G00006936"},{"icsId":"1003468","id":"490003468W","lat":51.543958,"lon":0.013769,"name":"Atherton Leisure Centre","parentId":"490G00003468","stationId":"490G00003468","stopLetter":"->W","topMostParentId":"490G00003468"},{"icsId":"1014269","id":"490014269W","lat":51.542873,"lon":0.0099,"name":"Water Lane / University Of East London","parentId":"490G00014269","stationId":"490G00014269","stopLetter":"MS","topMostParentId":"490G00014269"},{"icsId":"1012906","id":"490015114E","lat":51.541262,"lon":0.002618,"name":"Stratford Centre","parentId":"490G00012906","stationId":"490G00012906","stopLetter":"E","topMostParentId":"490G00012906"},{"icsId":"1012904","id":"490012904T","lat":51.541323,"lon":-0.002556,"name":"Stratford Bus Station","parentId":"490G000773","stationId":"490G000773","topMostParentId":"HUBSRA"},{"icsId":"1004815","id":"490004815S","lat":51.53734,"lon":-0.002615,"name":"Stratford High St / Carpenters Road","parentId":"490G00004815","stationId":"490G00004815","stopLetter":"J","topMostParentId":"490G00004815"},{"icsId":"1014249","id":"490014249S","lat":51.535856,"lon":-0.00467,"name":"Warton Road","parentId":"490G00014249","stationId":"490G00014249","stopLetter":"K","topMostParentId":"490G00014249"},{"icsId":"1003025","id":"490003025W","lat":51.533787,"lon":-0.00727,"name":"Abbey Lane","parentId":"490G00003025","stationId":"490G00003025","stopLetter":"L","topMostParentId":"490G00003025"},{"icsId":"1004215","id":"490004215P","lat":51.530316,"lon":-0.012078,"name":"Bow Flyover","parentId":"490G000422","stationId":"490G000422","stopLetter":"P","topMostParentId":"490G000422"},{"icsId":"1004206","id":"490004206J","lat":51.528416,"lon":-0.017221,"name":"Bow Church","parentId":"490G000421","stationId":"490G000421","stopLetter":"J","topMostParentId":"490G000421"},{"icsId":"1002019","id":"490002019B","lat":51.527949,"lon":-0.020471,"name":"Bow Church Station","parentId":"490G02019A","stationId":"490G02019A","stopLetter":"B","topMostParentId":"940GZZDLBOW","zone":"2"},{"icsId":"1000029","id":"490000029Z","lat":51.527353,"lon":-0.024029,"name":"Bow Road Station","parentId":"490G00029Q","stationId":"490G00029Q","stopLetter":"Z","topMostParentId":"940GZZLUBWR","zone":"2"},{"icsId":"1012648","id":"490012648K","lat":51.526061,"lon":-0.029563,"name":"Coborn Road","parentId":"490G00012648","stationId":"490G00012648","stopLetter":"K","topMostParentId":"490G00012648"},{"icsId":"1000146","id":"490000146C","lat":51.525365,"lon":-0.033125,"name":"Mile End Station","parentId":"490G00146C","stationId":"490G00146C","stopLetter":"C","topMostParentId":"940GZZLUMED","zone":"2"},{"icsId":"1007341","id":"490007341W","lat":51.524328,"lon":-0.036687,"name":"Regents Canal","parentId":"490G00007341","stationId":"490G00007341","stopLetter":"F","topMostParentId":"490G00007341"},{"icsId":"1011315","id":"490011315W","lat":51.523165,"lon":-0.039202,"name":"Queen Mary / University Of London","parentId":"490G00011315","stationId":"490G00011315","stopLetter":"E","topMostParentId":"490G00011315"},{"icsId":"1020188","id":"490010513W","lat":51.522254,"lon":-0.042269,"name":"Ocean Estate","parentId":"490G00020188","stationId":"490G00020188","stopLetter":"F","topMostParentId":"490G00020188"},{"icsId":"1000220","id":"490000220W2","lat":51.521706,"lon":-0.046631,"name":"Stepney Green Station","parentId":"490G00220E1","stationId":"490G00220E1","stopLetter":"G","topMostParentId":"940GZZLUSGN","zone":"2"},{"icsId":"1015508","id":"490015508W1","lat":51.520864,"lon":-0.050617,"name":"Stepney Green","parentId":"490G00015508","stationId":"490G00015508","stopLetter":"H","topMostParentId":"490G00015508"},{"icsId":"1004147","id":"490004147W","lat":51.520366,"lon":-0.053132,"name":"Booth Memorial","parentId":"490G00004147","stationId":"490G00004147","stopLetter":"S","topMostParentId":"490G00004147"},{"icsId":"1012153","id":"490012153F","lat":51.519945,"lon":-0.055369,"name":"Sidney Street","parentId":"490G00012153","stationId":"490G00012153","stopLetter":"F","topMostParentId":"490G00012153"},{"icsId":"1013541","id":"490013541A","lat":51.518923,"lon":-0.060429,"name":"Whitechapel Stn  / Royal London Hosp","parentId":"490G000793","stationId":"490G000793","stopLetter":"A","topMostParentId":"490G000793"},{"icsId":"1010258","id":"490010258K","lat":51.517848,"lon":-0.065044,"name":"The East London Mosque","parentId":"490G00010258","stationId":"490G00010258","stopLetter":"K","topMostParentId":"490G00010258"},{"icsId":"1006827","id":"490006827W","lat":51.51694,"lon":-0.067777,"name":"Altab Ali Park","parentId":"490G000514","stationId":"490G000514","stopLetter":"K","topMostParentId":"490G000514"},{"icsId":"1000004","id":"490000004W","lat":51.514655,"lon":-0.073207,"name":"Aldgate East Station","parentId":"490G00004G","stationId":"490G00004G","stopLetter":"J","topMostParentId":"940GZZLUADE","zone":"1"},{"icsId":"1000003","id":"490000003R","lat":51.514081,"lon":-0.074932,"name":"Aldgate Station","parentId":"490G00003N","stationId":"490G00003N","stopLetter":"R","topMostParentId":"940GZZLUALD","zone":"1"},{"icsId":"1012755","id":"490012755W","lat":51.513272,"lon":-0.079376,"name":"St Katharine Cree","parentId":"490G000767","stationId":"490G000767","stopLetter":"W","topMostParentId":"490G000767"},{"icsId":"1012783","id":"490012783W","lat":51.513426,"lon":-0.082699,"name":"St Mary Axe","parentId":"490G00012783","stationId":"490G00012783","stopLetter":"Z","topMostParentId":"490G00012783"},{"icsId":"1007606","id":"490000013E","lat":51.513274,"lon":-0.087749,"name":"Bank Station  / Cornhill","parentId":"490G000556","stationId":"490G000556","stopLetter":"E","topMostParentId":"HUBBAN"},{"icsId":"1007596","id":"490007596L","lat":51.513593,"lon":-0.091296,"name":"Poultry / Bank Station","parentId":"490G00007596","stationId":"490G00007596","stopLetter":"L","topMostParentId":"490G00007596"},{"icsId":"1015124","id":"490015124Z","lat":51.514193,"lon":-0.095047,"name":"Bread Street","parentId":"490G000861","stationId":"490G000861","stopLetter":"SN","topMostParentId":"490G000861"},{"icsId":"1000225","id":"490000225T","lat":51.515257,"lon":-0.098505,"name":"St Paul's Station","parentId":"490G00225S","stationId":"490G00225S","stopLetter":"SQ","topMostParentId":"940GZZLUSPU","zone":"1"},{"icsId":"1001067","id":"490001067N","lat":51.51642,"lon":-0.102578,"name":"City Thameslink Station","parentId":"490G01067Q","stationId":"490G01067Q","topMostParentId":"910GCTMSLNK"}]}]}