{"direction":"inbound","lineId":"252","lineName":"252","mode":"bus","stopPointSequences":[{"stopPoint":[{"icsId":"1015350","id":"490015350F","lat":51.561641,"lon":0.22133,"name":"Hornchurch Town Centre","parentId":"490G00015350","stationId":"490G00015350","stopLetter":"F","topMostParentId":"490G00015350"},{"icsId":"1013249","id":"490013249J","lat":51.560026,"lon":0.220646,"name":"The Avenue","parentId":"490G00013249","stationId":"490G00013249","stopLetter":"J","topMostParentId":"490G00013249"},{"icsId":"1006068","id":"490006068K","lat":51.55761,"lon":0.220499,"name":"Devonshire Road","parentId":"490G00006068","stationId":"490G00006068","stopLetter":"K","topMostParentId":"490G00006068"},{"icsId":"1000115","id":"490000115M","lat":51.554694,"lon":0.21965,"name":"Hornchurch Station","parentId":"490G00115L","stationId":"490G00115L","stopLetter":"M","topMostParentId":"940GZZLUHCH","zone":"6"},{"icsId":"1014015","id":"490014015S","lat":51.550295,"lon":0.218325,"name":"Vaughan Avenue","parentId":"490G00014015","stationId":"490G00014015","stopLetter":"A","topMostParentId":"490G00014015"},{"icsId":"1012695","id":"490012695S","lat":51.547233,"lon":0.216662,"name":"St George's Hospital","parentId":"490G00012695","stationId":"490G00012695","stopLetter":"B","topMostParentId":"490G00012695"},{"icsId":"1008346","id":"490008346S","lat":51.543874,"lon":0.214509,"name":"Hornchurch Country Park","parentId":"490G00008346","stationId":"490G00008346","stopLetter":"A","topMostParentId":"490G00008346"},{"icsId":"1003129","id":"490003129S","lat":51.54344,"lon":0.20892,"name":"Sarre Avenue","parentId":"490G00003129","stationId":"490G00003129","stopLetter":"B","topMostParentId":"490G00003129"},{"icsId":"1007325","id":"490007325S","lat":51.541127,"lon":0.206155,"name":"Gosport Drive","parentId":"490G00007325","stationId":"490G00007325","stopLetter":"C","topMostParentId":"490G00007325"},{"icsId":"1006156","id":"490006156W","lat":51.538755,"lon":0.201728,"name":"Dowding Way","parentId":"490G00006156","stationId":"490G00006156","stopLetter":"D","topMostParentId":"490G00006156"},{"icsId":"1013382","id":"490013382N","lat":51.540259,"lon":0.202104,"name":"Heron Flight Avenue","parentId":"490G00013382","stationId":"490G00013382","stopLetter":"E","topMostParentId":"490G00013382"},{"icsId":"1014870","id":"490014870N","lat":51.543875,"lon":0.202495,"name":"Wood Lane","parentId":"490G00014870","stationId":"490G00014870","stopLetter":"F","topMostParentId":"490G00014870"},{"icsId":"1004675","id":"490004675W","lat":51.545893,"lon":0.201828,"name":"Calbourne Avenue","parentId":"490G00004675","stationId":"490G00004675","stopLetter":"G","topMostParentId":"490G00004675"},{"icsId":"1003354","id":"490003354N","lat":51.547541,"lon":0.200263,"name":"Arbour Way","parentId":"490G00003354","stationId":"490G00003354","stopLetter":"H","topMostParentId":"490G00003354"},{"icsId":"1000074","id":"490000074B","lat":51.550289,"lon":0.199054,"name":"Elm Park Station","parentId":"490G00074A","stationId":"490G00074A","stopLetter":"C","topMostParentId":"940GZZLUEPK","zone":"6"},{"icsId":"1019820","id":"490013471C","lat":51.550788,"lon":0.198328,"name":"Woburn Avenue","parentId":"490G00019820","stationId":"490G00019820","stopLetter":"E","topMostParentId":"490G00019820"},{"icsId":"1004781","id":"490004781W","lat":51.551081,"lon":0.191808,"name":"Carfax Road","parentId":"490G00004781","stationId":"490G00004781","stopLetter":"F","topMostParentId":"490G00004781"},{"icsId":"1007852","id":"490007852N","lat":51.5525,"lon":0.190938,"name":"Harrow Lodge Park","parentId":"490G00007852","stationId":"490G00007852","stopLetter":"RP","topMostParentId":"490G00007852"},{"icsId":"1008892","id":"490008892N","lat":51.556665,"lon":0.188946,"name":"Laburnum Avenue","parentId":"490G00008892","stationId":"490G00008892","stopLetter":"RQ","topMostParentId":"490G00008892"},{"icsId":"1005142","id":"490005142N","lat":51.559265,"lon":0.187902,"name":"Chestnut Avenue","parentId":"490G00005142","stationId":"490G00005142","stopLetter":"RR","topMostParentId":"490G00005142"},{"icsId":"1007302","id":"490007302N","lat":51.562714,"lon":0.188659,"name":"Gordon Avenue","parentId":"490G00007302","stationId":"490G00007302","stopLetter":"RS","topMostParentId":"490G00007302"},{"icsId":"1011669","id":"490011669W","lat":51.565444,"lon":0.187391,"name":"Roneo Corner","parentId":"490G00011669","stationId":"490G00011669","stopLetter":"RT","topMostParentId":"490G00011669"},{"icsId":"1005450","id":"490005450N","lat":51.56804,"lon":0.186592,"name":"Clydesdale Road","parentId":"490G00005450","stationId":"490G00005450","stopLetter":"RX","topMostParentId":"490G00005450"},{"icsId":"1013483","id":"490013483N","lat":51.5708,"lon":0.185685,"name":"Brentwood Road","parentId":"490G00013483","stationId":"490G00013483","stopLetter":"J","topMostParentId":"490G00013483"},{"icsId":"1001243","id":"490015182X","lat":51.573768,"lon":0.183735,"name":"Romford Station","parentId":"490G01243W","stationId":"490G01243W","stopLetter":"X","topMostParentId":"910GROMFORD"},{"icsId":"1014452","id":"490014452P","lat":51.576976,"lon":0.183369,"name":"Western Road","parentId":"490G00014452","stationId":"490G00014452","stopLetter":"P","topMostParentId":"490G00014452"},{"icsId":"1011659","id":"490011659H","lat":51.580447,"lon":0.181919,"name":"Romford Market","parentId":"490G00011659","stationId":"490G00011659","stopLetter":"H","topMostParentId":"490G00011659"},{"icsId":"1010407","id":"490010407D","lat":51.579389,"lon":0.177885,"name":"North Street","parentId":"490G00010407","stationId":"490G00010407","stopLetter":"D","topMostParentId":"490G00010407"},{"icsId":"1009721","id":"490009721A","lat":51.577069,"lon":0.176922,"name":"Mawney Road","parentId":"490G00009721","stationId":"490G00009721","stopLetter":"A","topMostParentId":"490G00009721"},{"icsId":"1010592","id":"490010592W","lat":51.578362,"lon":0.17505,"name":"Olive Street","parentId":"490G00010592","stationId":"490G00010592","stopLetter":"K","topMostParentId":"490G00010592"},{"icsId":"1005096","id":"490005096W","lat":51.578831,"lon":0.171089,"name":"Como Street","parentId":"490G00005096","stationId":"490G00005096","stopLetter":"P","topMostParentId":"490G00005096"},{"icsId":"1010507","id":"490010507N","lat":51.580214,"lon":0.167301,"name":"Oak Street","parentId":"490G00010507","stationId":"490G00010507","stopLetter":"R","topMostParentId":"490G00010507"},{"icsId":"1009720","id":"490006340N","lat":51.582633,"lon":0.164399,"name":"Eastern Avenue","parentId":"490G00009720","stationId":"490G00009720","stopLetter":"S","topMostParentId":"490G00009720"},{"icsId":"1013045","id":"490013045N","lat":51.585075,"lon":0.163173,"name":"Susan Close","parentId":"490G00013045","stationId":"490G00013045","stopLetter":"T","topMostParentId":"490G00013045"},{"icsId":"1004010","id":"490004010N","lat":51.5872,"lon":0.162046,"name":"Birch Road","parentId":"490G00004010","stationId":"490G00004010","stopLetter":"U","topMostParentId":"490G00004010"},{"icsId":"1010936","id":"490010936N","lat":51.589143,"lon":0.161056,"name":"Percy Road","parentId":"490G00010936","stationId":"490G00010936","stopLetter":"V","topMostParentId":"490G00010936"},{"icsId":"1005814","id":"490005814W","lat":51.590506,"lon":0.158796,"name":"Cross Road","parentId":"490G00005814","stationId":"490G00005814","stopLetter":"W","topMostParentId":"490G00005814"},{"icsId":"1013995","id":"490013995N","lat":51.593068,"lon":0.156391,"name":"Valiant Close","parentId":"490G00013995","stationId":"490G00013995","stopLetter":"WM","topMostParentId":"490G00013995"},{"icsId":"1008411","id":"490008411N","lat":51.59459,"lon":0.15577,"name":"Howe Close","parentId":"490G00008411","stationId":"490G00008411","stopLetter":"WN","topMostParentId":"490G00008411"},{"icsId":"1014595","id":"490014594N","lat":51.597322,"lon":0.1559,"name":"Collier Row Road","parentId":"490G00014595","stationId":"490G00014595","stopLetter":"WP","topMostParentId":"490G00014595"},{"icsId":"1014594","id":"490014594E","lat":51.598062,"lon":0.156743,"name":"White Hart Lane","parentId":"490G00014594","stationId":"490G00014594","stopLetter":"WE","topMostParentId":"490G00014594"},{"icsId":"1009801","id":"490009801C","lat":51.598519,"lon":0.159754,"name":"Melville Road","parentId":"490G00009801","stationId":"490G00009801","stopLetter":"Z1","topMostParentId":"490G00009801"},{"icsId":"1005499","id":"490005499E","lat":51.598938,"lon":0.161882,"name":"Collier Row / Clockhouse Lane","parentId":"490G00005499","stationId":"490G00005499","stopLetter":"WF","topMostParentId":"490G00005499"}]}]}