{"direction":"inbound","lineId":"260","lineName":"260","mode":"bus","stopPointSequences":[{"stopPoint":[{"icsId":"1000087","id":"490000087GF","lat":51.571801,"lon":-0.194101,"name":"Golders Green Station","parentId":"490G00087GB","stationId":"490G00087GB","stopLetter":"GF","topMostParentId":"940GZZLUGGN","zone":"3"},{"icsId":"1007267","id":"490007267GL","lat":51.570964,"lon":-0.195202,"name":"Golders Green / Finchley Road","parentId":"490G00007267","stationId":"490G00007267","stopLetter":"GL","topMostParentId":"490G00007267"},{"icsId":"1006262","id":"490006262S","lat":51.56799,"lon":-0.194814,"name":"Dunstan Road","parentId":"490G00006262","stationId":"490G00006262","stopLetter":"A","topMostParentId":"490G00006262"},{"icsId":"1009232","id":"490009232S","lat":51.565498,"lon":-0.19588,"name":"Llanvanor Road","parentId":"490G00009232","stationId":"490G00009232","stopLetter":"B","topMostParentId":"490G00009232"},{"icsId":"1005160","id":"490005160S1","lat":51.563839,"lon":-0.196811,"name":"Childs Hill / Cricklewood Lane","parentId":"490G00005160","stationId":"490G00005160","stopLetter":"C","topMostParentId":"490G00005160"},{"icsId":"1005161","id":"490005161W1","lat":51.562981,"lon":-0.198865,"name":"Childs Hill / Finchley Road","parentId":"490G00005161","stationId":"490G00005161","stopLetter":"H","topMostParentId":"490G00005161"},{"icsId":"1009463","id":"490009463W","lat":51.561924,"lon":-0.202095,"name":"Lyndale Avenue","parentId":"490G00009463","stationId":"490G00009463","stopLetter":"J","topMostParentId":"490G00009463"},{"icsId":"1008064","id":"490008058W","lat":51.560847,"lon":-0.205182,"name":"Farm Avenue","parentId":"490G00008064","stationId":"490G00008064","topMostParentId":"490G00008064"},{"icsId":"1005775","id":"490005775W","lat":51.560273,"lon":-0.207628,"name":"Dersingham Road","parentId":"490G00005775","stationId":"490G00005775","stopLetter":"CN","topMostParentId":"490G00005775"},{"icsId":"1005346","id":"490005346Z","lat":51.559045,"lon":-0.210821,"name":"Claremont Road","parentId":"490G000465","stationId":"490G000465","stopLetter":"CN","topMostParentId":"490G000465"},{"icsId":"1005773","id":"490005773D","lat":51.557082,"lon":-0.214779,"name":"Cricklewood Broadway","parentId":"490G000473","stationId":"490G000473","stopLetter":"CW","topMostParentId":"490G000473"},{"icsId":"1005771","id":"490005771E","lat":51.555376,"lon":-0.216129,"name":"Sheldon Road","parentId":"490G000472","stationId":"490G000472","stopLetter":"CX","topMostParentId":"490G000472"},{"icsId":"1003338","id":"490003338S","lat":51.553376,"lon":-0.217679,"name":"Anson Road","parentId":"490G00003338","stationId":"490G00003338","stopLetter":"CZ","topMostParentId":"490G00003338"},{"icsId":"1000270","id":"490000270A","lat":51.549109,"lon":-0.220889,"name":"Willesden Green Station","parentId":"490G00270W","stationId":"490G00270W","stopLetter":"A","topMostParentId":"940GZZLUWIG","zone":"2+3"},{"icsId":"1014706","id":"490014693D","lat":51.547759,"lon":-0.223783,"name":"Willesden Lane","parentId":"490G00014706","stationId":"490G00014706","stopLetter":"C","topMostParentId":"490G00014706"},{"icsId":"1014691","id":"490014691W1","lat":51.54723,"lon":-0.228058,"name":"Willesden Green Library","parentId":"490G00014691","stationId":"490G00014691","stopLetter":"K","topMostParentId":"490G00014691"},{"icsId":"1014088","id":"490014088W","lat":51.5473,"lon":-0.233926,"name":"Villiers Road","parentId":"490G00014088","stationId":"490G00014088","stopLetter":"T","topMostParentId":"490G00014088"},{"icsId":"1014687","id":"490014687W","lat":51.548313,"lon":-0.237896,"name":"Willesden Bus Garage","parentId":"490G00014687","stationId":"490G00014687","stopLetter":"WO","topMostParentId":"490G00014687"},{"icsId":"1014701","id":"490014687W1","lat":51.548605,"lon":-0.239947,"name":"Pound Lane","parentId":"490G00014701","stationId":"490G00014701","stopLetter":"WU","topMostParentId":"490G00014701"},{"icsId":"1003711","id":"490003711W","lat":51.549066,"lon":-0.243723,"name":"Beaconsfield Road","parentId":"490G00003711","stationId":"490G00003711","stopLetter":"WS","topMostParentId":"490G00003711"},{"icsId":"1014694","id":"490014694W","lat":51.549151,"lon":-0.246402,"name":"Willesden Magistrates Court","parentId":"490G00014694","stationId":"490G00014694","stopLetter":"->W","topMostParentId":"490G00014694"},{"icsId":"1008462","id":"490008462S","lat":51.548389,"lon":-0.247744,"name":"Ilex Road","parentId":"490G00008462","stationId":"490G00008462","topMostParentId":"490G00008462"},{"icsId":"1011732","id":"490011732S","lat":51.547446,"lon":-0.249641,"name":"Roundwood Road","parentId":"490G00011732","stationId":"490G00011732","stopLetter":"->S","topMostParentId":"490G00011732"},{"icsId":"1005302","id":"490005302S","lat":51.545493,"lon":-0.251965,"name":"Curzon Crescent","parentId":"490G00005302","stationId":"490G00005302","stopLetter":"B","topMostParentId":"490G00005302"},{"icsId":"1005255","id":"490005255S","lat":51.542767,"lon":-0.254233,"name":"Dixon Way","parentId":"490G00005255","stationId":"490G00005255","stopLetter":"C","topMostParentId":"490G00005255"},{"icsId":"1007804","id":"490007804S","lat":51.541289,"lon":-0.254073,"name":"Harlesden Police Station","parentId":"490G00007804","stationId":"490G00007804","stopLetter":"D","topMostParentId":"490G00007804"},{"icsId":"1012803","id":"490012803E","lat":51.539188,"lon":-0.251255,"name":"St Mary's Road","parentId":"490G00012803","stationId":"490G00012803","stopLetter":"E","topMostParentId":"490G00012803"},{"icsId":"1009571","id":"490009571A","lat":51.537135,"lon":-0.246273,"name":"Tavistock Road","parentId":"490G00009571","stationId":"490G00009571","stopLetter":"A","topMostParentId":"490G00009571"},{"icsId":"1014690","id":"490014690S","lat":51.53569,"lon":-0.249457,"name":"Willesden County Court","parentId":"490G00014690","stationId":"490G00014690","stopLetter":"S","topMostParentId":"490G00014690"},{"icsId":"1006717","id":"490006717W","lat":51.536539,"lon":-0.253303,"name":"Fairlight Avenue","parentId":"490G00006717","stationId":"490G00006717","stopLetter":"HF","topMostParentId":"490G00006717"},{"icsId":"1000100","id":"490000100S","lat":51.53627,"lon":-0.256991,"name":"Harlesden Station","parentId":"490G00100N","stationId":"490G00100N","stopLetter":"HA","topMostParentId":"HUBHDN","zone":"3"},{"icsId":"1014319","id":"490014319S","lat":51.534873,"lon":-0.258616,"name":"Waxlow Road","parentId":"490G00014319","stationId":"490G00014319","stopLetter":"PA","topMostParentId":"490G00014319"},{"icsId":"1003652","id":"490003652S","lat":51.532516,"lon":-0.263348,"name":"Barretts Green Road","parentId":"490G00003652","stationId":"490G00003652","stopLetter":"W","topMostParentId":"490G00003652"},{"icsId":"1004925","id":"490004925C","lat":51.530666,"lon":-0.268421,"name":"Central Middlesex Hospital","parentId":"490G00004925","stationId":"490G00004925","stopLetter":"C","topMostParentId":"490G00004925"},{"icsId":"1003078","id":"490003078S","lat":51.52879,"lon":-0.268031,"name":"Acton Lane","parentId":"490G00003078","stationId":"490G00003078","stopLetter":"D","topMostParentId":"490G00003078"},{"icsId":"1010824","id":"490010824S","lat":51.52644,"lon":-0.266607,"name":"Gorst Road","parentId":"490G00010824","stationId":"490G00010824","stopLetter":"E","topMostParentId":"490G00010824"},{"icsId":"1007188","id":"490007188T","lat":51.522735,"lon":-0.263547,"name":"Gypsy Corner","parentId":"490G00007188","stationId":"490G00007188","stopLetter":"T","topMostParentId":"490G00007188"},{"icsId":"1010825","id":"490010825U","lat":51.522893,"lon":-0.262085,"name":"Chase Road","parentId":"490G00010825","stationId":"490G00010825","stopLetter":"U","topMostParentId":"490G00010825"},{"icsId":"1000157","id":"490000157V","lat":51.522869,"lon":-0.259261,"name":"North Acton Station","parentId":"490G00157V","stationId":"490G00157V","stopLetter":"Z","topMostParentId":"940GZZLUNAN","zone":"2+3"},{"icsId":"1015032","id":"490014130C","lat":51.521201,"lon":-0.260161,"name":"Wales Farm Road","parentId":"490G000847","stationId":"490G000847","stopLetter":"C","topMostParentId":"490G000847"},{"icsId":"1007017","id":"490007017E","lat":51.517553,"lon":-0.260991,"name":"Friary Road","parentId":"490G000524","stationId":"490G000524","stopLetter":"E","topMostParentId":"490G000524"},{"icsId":"1004789","id":"490004789E","lat":51.515253,"lon":-0.256842,"name":"Carlisle Avenue","parentId":"490G000441","stationId":"490G000441","topMostParentId":"490G000441"},{"icsId":"1014446","id":"490014446N","lat":51.514044,"lon":-0.251166,"name":"Western Avenue / Savoy Circus","parentId":"490G00014446","stationId":"490G00014446","stopLetter":"Y","topMostParentId":"490G00014446"},{"icsId":"1011944","id":"490011937J","lat":51.513401,"lon":-0.248453,"name":"East Acton Lane / Old Oak Road","parentId":"490G00011944","stationId":"490G00011944","stopLetter":"J","topMostParentId":"490G00011944"},{"icsId":"1015227","id":"490015227S","lat":51.51147,"lon":-0.246812,"name":"Hemlock Road","parentId":"490G00015227","stationId":"490G00015227","stopLetter":"W","topMostParentId":"490G00015227"},{"icsId":"1012678","id":"490012678S","lat":51.509659,"lon":-0.24593,"name":"Steventon Road","parentId":"490G00012678","stationId":"490G00012678","stopLetter":"OA","topMostParentId":"490G00012678"},{"icsId":"1018989","id":"490013972S","lat":51.507337,"lon":-0.245241,"name":"Uxbridge Road","parentId":"490G00018989","stationId":"490G00018989","stopLetter":"OB","topMostParentId":"490G00018989"},{"icsId":"1003746","id":"490003746E","lat":51.506742,"lon":-0.241532,"name":"Wormholt Road","parentId":"490G00003746","stationId":"490G00003746","stopLetter":"LA","topMostParentId":"490G00003746"},{"icsId":"1003110","id":"490003110E","lat":51.506499,"lon":-0.237896,"name":"Adelaide Grove","parentId":"490G00003110","stationId":"490G00003110","stopLetter":"LB","topMostParentId":"490G00003110"},{"icsId":"1004111","id":"490004111E2","lat":51.506543,"lon":-0.233672,"name":"Bloemfontein Road","parentId":"490G00004111","stationId":"490G00004111","stopLetter":"LC","topMostParentId":"490G00004111"},{"icsId":"1006065","id":"490009257E","lat":51.506334,"lon":-0.231101,"name":"Loftus Road","parentId":"490G00006065","stationId":"490G00006065","stopLetter":"LD","topMostParentId":"490G00006065"},{"icsId":"1012066","id":"490012066B","lat":51.505553,"lon":-0.226462,"name":"Shepherd's Bush Market Station","parentId":"490G000741","stationId":"490G000741","stopLetter":"R","topMostParentId":"490G000741"},{"icsId":"1000203","id":"490000203B","lat":51.505409,"lon":-0.218154,"name":"Shepherd's Bush Station","parentId":"490G00203A","stationId":"490G00203A","stopLetter":"B","topMostParentId":"HUBSPB","zone":"2"},{"icsId":"1003375","id":"490003375AP","lat":51.508808,"lon":-0.224059,"name":"White City Bus Station","parentId":"490G00003375","stationId":"490G00003375","stopLetter":"WG","topMostParentId":"490G00003375"}]}]}