{"direction":"inbound","lineId":"264","lineName":"264","mode":"bus","stopPointSequences":[{"stopPoint":[{"icsId":"1012696","id":"490012696E","lat":51.424658,"lon":-0.176116,"name":"St George's Hospital","parentId":"490G00012696","stationId":"490G00012696","stopLetter":"HM","topMostParentId":"490G00012696"},{"icsId":"1010468","id":"490010468H8","lat":51.425691,"lon":-0.170278,"name":"Nutwell Street","parentId":"490G00010468","stationId":"490G00010468","stopLetter":"HN","topMostParentId":"490G00010468"},{"icsId":"1000234","id":"490015513L","lat":51.427385,"lon":-0.168815,"name":"Tooting Broadway Station","parentId":"490G00234G","stationId":"490G00234G","stopLetter":"L","topMostParentId":"940GZZLUTBY","zone":"3"},{"icsId":"1003995","id":"490000234E","lat":51.426715,"lon":-0.166209,"name":"Mitcham Road / Tooting Broadway Stn","parentId":"490G000417","stationId":"490G000417","stopLetter":"E","topMostParentId":"490G000417"},{"icsId":"1013709","id":"490013709R","lat":51.425418,"lon":-0.164377,"name":"Tooting / The Mitre","parentId":"490G00013709","stationId":"490G00013709","stopLetter":"TJ","topMostParentId":"490G00013709"},{"icsId":"1003295","id":"490003295U","lat":51.423671,"lon":-0.161887,"name":"Amen Corner","parentId":"490G00003295","stationId":"490G00003295","stopLetter":"TL","topMostParentId":"490G00003295"},{"icsId":"1001296","id":"490001296S","lat":51.420482,"lon":-0.160993,"name":"Tooting Station","parentId":"490G01296S","stationId":"490G01296S","stopLetter":"TT","topMostParentId":"910GTOOTING"},{"icsId":"1007316","id":"490007316S","lat":51.417285,"lon":-0.161826,"name":"Gorringe Park Avenue","parentId":"490G00007316","stationId":"490G00007316","stopLetter":"TU","topMostParentId":"490G00007316"},{"icsId":"1009286","id":"490009286S","lat":51.415188,"lon":-0.16168,"name":"London Road / Figge's Marsh","parentId":"490G00009286","stationId":"490G00009286","stopLetter":"M","topMostParentId":"490G00009286"},{"icsId":"1013565","id":"490013565S2","lat":51.411883,"lon":-0.16141,"name":"Eveline Road","parentId":"490G00013565","stationId":"490G00013565","stopLetter":"N","topMostParentId":"490G00013565"},{"icsId":"1006171","id":"490006164B","lat":51.407705,"lon":-0.163361,"name":"Downe Road / Mitcham Library","parentId":"490G06164B","stationId":"490G06164B","stopLetter":"B","topMostParentId":"490G06164B"},{"icsId":"1009949","id":"490009949X","lat":51.406221,"lon":-0.163895,"name":"Mitcham Fair Green","parentId":"490G00009949","stationId":"490G00009949","stopLetter":"E","topMostParentId":"490G00009949"},{"icsId":"1000935","id":"490009949J","lat":51.405101,"lon":-0.163005,"name":"Upper Green East","parentId":"490G000244","stationId":"490G000244","stopLetter":"H","topMostParentId":"490G000244"},{"icsId":"1013650","id":"490013602E","lat":51.402189,"lon":-0.160836,"name":"Three Kings Pond","parentId":"490G00013650","stationId":"490G00013650","stopLetter":"R","topMostParentId":"490G00013650"},{"icsId":"1009507","id":"490009507E","lat":51.400477,"lon":-0.160056,"name":"Madeira Road","parentId":"490G00009507","stationId":"490G00009507","stopLetter":"P","topMostParentId":"490G00009507"},{"icsId":"1013521","id":"490013521E","lat":51.397988,"lon":-0.15787,"name":"The Ravensbury","parentId":"490G00013521","stationId":"490G00013521","stopLetter":"Q","topMostParentId":"490G00013521"},{"icsId":"1003776","id":"490003776E","lat":51.394489,"lon":-0.146986,"name":"Beddington Lane","parentId":"490G00003776","stationId":"490G00003776","stopLetter":"C","topMostParentId":"490G00003776"},{"icsId":"1014309","id":"490014309E","lat":51.392363,"lon":-0.139353,"name":"Watneys Road","parentId":"490G00014309","stationId":"490G00014309","stopLetter":"E","topMostParentId":"490G00014309"},{"icsId":"1009951","id":"490009951S","lat":51.390062,"lon":-0.132073,"name":"Rochford Way","parentId":"490G00009951","stationId":"490G00009951","stopLetter":"E","topMostParentId":"490G00009951"},{"icsId":"1013519","id":"490013519E","lat":51.388473,"lon":-0.128314,"name":"Therapia Lane / Croydon Cemetery","parentId":"490G00013519","stationId":"490G00013519","stopLetter":"F","topMostParentId":"490G00013519"},{"icsId":"1004230","id":"490004230S","lat":51.387247,"lon":-0.125317,"name":"Brading Road","parentId":"490G00004230","stationId":"490G00004230","stopLetter":"G","topMostParentId":"490G00004230"},{"icsId":"1009264","id":"490009264E","lat":51.385843,"lon":-0.121882,"name":"Lombard Roundabout","parentId":"490G00009264","stationId":"490G00009264","stopLetter":"H","topMostParentId":"490G00009264"},{"icsId":"1015356","id":"490009261E","lat":51.384894,"lon":-0.119909,"name":"Drake Road","parentId":"490G00015356","stationId":"490G00015356","stopLetter":"J","topMostParentId":"490G00015356"},{"icsId":"1011239","id":"490011239S","lat":51.383279,"lon":-0.116785,"name":"Priory Road","parentId":"490G00011239","stationId":"490G00011239","stopLetter":"LP","topMostParentId":"490G00011239"},{"icsId":"1013002","id":"490013002E","lat":51.381274,"lon":-0.113447,"name":"Sumner Road","parentId":"490G00013002","stationId":"490G00013002","stopLetter":"LR","topMostParentId":"490G00013002"},{"icsId":"1006696","id":"490006696S","lat":51.37809,"lon":-0.108936,"name":"Factory Lane","parentId":"490G00006696","stationId":"490G00006696","stopLetter":"->S","topMostParentId":"490G00006696"},{"icsId":"1011504","id":"490011504W15","lat":51.37457,"lon":-0.105374,"name":"Reeves Corner","parentId":"490G000722","stationId":"490G000722","stopLetter":"CN","topMostParentId":"490G000722"},{"icsId":"1002042","id":"490002042C0","lat":51.375893,"lon":-0.103782,"name":"Tamworth Road / Centrale Tram Stop","parentId":"490G02042C0","stationId":"490G02042C0","stopLetter":"CO","topMostParentId":"940GZZCRCTR"},{"icsId":"1011806","id":"490011806W16","lat":51.376608,"lon":-0.10348,"name":"Ruskin Road","parentId":"490G00011806","stationId":"490G00011806","stopLetter":"CR","topMostParentId":"490G00011806"},{"icsId":"1014420","id":"490014420W","lat":51.379062,"lon":-0.101237,"name":"West Croydon Bus Station","parentId":"490G000824","stationId":"490G000824","stopLetter":"B2","topMostParentId":"HUBWCY"},{"icsId":"1014614","id":"490014614E10","lat":51.376832,"lon":-0.098441,"name":"Whitgift Centre","parentId":"490G00014614","stationId":"490G00014614","stopLetter":"WK","topMostParentId":"490G00014614"},{"icsId":"1010839","id":"490010839C3","lat":51.373487,"lon":-0.097933,"name":"Park Street","parentId":"490G00010839","stationId":"490G00010839","stopLetter":"KH","topMostParentId":"490G00010839"}]}]}