{"direction":"inbound","lineId":"267","lineName":"267","mode":"bus","stopPointSequences":[{"stopPoint":[{"icsId":"1001113","id":"490007065A","lat":51.435131,"lon":-0.351367,"name":"Fulwell Station","parentId":"490G05445D","stationId":"490G05445D","stopLetter":"A","topMostParentId":"910GFULWELL"},{"icsId":"1007064","id":"490007064E","lat":51.436638,"lon":-0.350449,"name":"Fulwell / Sixth Cross Road","parentId":"490G00007064","stationId":"490G00007064","stopLetter":"J","topMostParentId":"490G00007064"},{"icsId":"1013765","id":"490013765N","lat":51.440257,"lon":-0.346966,"name":"Trafalgar Road / Prince Of Wales","parentId":"490G00013765","stationId":"490G00013765","stopLetter":"SD","topMostParentId":"490G00013765"},{"icsId":"1013865","id":"490013865N","lat":51.442035,"lon":-0.344226,"name":"The Prince Albert / Twickenham","parentId":"490G00013865","stationId":"490G00013865","stopLetter":"GA","topMostParentId":"490G00013865"},{"icsId":"1013869","id":"490013869N","lat":51.443931,"lon":-0.340919,"name":"Twickenham Green","parentId":"490G00013869","stationId":"490G00013869","stopLetter":"GM","topMostParentId":"490G00013869"},{"icsId":"1008009","id":"490008009E","lat":51.445416,"lon":-0.33593,"name":"Heath Road / Grove Avenue","parentId":"490G00008009","stationId":"490G00008009","stopLetter":"GP","topMostParentId":"490G00008009"},{"icsId":"1020202","id":"490008007T","lat":51.445511,"lon":-0.330616,"name":"Heath Road / Twickenham","parentId":"490G00020202","stationId":"490G00020202","stopLetter":"T","topMostParentId":"490G00020202"},{"icsId":"1013871","id":"490013870E","lat":51.448307,"lon":-0.329291,"name":"London Road / Twickenham","parentId":"490G00013871","stationId":"490G00013871","stopLetter":"E","topMostParentId":"490G00013871"},{"icsId":"1001300","id":"490013861B","lat":51.450167,"lon":-0.331108,"name":"Twickenham Station","parentId":"490G13861B","stationId":"490G13861B","stopLetter":"B","topMostParentId":"910GTWCKNHM"},{"icsId":"1014638","id":"490014638E2","lat":51.451652,"lon":-0.331184,"name":"Whitton Road","parentId":"490G00014638","stationId":"490G00014638","stopLetter":"->N","topMostParentId":"490G00014638"},{"icsId":"1008247","id":"490008247N","lat":51.454812,"lon":-0.330176,"name":"Hill View Road","parentId":"490G00008247","stationId":"490G00008247","stopLetter":"->N","topMostParentId":"490G00008247"},{"icsId":"1008524","id":"490008524N","lat":51.457635,"lon":-0.33075,"name":"Ivybridge","parentId":"490G00008524","stationId":"490G00008524","topMostParentId":"490G00008524"},{"icsId":"1005700","id":"490005700N","lat":51.459104,"lon":-0.330998,"name":"Crane Avenue","parentId":"490G00005700","stationId":"490G00005700","stopLetter":"->N","topMostParentId":"490G00005700"},{"icsId":"1009969","id":"490009961N1","lat":51.46096,"lon":-0.331866,"name":"Woodstock Avenue","parentId":"490G00009969","stationId":"490G00009969","stopLetter":"R","topMostParentId":"490G00009969"},{"icsId":"1003580","id":"490003580N","lat":51.463628,"lon":-0.331654,"name":"Lynton Close","parentId":"490G00003580","stationId":"490G00003580","stopLetter":"Z","topMostParentId":"490G00003580"},{"icsId":"1008513","id":"490008511N","lat":51.466321,"lon":-0.330087,"name":"Isleworth Leisure Centre and Library","parentId":"490G00008513","stationId":"490G00008513","stopLetter":"TN","topMostParentId":"490G00008513"},{"icsId":"1014954","id":"490014954TT","lat":51.46807,"lon":-0.329764,"name":"Worton Road","parentId":"490G00014954","stationId":"490G00014954","stopLetter":"TT","topMostParentId":"490G00014954"},{"icsId":"1008512","id":"490008512TJ","lat":51.469926,"lon":-0.328761,"name":"Isleworth War Memorial","parentId":"490G00008512","stationId":"490G00008512","stopLetter":"TJ","topMostParentId":"490G00008512"},{"icsId":"1009538","id":"490009538N","lat":51.472482,"lon":-0.328307,"name":"Mandeville Road","parentId":"490G00009538","stationId":"490G00009538","stopLetter":"TG","topMostParentId":"490G00009538"},{"icsId":"1014503","id":"490014493N","lat":51.475241,"lon":-0.326291,"name":"Twickenham Rd / West Middlesex Hospital","parentId":"490G00014503","stationId":"490G00014503","stopLetter":"HC","topMostParentId":"490G00014503"},{"icsId":"1019150","id":"490004635TD","lat":51.477873,"lon":-0.323574,"name":"Park Road","parentId":"490G00019150","stationId":"490G00019150","stopLetter":"TD","topMostParentId":"490G00019150"},{"icsId":"1015029","id":"490015029E","lat":51.479212,"lon":-0.321638,"name":"Busch Corner","parentId":"490G00015029","stationId":"490G00015029","stopLetter":"T","topMostParentId":"490G00015029"},{"icsId":"1013141","id":"490013141E","lat":51.479994,"lon":-0.319104,"name":"Syon Lane","parentId":"490G00013141","stationId":"490G00013141","stopLetter":"X","topMostParentId":"490G00013141"},{"icsId":"1003804","id":"490003804E","lat":51.481039,"lon":-0.316099,"name":"Beech Avenue","parentId":"490G00003804","stationId":"490G00003804","topMostParentId":"490G00003804"},{"icsId":"1004296","id":"490004296E","lat":51.482046,"lon":-0.31357,"name":"Brent Lea","parentId":"490G00004296","stationId":"490G00004296","stopLetter":"->E","topMostParentId":"490G00004296"},{"icsId":"1004292","id":"490004292F","lat":51.483395,"lon":-0.307327,"name":"Market Place","parentId":"490G00004292","stationId":"490G00004292","stopLetter":"BN","topMostParentId":"490G00004292"},{"icsId":"1004289","id":"490004289D","lat":51.483962,"lon":-0.304267,"name":"Brentford County Court","parentId":"490G00004289","stationId":"490G00004289","stopLetter":"BP","topMostParentId":"490G00004289"},{"icsId":"1006297","id":"490006297W","lat":51.486172,"lon":-0.29851,"name":"Watermans Centre","parentId":"490G00006297","stationId":"490G00006297","stopLetter":"BE","topMostParentId":"490G00006297"},{"icsId":"1004293","id":"490004293E","lat":51.487112,"lon":-0.295724,"name":"The Musical Museum","parentId":"490G00004293","stationId":"490G00004293","stopLetter":"BF","topMostParentId":"490G00004293"},{"icsId":"1008690","id":"490008690E","lat":51.488331,"lon":-0.291185,"name":"London Museum Of Water and Steam","parentId":"490G00008690","stationId":"490G00008690","stopLetter":"Y","topMostParentId":"490G00008690"},{"icsId":"1001167","id":"490001167X","lat":51.489387,"lon":-0.287127,"name":"Kew Bridge Station","parentId":"490G01167X","stationId":"490G01167X","stopLetter":"X","topMostParentId":"910GKEWBDGE"},{"icsId":"1004290","id":"490004290Q","lat":51.490777,"lon":-0.284367,"name":"Brentford Fountain Leisure Centre","parentId":"490G00004290","stationId":"490G00004290","stopLetter":"L","topMostParentId":"490G00004290"},{"icsId":"1010687","id":"490010687K","lat":51.492265,"lon":-0.277958,"name":"Oxford Road North","parentId":"490G00010687","stationId":"490G00010687","stopLetter":"K","topMostParentId":"490G00010687"},{"icsId":"1000094","id":"490000094B","lat":51.49244,"lon":-0.275776,"name":"Gunnersbury Station","parentId":"490G00094B","stationId":"490G00094B","stopLetter":"B","topMostParentId":"HUBGUN","zone":"3"},{"icsId":"1005211","id":"490005211E","lat":51.492988,"lon":-0.270829,"name":"Chiswick Road","parentId":"490G00005211","stationId":"490G00005211","stopLetter":"S","topMostParentId":"490G00005211"},{"icsId":"1013848","id":"490013848DD","lat":51.492639,"lon":-0.264878,"name":"Turnham Green Church","parentId":"490G000807","stationId":"490G000807","stopLetter":"DD","topMostParentId":"490G000807"},{"icsId":"1005423","id":"490005423GG","lat":51.492508,"lon":-0.261512,"name":"Clifton Gardens","parentId":"490G00005423","stationId":"490G00005423","stopLetter":"GG","topMostParentId":"490G00005423"},{"icsId":"1005210","id":"490005210HH","lat":51.492637,"lon":-0.258093,"name":"Chiswick Police Station","parentId":"490G00005210","stationId":"490G00005210","stopLetter":"HH","topMostParentId":"490G00005210"},{"icsId":"1013850","id":"490013850OO","lat":51.493066,"lon":-0.253064,"name":"Chiswick Lane","parentId":"490G00013850","stationId":"490G00013850","stopLetter":"OO","topMostParentId":"490G00013850"},{"icsId":"1012521","id":"490012521E","lat":51.493154,"lon":-0.249286,"name":"Stamford Brook Bus Garage","parentId":"490G00012521","stationId":"490G00012521","stopLetter":"H","topMostParentId":"490G00012521"},{"icsId":"1007273","id":"490007273M","lat":51.493413,"lon":-0.246755,"name":"Goldhawk Road / Young's Corner","parentId":"490G000535","stationId":"490G000535","stopLetter":"M","topMostParentId":"490G000535"},{"icsId":"1012533","id":"490015027F","lat":51.493531,"lon":-0.240268,"name":"Ravenscourt Park","parentId":"490G00012533","stationId":"490G00012533","stopLetter":"F","topMostParentId":"490G00012533"},{"icsId":"1000188","id":"490011438E","lat":51.493268,"lon":-0.237124,"name":"Ravenscourt Park Station","parentId":"490G00188A","stationId":"490G00188A","stopLetter":"E","topMostParentId":"940GZZLURVP","zone":"2"},{"icsId":"1005937","id":"490005937E","lat":51.492979,"lon":-0.235233,"name":"Dalling Road","parentId":"490G00005937","stationId":"490G00005937","stopLetter":"C","topMostParentId":"490G00005937"},{"icsId":"1015588","id":"490015588E","lat":51.494432,"lon":-0.232613,"name":"Lamington Street","parentId":"490G00015588","stationId":"490G00015588","stopLetter":"->E","topMostParentId":"490G00015588"},{"icsId":"1007239","id":"490007239E","lat":51.494575,"lon":-0.230115,"name":"Iffley Road","parentId":"490G00007239","stationId":"490G00007239","topMostParentId":"490G00007239"},{"icsId":"1000097","id":"490000097T","lat":51.493589,"lon":-0.226163,"name":"Hammersmith Stn / H'smith & City Line","parentId":"490G00097T","stationId":"490G00097T","stopLetter":"W","topMostParentId":"HUBHMS","zone":"2"},{"icsId":"1007705","id":"490007705F","lat":51.492164,"lon":-0.223525,"name":"Hammersmith Bus Station","parentId":"490G000565","stationId":"490G000565","stopLetter":"E","topMostParentId":"HUBHMS"}]}]}