{"direction":"inbound","lineId":"27","lineName":"27","mode":"bus","stopPointSequences":[{"stopPoint":[{"icsId":"1004962","id":"490004962W","lat":51.541552,"lon":-0.150319,"name":"Chalk Farm / Morrisons","parentId":"490G00004962","stationId":"490G00004962","stopLetter":"CM","topMostParentId":"490G00004962"},{"icsId":"1004964","id":"490004963CE","lat":51.542854,"lon":-0.148522,"name":"Chalk Farm Road / Morrisons","parentId":"490G00004964","stationId":"490G00004964","stopLetter":"CE","topMostParentId":"490G00004964"},{"icsId":"1007927","id":"490007927M","lat":51.542884,"lon":-0.143545,"name":"Hawley Road","parentId":"490G00007927","stationId":"490G00007927","stopLetter":"M","topMostParentId":"490G00007927"},{"icsId":"1004713","id":"490004713D","lat":51.541972,"lon":-0.14103,"name":"Camden Gardens","parentId":"490G00004713","stationId":"490G00004713","stopLetter":"D","topMostParentId":"490G00004713"},{"icsId":"1000036","id":"490000036S","lat":51.5397,"lon":-0.141281,"name":"Camden Town Station","parentId":"490G00036N","stationId":"490G00036N","stopLetter":"S","topMostParentId":"940GZZLUCTN","zone":"2"},{"icsId":"1011168","id":"490011168S2","lat":51.537164,"lon":-0.139524,"name":"Pratt Street","parentId":"490G00011168","stationId":"490G00011168","stopLetter":"V","topMostParentId":"490G00011168"},{"icsId":"1000152","id":"490000152D","lat":51.533451,"lon":-0.13845,"name":"Mornington Crescent Station","parentId":"490G00152G","stationId":"490G00152G","stopLetter":"D","topMostParentId":"940GZZLUMTC","zone":"2"},{"icsId":"1012158","id":"490012158S","lat":51.530746,"lon":-0.138603,"name":"Silverdale","parentId":"490G00012158","stationId":"490G00012158","stopLetter":"W","topMostParentId":"490G00012158"},{"icsId":"1010158","id":"490010158S","lat":51.527535,"lon":-0.138547,"name":"Robert Street","parentId":"490G00010158","stationId":"490G00010158","stopLetter":"K","topMostParentId":"490G00010158"},{"icsId":"1015047","id":"490015042U","lat":51.525808,"lon":-0.138473,"name":"Euston Road","parentId":"490G00015047","stationId":"490G00015047","stopLetter":"U","topMostParentId":"490G00015047"},{"icsId":"1000252","id":"490000252V","lat":51.524578,"lon":-0.139187,"name":"Warren Street Stn / Tottenham Court Rd","parentId":"490G00252KA","stationId":"490G00252KA","stopLetter":"V","topMostParentId":"940GZZLUWRR","zone":"1"},{"icsId":"1000091","id":"490000091G","lat":51.523906,"lon":-0.14387,"name":"Great Portland Street Station","parentId":"490G00091G","stationId":"490G00091G","stopLetter":"G","topMostParentId":"940GZZLUGPS","zone":"1"},{"icsId":"1000191","id":"490000191B","lat":51.523625,"lon":-0.146606,"name":"Regent's Park Station","parentId":"490G00191A","stationId":"490G00191A","stopLetter":"B","topMostParentId":"940GZZLURGP","zone":"1"},{"icsId":"1007807","id":"490007807W","lat":51.523168,"lon":-0.149565,"name":"Harley Street","parentId":"490G00007807","stationId":"490G00007807","stopLetter":"L","topMostParentId":"490G00007807"},{"icsId":"1000011","id":"490000011E","lat":51.522222,"lon":-0.156263,"name":"Baker Street Station","parentId":"490G00011D","stationId":"490G00011D","stopLetter":"E","topMostParentId":"940GZZLUBST","zone":"1"},{"icsId":"1015040","id":"490015040Z","lat":51.521847,"lon":-0.158715,"name":"Gloucester Place","parentId":"490G00015040","stationId":"490G00015040","stopLetter":"Z","topMostParentId":"490G00015040"},{"icsId":"1000351","id":"490015502P","lat":51.521531,"lon":-0.160371,"name":"Marylebone Station","parentId":"490G00000351","stationId":"490G00000351","stopLetter":"P","topMostParentId":"490G00000351"},{"icsId":"1015043","id":"490015043L","lat":51.518759,"lon":-0.166522,"name":"Edgware Road","parentId":"490G000851","stationId":"490G000851","stopLetter":"EQ","topMostParentId":"490G000851"},{"icsId":"1015044","id":"490015044Z","lat":51.517126,"lon":-0.169095,"name":"Sussex Gardens","parentId":"490G00015044","stationId":"490G00015044","stopLetter":"ES","topMostParentId":"490G00015044"},{"icsId":"1012797","id":"490012797N","lat":51.516702,"lon":-0.172456,"name":"St Mary's Hospital","parentId":"490G00012797","stationId":"490G00012797","stopLetter":"G","topMostParentId":"490G00012797"},{"icsId":"1001221","id":"490001221F","lat":51.515494,"lon":-0.175704,"name":"Paddington Station","parentId":"490G01221H","stationId":"490G01221H","stopLetter":"F","topMostParentId":"HUBPAD"},{"icsId":"1005166","id":"490006321D","lat":51.516948,"lon":-0.179033,"name":"Paddington Stn / Eastbourne Terrace","parentId":"490G000450","stationId":"490G000450","stopLetter":"D","topMostParentId":"HUBPAD"},{"icsId":"1014406","id":"490014406W","lat":51.517682,"lon":-0.181137,"name":"Westbourne Terrace","parentId":"490G00014406","stationId":"490G00014406","stopLetter":"R","topMostParentId":"490G00014406"},{"icsId":"1007252","id":"490007252W","lat":51.51687,"lon":-0.184427,"name":"Gloucester Terrace","parentId":"490G00007252","stationId":"490G00007252","stopLetter":"RQ","topMostParentId":"490G00007252"},{"icsId":"1011366","id":"490011366H","lat":51.515864,"lon":-0.187969,"name":"Queensway","parentId":"490G00011366","stationId":"490G00011366","stopLetter":"H","topMostParentId":"490G00011366"},{"icsId":"1005089","id":"490005089D","lat":51.514586,"lon":-0.195514,"name":"Pembridge Villas","parentId":"490G00005089","stationId":"490G00005089","stopLetter":"PW","topMostParentId":"490G00005089"},{"icsId":"1005085","id":"490005085S","lat":51.512835,"lon":-0.197428,"name":"Chepstow Crescent","parentId":"490G00005085","stationId":"490G00005085","stopLetter":"PX","topMostParentId":"490G00005085"},{"icsId":"1000167","id":"490015039C","lat":51.50926,"lon":-0.197079,"name":"Notting Hill Gate Station","parentId":"490G00167G","stationId":"490G00167G","stopLetter":"C","topMostParentId":"940GZZLUNHG","zone":"1+2"},{"icsId":"1019161","id":"490000167K","lat":51.509095,"lon":-0.193973,"name":"Palace Gardens Terr / Notting Hill Gte","parentId":"490G00019161","stationId":"490G00019161","stopLetter":"K","topMostParentId":"490G00019161"},{"icsId":"1012055","id":"490012055S","lat":51.506873,"lon":-0.194522,"name":"Sheffield Terrace","parentId":"490G00012055","stationId":"490G00012055","stopLetter":"P","topMostParentId":"490G00012055"},{"icsId":"1010536","id":"490010536K","lat":51.503676,"lon":-0.191867,"name":"York House Place / Kensington High St","parentId":"490G00010536","stationId":"490G00010536","stopLetter":"K","topMostParentId":"490G00010536"},{"icsId":"1000110","id":"490000110F","lat":51.501349,"lon":-0.192003,"name":"High Street Kensington Station","parentId":"490G00110R","stationId":"490G00110R","stopLetter":"F","topMostParentId":"940GZZLUHSK","zone":"1"},{"icsId":"1010984","id":"490010984T","lat":51.499808,"lon":-0.196487,"name":"Phillimore Gardens","parentId":"490G00010984","stationId":"490G00010984","stopLetter":"T","topMostParentId":"490G00010984"},{"icsId":"1005528","id":"490005528X","lat":51.498772,"lon":-0.199279,"name":"The Design Museum","parentId":"490G00005528","stationId":"490G00005528","stopLetter":"X","topMostParentId":"490G00005528"},{"icsId":"1003106","id":"490003106W","lat":51.497528,"lon":-0.203175,"name":"Warwick Gardens","parentId":"490G00003106","stationId":"490G00003106","stopLetter":"Z","topMostParentId":"490G00003106"},{"icsId":"1000170","id":"490008652C","lat":51.496238,"lon":-0.20641,"name":"Kensington Olympia Station","parentId":"490G08652C","stationId":"490G08652C","stopLetter":"C","topMostParentId":"HUBKPA","zone":"2"},{"icsId":"1010357","id":"490010357B","lat":51.495227,"lon":-0.210901,"name":"North End Road","parentId":"490G00010357","stationId":"490G00010357","stopLetter":"E","topMostParentId":"490G00010357"},{"icsId":"1004455","id":"490004455BA","lat":51.493515,"lon":-0.215952,"name":"Brook Green","parentId":"490G00004455","stationId":"490G00004455","stopLetter":"F","topMostParentId":"490G00004455"},{"icsId":"1008997","id":"490008990Q","lat":51.493121,"lon":-0.219007,"name":"Latymer Court","parentId":"490G00008997","stationId":"490G00008997","stopLetter":"X","topMostParentId":"490G00008997"},{"icsId":"1007702","id":"490007704QA","lat":51.492983,"lon":-0.221793,"name":"Hammersmith Broadway","parentId":"490G000563","stationId":"490G000563","stopLetter":"Z4","topMostParentId":"490G000563"},{"icsId":"1007705","id":"490007705C","lat":51.492189,"lon":-0.223985,"name":"Hammersmith Bus Station","parentId":"490G000565","stationId":"490G000565","stopLetter":"B","topMostParentId":"HUBHMS"},{"icsId":"1008801","id":"490008801P","lat":51.492587,"lon":-0.227138,"name":"Kings Mall Shopping Centre","parentId":"490G000625","stationId":"490G000625","stopLetter":"U","topMostParentId":"490G000625"},{"icsId":"1007711","id":"490007711WA","lat":51.492512,"lon":-0.23286,"name":"Hammersmith Town Hall","parentId":"490G00007711","stationId":"490G00007711","stopLetter":"WA","topMostParentId":"490G00007711"},{"icsId":"1015588","id":"490015588E","lat":51.494432,"lon":-0.232613,"name":"Lamington Street","parentId":"490G00015588","stationId":"490G00015588","stopLetter":"->E","topMostParentId":"490G00015588"},{"icsId":"1007239","id":"490007239E","lat":51.494575,"lon":-0.230115,"name":"Iffley Road","parentId":"490G00007239","stationId":"490G00007239","topMostParentId":"490G00007239"},{"icsId":"1007238","id":"490007238E","lat":51.494615,"lon":-0.226858,"name":"Glenthorne House","parentId":"490G000533","stationId":"490G000533","topMostParentId":"490G000533"}]}]}