{"direction":"inbound","lineId":"276","lineName":"276","mode":"bus","stopPointSequences":[{"stopPoint":[{"icsId":"1012837","id":"490012837K","lat":51.560865,"lon":-0.070316,"name":"Stoke Newington Common","parentId":"490G00012837","stationId":"490G00012837","stopLetter":"K","topMostParentId":"490G00012837"},{"icsId":"1015168","id":"490015168L","lat":51.559774,"lon":-0.070103,"name":"Rectory Road / Brooke Road","parentId":"490G00015168","stationId":"490G00015168","stopLetter":"L","topMostParentId":"490G00015168"},{"icsId":"1006962","id":"490013133S","lat":51.556614,"lon":-0.068275,"name":"Downs Road","parentId":"490G00006962","stationId":"490G00006962","stopLetter":"->S","topMostParentId":"490G00006962"},{"icsId":"1019707","id":"490015434S","lat":51.553897,"lon":-0.067654,"name":"Shacklewell Lane","parentId":"490G00019707","stationId":"490G00019707","stopLetter":"A","topMostParentId":"490G00019707"},{"icsId":"1006182","id":"490006182S","lat":51.551971,"lon":-0.065933,"name":"Downs Park Road","parentId":"490G00006182","stationId":"490G00006182","stopLetter":"B","topMostParentId":"490G00006182"},{"icsId":"1011912","id":"490011912S","lat":51.55038,"lon":-0.063765,"name":"Sandringham Road","parentId":"490G00011912","stationId":"490G00011912","stopLetter":"C","topMostParentId":"490G00011912"},{"icsId":"1001128","id":"490001128O","lat":51.549688,"lon":-0.061082,"name":"Hackney Downs Station","parentId":"490G01128M","stationId":"490G01128M","stopLetter":"D","topMostParentId":"910GHAKNYNM"},{"icsId":"1001127","id":"490001127E","lat":51.547485,"lon":-0.055652,"name":"Hackney Central Station","parentId":"490G01127JA","stationId":"490G01127JA","stopLetter":"T","topMostParentId":"910GHACKNYC"},{"icsId":"1007618","id":"490007618D","lat":51.546595,"lon":-0.052978,"name":"Morning Lane / Trelawney Estate","parentId":"490G00007618","stationId":"490G00007618","stopLetter":"D","topMostParentId":"490G00007618"},{"icsId":"1008329","id":"490008329S","lat":51.546978,"lon":-0.048938,"name":"Homerton Terrace","parentId":"490G00008329","stationId":"490G00008329","stopLetter":"S","topMostParentId":"490G00008329"},{"icsId":"1003044","id":"490003044H","lat":51.548078,"lon":-0.046439,"name":"Homerton High Street","parentId":"490G00003044","stationId":"490G00003044","stopLetter":"H","topMostParentId":"490G00003044"},{"icsId":"1007622","id":"490007622L","lat":51.548861,"lon":-0.040001,"name":"Glyn Road","parentId":"490G00007622","stationId":"490G00007622","stopLetter":"L","topMostParentId":"490G00007622"},{"icsId":"1003222","id":"490003222E","lat":51.550156,"lon":-0.034075,"name":"Adley Street","parentId":"490G00003222","stationId":"490G00003222","stopLetter":"A","topMostParentId":"490G00003222"},{"icsId":"1008803","id":"490008803E","lat":51.550839,"lon":-0.031925,"name":"Kingsmead Estate","parentId":"490G00008803","stationId":"490G00008803","stopLetter":"B","topMostParentId":"490G00008803"},{"icsId":"1009058","id":"490009058S","lat":51.550607,"lon":-0.030392,"name":"Lee Conservancy Road / Poplar Close","parentId":"490G00009058","stationId":"490G00009058","stopLetter":"C","topMostParentId":"490G00009058"},{"icsId":"1005831","id":"490005831S","lat":51.549047,"lon":-0.028541,"name":"Crowfoot Close","parentId":"490G00005831","stationId":"490G00005831","stopLetter":"D","topMostParentId":"490G00005831"},{"icsId":"1013813","id":"490013813W","lat":51.547641,"lon":-0.027838,"name":"Trowbridge Estate","parentId":"490G00013813","stationId":"490G00013813","stopLetter":"Q","topMostParentId":"490G00013813"},{"icsId":"1010647","id":"490010647S","lat":51.546564,"lon":-0.027956,"name":"Osborne Road","parentId":"490G00010647","stationId":"490G00010647","stopLetter":"R","topMostParentId":"490G00010647"},{"icsId":"1003926","id":"490003926S2","lat":51.545674,"lon":-0.025846,"name":"Berkshire Road","parentId":"490G00003926","stationId":"490G00003926","stopLetter":"T","topMostParentId":"490G00003926"},{"icsId":"1001129","id":"490011721E","lat":51.542691,"lon":-0.024922,"name":"Hackney Wick Station","parentId":"490G01129A","stationId":"490G01129A","stopLetter":"B","topMostParentId":"910GHACKNYW"},{"icsId":"1014198","id":"490014198S","lat":51.541722,"lon":-0.026651,"name":"Rothbury Road","parentId":"490G00014198","stationId":"490G00014198","stopLetter":"E","topMostParentId":"490G00014198"},{"icsId":"1009968","id":"490009968W","lat":51.539306,"lon":-0.025732,"name":"Monier Road","parentId":"490G00009968","stationId":"490G00009968","stopLetter":"OH","topMostParentId":"490G00009968"},{"icsId":"1008556","id":"490008556W","lat":51.538661,"lon":-0.02749,"name":"Wick Lane","parentId":"490G00008556","stationId":"490G00008556","stopLetter":"OJ","topMostParentId":"490G00008556"},{"icsId":"1010552","id":"490010552S","lat":51.536835,"lon":-0.028521,"name":"Old Ford Road","parentId":"490G00010552","stationId":"490G00010552","stopLetter":"OK","topMostParentId":"490G00010552"},{"icsId":"1011654","id":"490011654S","lat":51.534881,"lon":-0.027337,"name":"Roman Road Market","parentId":"490G00011654","stationId":"490G00011654","stopLetter":"OL","topMostParentId":"490G00011654"},{"icsId":"1013779","id":"490013779S","lat":51.532142,"lon":-0.023288,"name":"Tredegar Road","parentId":"490G00013779","stationId":"490G00013779","stopLetter":"Q","topMostParentId":"490G00013779"},{"icsId":"1004205","id":"490004205D","lat":51.529951,"lon":-0.020817,"name":"Bow Bus Garage","parentId":"490G00004205","stationId":"490G00004205","stopLetter":"D","topMostParentId":"490G00004205"},{"icsId":"1004206","id":"490004215M","lat":51.52895,"lon":-0.016881,"name":"Bow Church","parentId":"490G000421","stationId":"490G000421","stopLetter":"M","topMostParentId":"490G000421"},{"icsId":"1009695","id":"490009695MA","lat":51.531281,"lon":-0.0112,"name":"Marshgate Lane","parentId":"490G000661","stationId":"490G000661","stopLetter":"W","topMostParentId":"490G000661"},{"icsId":"1014249","id":"490003025E","lat":51.534656,"lon":-0.006554,"name":"Warton Road","parentId":"490G00014249","stationId":"490G00014249","stopLetter":"M","topMostParentId":"490G00014249"},{"icsId":"1014215","id":"490014215N","lat":51.536891,"lon":-0.003659,"name":"Stratford High St Stn  / Carpenters Rd","parentId":"490G00014215","stationId":"490G00014215","stopLetter":"N","topMostParentId":"490G00014215"},{"icsId":"1012904","id":"490012904D","lat":51.5406,"lon":-0.001824,"name":"Stratford Bus Station","parentId":"490G000773","stationId":"490G000773","stopLetter":"D","topMostParentId":"HUBSRA"},{"icsId":"1012903","id":"490012903Z","lat":51.540423,"lon":0.002769,"name":"Stratford Broadway","parentId":"490G00012903","stationId":"490G00012903","stopLetter":"->S","topMostParentId":"490G00012903"},{"icsId":"1014466","id":"490014466S","lat":51.537563,"lon":0.005945,"name":"Barnby Street","parentId":"490G00014466","stationId":"490G00014466","stopLetter":"H","topMostParentId":"490G00014466"},{"icsId":"1005308","id":"490005308S","lat":51.535757,"lon":0.007452,"name":"Church Street","parentId":"490G00005308","stationId":"490G00005308","stopLetter":"J","topMostParentId":"490G00005308"},{"icsId":"1009956","id":"490009956S","lat":51.5332,"lon":0.008161,"name":"Mitre Road","parentId":"490G00009956","stationId":"490G00009956","stopLetter":"K","topMostParentId":"490G00009956"},{"icsId":"1020315","id":"490009144S","lat":51.531346,"lon":0.007157,"name":"Corporation Street","parentId":"490G00020315","stationId":"490G00020315","stopLetter":"A","topMostParentId":"490G00020315"},{"icsId":"1000262","id":"490000262B","lat":51.52733,"lon":0.00489,"name":"West Ham Station","parentId":"490G00262A","stationId":"490G00262A","stopLetter":"B","topMostParentId":"HUBWEH","zone":"2/3"},{"icsId":"1009929","id":"490009929S","lat":51.526277,"lon":0.004916,"name":"Milner Road","parentId":"490G00009929","stationId":"490G00009929","stopLetter":"C","topMostParentId":"490G00009929"},{"icsId":"1007263","id":"490007263S","lat":51.524499,"lon":0.00478,"name":"Godbold Road","parentId":"490G00007263","stationId":"490G00007263","stopLetter":"D","topMostParentId":"490G00007263"},{"icsId":"1012601","id":"490012598E","lat":51.520698,"lon":0.006156,"name":"Star Lane Stn  / Star Primary Sch","parentId":"490G00012601","stationId":"490G00012601","stopLetter":"E","topMostParentId":"490G00012601"},{"icsId":"1018854","id":"490018854E","lat":51.519876,"lon":0.009521,"name":"Exning Road","parentId":"490G00018854","stationId":"490G00018854","topMostParentId":"490G00018854"},{"icsId":"1010627","id":"490010627S","lat":51.517968,"lon":0.010691,"name":"Malmesbury Terrace","parentId":"490G00010627","stationId":"490G00010627","stopLetter":"R","topMostParentId":"490G00010627"},{"icsId":"1003750","id":"490003750L","lat":51.517549,"lon":0.012013,"name":"Hermit Road","parentId":"490G00003750","stationId":"490G00003750","stopLetter":"L","topMostParentId":"490G00003750"},{"icsId":"1005902","id":"490005902E","lat":51.51956,"lon":0.016412,"name":"Rokeby School","parentId":"490G00005902","stationId":"490G00005902","stopLetter":"S","topMostParentId":"490G00005902"},{"icsId":"1008834","id":"490008834E","lat":51.520816,"lon":0.01922,"name":"King Street","parentId":"490G00008834","stationId":"490G00008834","stopLetter":"BH","topMostParentId":"490G00008834"},{"icsId":"1003551","id":"490003551E","lat":51.522162,"lon":0.021961,"name":"Balaam Street","parentId":"490G00003551","stationId":"490G00003551","stopLetter":"BJ","topMostParentId":"490G00003551"},{"icsId":"1011047","id":"490011047E","lat":51.523424,"lon":0.024915,"name":"Plaistow Police Station","parentId":"490G00011047","stationId":"490G00011047","stopLetter":"BK","topMostParentId":"490G00011047"},{"icsId":"1011053","id":"490011040E1","lat":51.525391,"lon":0.028173,"name":"Khartoum Road","parentId":"490G00011053","stationId":"490G00011053","stopLetter":"BL","topMostParentId":"490G00011053"},{"icsId":"1003730","id":"490003730S","lat":51.525064,"lon":0.029961,"name":"Beaumont Road","parentId":"490G00003730","stationId":"490G00003730","stopLetter":"GS","topMostParentId":"490G00003730"},{"icsId":"1020388","id":"490010215S","lat":51.522508,"lon":0.031087,"name":"Newham University Hosp / New Vic College","parentId":"490G000006","stationId":"490G000006","stopLetter":"HD","topMostParentId":"490G000006"},{"icsId":"1015395","id":"490007236E","lat":51.522514,"lon":0.03286,"name":"Newham University Hosp Emergency Dept","parentId":"490G00015395","stationId":"490G00015395","stopLetter":"HC","topMostParentId":"490G00015395"},{"icsId":"1007236","id":"490007236E1","lat":51.52223,"lon":0.037273,"name":"Newham University Hosp Main Reception","parentId":"490G00007236","stationId":"490G00007236","stopLetter":"HG","topMostParentId":"490G00007236"},{"icsId":"1018884","id":"490018884S","lat":51.520748,"lon":0.039758,"name":"Gateway Surgical Centre","parentId":"490G00018884","stationId":"490G00018884","stopLetter":"HS","topMostParentId":"490G00018884"}]}]}