{"direction":"inbound","lineId":"28","lineName":"28","mode":"bus","stopPointSequences":[{"stopPoint":[{"icsId":"1009631","id":"490009631N","lat":51.453863,"lon":-0.192224,"name":"Mapleton Road","parentId":"490G00009631","stationId":"490G00009631","stopLetter":"->N","topMostParentId":"490G00009631"},{"icsId":"1019847","id":"490014184T","lat":51.45612,"lon":-0.192783,"name":"Southside Shopping Centre","parentId":"490G00019847","stationId":"490G00019847","stopLetter":"T","topMostParentId":"490G00019847"},{"icsId":"1011413","id":"490011413Q","lat":51.457399,"lon":-0.192372,"name":"Ram Street","parentId":"490G00011413","stationId":"490G00011413","stopLetter":"Q","topMostParentId":"490G00011413"},{"icsId":"1013707","id":"490013707K","lat":51.459497,"lon":-0.190159,"name":"Tonsley Street","parentId":"490G00013707","stationId":"490G00013707","stopLetter":"K","topMostParentId":"490G00013707"},{"icsId":"1001311","id":"490001311E","lat":51.461093,"lon":-0.187548,"name":"Wandsworth Town Station","parentId":"490G01311E","stationId":"490G01311E","stopLetter":"AA","topMostParentId":"910GWDWTOWN"},{"icsId":"1012212","id":"490012212E","lat":51.46199,"lon":-0.18685,"name":"Swandon Way","parentId":"490G00012212","stationId":"490G00012212","stopLetter":"TC","topMostParentId":"490G00012212"},{"icsId":"1004326","id":"490004326N","lat":51.463516,"lon":-0.186674,"name":"Bridgend Road","parentId":"490G00004326","stationId":"490G00004326","stopLetter":"TD","topMostParentId":"490G00004326"},{"icsId":"1008434","id":"490008434N","lat":51.467473,"lon":-0.190174,"name":"Townmead Road","parentId":"490G00008434","stationId":"490G00008434","stopLetter":"TE","topMostParentId":"490G00008434"},{"icsId":"1010474","id":"490010474N","lat":51.470457,"lon":-0.191208,"name":"Oakbury Road","parentId":"490G00010474","stationId":"490G00010474","stopLetter":"TF","topMostParentId":"490G00010474"},{"icsId":"1011916","id":"490011916N","lat":51.472451,"lon":-0.191677,"name":"Sands End / Hazlebury Road","parentId":"490G00011916","stationId":"490G00011916","stopLetter":"->N","topMostParentId":"490G00011916"},{"icsId":"1010225","id":"490010225N","lat":51.475687,"lon":-0.192715,"name":"New Kings Road","parentId":"490G00010225","stationId":"490G00010225","stopLetter":"GP","topMostParentId":"490G00010225"},{"icsId":"1013888","id":"490013888N","lat":51.47747,"lon":-0.192313,"name":"Tyrawley Road","parentId":"490G00013888","stationId":"490G00013888","stopLetter":"GK","topMostParentId":"490G00013888"},{"icsId":"1007057","id":"490007057H","lat":51.479447,"lon":-0.195144,"name":"Fulham Town Hall","parentId":"490G000526","stationId":"490G000526","stopLetter":"H","topMostParentId":"490G000526"},{"icsId":"1000352","id":"490008547F","lat":51.480385,"lon":-0.197656,"name":"Fulham Broadway","parentId":"490G00000352","stationId":"490G00000352","stopLetter":"F","topMostParentId":"490G00000352"},{"icsId":"1012117","id":"490015064A","lat":51.481721,"lon":-0.199778,"name":"Shorrolds Road","parentId":"490G00012117","stationId":"490G00012117","stopLetter":"A","topMostParentId":"490G00012117"},{"icsId":"1009156","id":"490009156V","lat":51.48487,"lon":-0.202247,"name":"Lillie Road","parentId":"490G00009156","stationId":"490G00009156","stopLetter":"BK","topMostParentId":"490G00009156"},{"icsId":"1014485","id":"490014485N","lat":51.487982,"lon":-0.203997,"name":"West Kensington Estate","parentId":"490G00014485","stationId":"490G00014485","stopLetter":"BT","topMostParentId":"490G00014485"},{"icsId":"1000265","id":"490000265B","lat":51.489917,"lon":-0.206485,"name":"West Kensington Station","parentId":"490G00265W","stationId":"490G00265W","stopLetter":"T","topMostParentId":"940GZZLUWKN","zone":"2"},{"icsId":"1009492","id":"490009492N","lat":51.493345,"lon":-0.208929,"name":"Lytton Estate","parentId":"490G00009492","stationId":"490G00009492","stopLetter":"U","topMostParentId":"490G00009492"},{"icsId":"1019922","id":"490007709H","lat":51.494655,"lon":-0.211096,"name":"Kensington Olympia / Hammersmith Road","parentId":"490G00019922","stationId":"490G00019922","stopLetter":"V","topMostParentId":"HUBKPA"},{"icsId":"1000170","id":"490008652A","lat":51.495731,"lon":-0.209743,"name":"Kensington Olympia Station","parentId":"490G08652C","stationId":"490G08652C","stopLetter":"K","topMostParentId":"HUBKPA","zone":"2"},{"icsId":"1008287","id":"490008287E","lat":51.496975,"lon":-0.205199,"name":"Holland Road","parentId":"490G00008287","stationId":"490G00008287","stopLetter":"L","topMostParentId":"490G00008287"},{"icsId":"1003106","id":"490003106E","lat":51.497448,"lon":-0.203798,"name":"Warwick Gardens","parentId":"490G00003106","stationId":"490G00003106","stopLetter":"W","topMostParentId":"490G00003106"},{"icsId":"1005528","id":"490005528Y","lat":51.498553,"lon":-0.200815,"name":"The Design Museum","parentId":"490G00005528","stationId":"490G00005528","stopLetter":"Y","topMostParentId":"490G00005528"},{"icsId":"1010984","id":"490010984U","lat":51.499956,"lon":-0.196755,"name":"Phillimore Gardens","parentId":"490G00010984","stationId":"490G00010984","stopLetter":"U","topMostParentId":"490G00010984"},{"icsId":"1000110","id":"490000110A","lat":51.500984,"lon":-0.193415,"name":"High Street Kensington Station","parentId":"490G00110R","stationId":"490G00110R","stopLetter":"A","topMostParentId":"940GZZLUHSK","zone":"1"},{"icsId":"1008288","id":"490008288H","lat":51.503097,"lon":-0.191645,"name":"Kensington Church Street / Holland St","parentId":"490G00008288","stationId":"490G00008288","stopLetter":"H","topMostParentId":"490G00008288"},{"icsId":"1012055","id":"490012055N","lat":51.506126,"lon":-0.194479,"name":"Sheffield Terrace","parentId":"490G00012055","stationId":"490G00012055","stopLetter":"X","topMostParentId":"490G00012055"},{"icsId":"1000167","id":"490000167G","lat":51.508774,"lon":-0.195297,"name":"Notting Hill Gate Station","parentId":"490G00167G","stationId":"490G00167G","stopLetter":"G","topMostParentId":"940GZZLUNHG","zone":"1+2"},{"icsId":"1015039","id":"490015039B","lat":51.509489,"lon":-0.197401,"name":"Notting Hill Gate Stn  / Pembridge Rd","parentId":"490G000848","stationId":"490G000848","stopLetter":"B","topMostParentId":"490G000848"},{"icsId":"1005085","id":"490005085N","lat":51.513069,"lon":-0.197447,"name":"Chepstow Crescent","parentId":"490G00005085","stationId":"490G00005085","stopLetter":"PU","topMostParentId":"490G00005085"},{"icsId":"1005089","id":"490005089E","lat":51.514713,"lon":-0.19561,"name":"Pembridge Villas / Westbourne Grove","parentId":"490G00005089","stationId":"490G00005089","stopLetter":"PV","topMostParentId":"490G00005089"},{"icsId":"1019713","id":"490014402A","lat":51.515835,"lon":-0.195421,"name":"Artesian Road","parentId":"490G00019713","stationId":"490G00019713","stopLetter":"PC","topMostParentId":"490G00019713"},{"icsId":"1012948","id":"490012948N","lat":51.518573,"lon":-0.196293,"name":"St Stephens Gardens","parentId":"490G00012948","stationId":"490G00012948","stopLetter":"->N","topMostParentId":"490G00012948"},{"icsId":"1014404","id":"490014404P","lat":51.519119,"lon":-0.199097,"name":"Brunel Estate","parentId":"490G00014404","stationId":"490G00014404","stopLetter":"P","topMostParentId":"490G00014404"},{"icsId":"1000259","id":"490000259A","lat":51.521225,"lon":-0.200931,"name":"Westbourne Park Station","parentId":"490G00259A","stationId":"490G00259A","stopLetter":"A","topMostParentId":"940GZZLUWSP","zone":"2"},{"icsId":"1019459","id":"490007861C","lat":51.523487,"lon":-0.20188,"name":"Harrow Road","parentId":"490G00019459","stationId":"490G00019459","stopLetter":"C","topMostParentId":"490G00019459"},{"icsId":"1003444","id":"490003444W","lat":51.524807,"lon":-0.202894,"name":"Ashmore Road","parentId":"490G00003444","stationId":"490G00003444","stopLetter":"S","topMostParentId":"490G00003444"},{"icsId":"1007666","id":"490007666W","lat":51.526377,"lon":-0.206797,"name":"Second Avenue","parentId":"490G00007666","stationId":"490G00007666","stopLetter":"T","topMostParentId":"490G00007666"},{"icsId":"1006832","id":"490006832W","lat":51.526916,"lon":-0.211475,"name":"Fifth Avenue / Queen's Park Library","parentId":"490G00006832","stationId":"490G00006832","stopLetter":"Y","topMostParentId":"490G00006832"},{"icsId":"1008711","id":"490008711V","lat":51.527491,"lon":-0.214942,"name":"Ladbroke Grove / Kilburn Lane","parentId":"490G00008711","stationId":"490G00008711","stopLetter":"V","topMostParentId":"490G00008711"},{"icsId":"1007861","id":"490007860N","lat":51.528372,"lon":-0.216118,"name":"Kilburn Lane / Harrow Road","parentId":"490G000044","stationId":"490G000044","stopLetter":"KT","topMostParentId":"490G000044"},{"icsId":"1003583","id":"490003583N","lat":51.530572,"lon":-0.216522,"name":"Banister Road","parentId":"490G00003583","stationId":"490G00003583","stopLetter":"KS","topMostParentId":"490G00003583"},{"icsId":"1001161","id":"490001161N","lat":51.533706,"lon":-0.219154,"name":"Kensal Rise Station","parentId":"490G01161N","stationId":"490G01161N","stopLetter":"KR","topMostParentId":"910GKENR"}]}]}