{"direction":"inbound","lineId":"281","lineName":"281","mode":"bus","stopPointSequences":[{"stopPoint":[{"icsId":"1013702","id":"490013702E","lat":51.380744,"lon":-0.280623,"name":"Tolworth Tower","parentId":"490G00013702","stationId":"490G00013702","stopLetter":"E","topMostParentId":"490G00013702"},{"icsId":"1013697","id":"490013697K","lat":51.382182,"lon":-0.283013,"name":"Tolworth Broadway","parentId":"490G00013697","stationId":"490G00013697","stopLetter":"K","topMostParentId":"490G00013697"},{"icsId":"1011205","id":"490011205L","lat":51.382246,"lon":-0.284965,"name":"Princes Avenue","parentId":"490G00011205","stationId":"490G00011205","stopLetter":"L","topMostParentId":"490G00011205"},{"icsId":"1008733","id":"490008733P","lat":51.383068,"lon":-0.288239,"name":"King Charles Road","parentId":"490G00008733","stationId":"490G00008733","stopLetter":"LN","topMostParentId":"490G00008733"},{"icsId":"1013033","id":"490013033N","lat":51.384525,"lon":-0.293186,"name":"Broomfield Road","parentId":"490G00013033","stationId":"490G00013033","stopLetter":"LP","topMostParentId":"490G00013033"},{"icsId":"1008305","id":"490008305N","lat":51.385553,"lon":-0.29585,"name":"Hollyfield Road","parentId":"490G00008305","stationId":"490G00008305","stopLetter":"SH","topMostParentId":"490G00008305"},{"icsId":"1004517","id":"490004517N","lat":51.388283,"lon":-0.297487,"name":"Browns Road","parentId":"490G00004517","stationId":"490G00004517","stopLetter":"SJ","topMostParentId":"490G00004517"},{"icsId":"1013032","id":"490013032N","lat":51.390587,"lon":-0.298221,"name":"Surbiton Health Centre","parentId":"490G00013032","stationId":"490G00013032","stopLetter":"SK","topMostParentId":"490G00013032"},{"icsId":"1013038","id":"490013038N","lat":51.393914,"lon":-0.298816,"name":"Surbiton Telephone Exchange","parentId":"490G00013038","stationId":"490G00013038","stopLetter":"SL","topMostParentId":"490G00013038"},{"icsId":"1012776","id":"490012776W","lat":51.394872,"lon":-0.300376,"name":"St Mark's Church","parentId":"490G00012776","stationId":"490G00012776","stopLetter":"NM","topMostParentId":"490G00012776"},{"icsId":"1001285","id":"490001285E","lat":51.393583,"lon":-0.30327,"name":"Surbiton Station","parentId":"490G01285E","stationId":"490G01285E","stopLetter":"NN","topMostParentId":"910GSURBITN"},{"icsId":"1019769","id":"490015165A","lat":51.393908,"lon":-0.304624,"name":"Claremont Road / Surbiton Station","parentId":"490G000949","stationId":"490G000949","stopLetter":"NC","topMostParentId":"490G000949"},{"icsId":"1013315","id":"490013315N","lat":51.396266,"lon":-0.304148,"name":"The Crescent","parentId":"490G00013315","stationId":"490G00013315","stopLetter":"ND","topMostParentId":"490G00013315"},{"icsId":"1009627","id":"490009627N","lat":51.398611,"lon":-0.304579,"name":"Maple Road","parentId":"490G00009627","stationId":"490G00009627","stopLetter":"D","topMostParentId":"490G00009627"},{"icsId":"1013035","id":"490013035N","lat":51.401466,"lon":-0.304272,"name":"Surbiton Road / Penrhyn Road","parentId":"490G00013035","stationId":"490G00013035","stopLetter":"UE","topMostParentId":"490G00013035"},{"icsId":"1008830","id":"490008830N","lat":51.40307,"lon":-0.304529,"name":"Kingston University / County Hall","parentId":"490G00008830","stationId":"490G00008830","stopLetter":"UF","topMostParentId":"490G00008830"},{"icsId":"1005498","id":"490005498N","lat":51.406212,"lon":-0.304169,"name":"Kingston Crown Court / Kingston College","parentId":"490G00005498","stationId":"490G00005498","stopLetter":"UJ","topMostParentId":"490G00005498"},{"icsId":"1004478","id":"490004478G","lat":51.408508,"lon":-0.303739,"name":"Brook Street","parentId":"490G00004478","stationId":"490G00004478","stopLetter":"G","topMostParentId":"490G00004478"},{"icsId":"1006412","id":"490006412E1","lat":51.409959,"lon":-0.302721,"name":"Eden Street","parentId":"490G00006412","stationId":"490G00006412","stopLetter":"E1","topMostParentId":"490G00006412"},{"icsId":"1001173","id":"490001173Q","lat":51.412573,"lon":-0.303157,"name":"Kingston Station","parentId":"490G01173Q","stationId":"490G01173Q","stopLetter":"Q","topMostParentId":"910GKGSTON"},{"icsId":"1003909","id":"490003909P1","lat":51.411491,"lon":-0.305411,"name":"Wood Street","parentId":"490G00003909","stationId":"490G00003909","stopLetter":"P1","topMostParentId":"490G00003909"},{"icsId":"1009430","id":"490009430J","lat":51.412598,"lon":-0.311065,"name":"Lower Teddington Road","parentId":"490G00009430","stationId":"490G00009430","stopLetter":"A","topMostParentId":"490G00009430"},{"icsId":"1001134","id":"490001134A","lat":51.414271,"lon":-0.313016,"name":"Hampton Wick Station","parentId":"490G01134B","stationId":"490G01134B","stopLetter":"B","topMostParentId":"910GHAMWICK"},{"icsId":"1013947","id":"490013947N","lat":51.416375,"lon":-0.314248,"name":"Woffington Close","parentId":"490G00013947","stationId":"490G00013947","stopLetter":"C","topMostParentId":"490G00013947"},{"icsId":"1010311","id":"490010311N","lat":51.418882,"lon":-0.316629,"name":"Fairfax Road","parentId":"490G00010311","stationId":"490G00010311","stopLetter":"D","topMostParentId":"490G00010311"},{"icsId":"1012449","id":"490012449N","lat":51.421256,"lon":-0.319073,"name":"St Mark's Road","parentId":"490G00012449","stationId":"490G00012449","stopLetter":"V","topMostParentId":"490G00012449"},{"icsId":"1003465","id":"490003465N","lat":51.424035,"lon":-0.321647,"name":"Kingston Lane","parentId":"490G00003465","stationId":"490G00003465","stopLetter":"W","topMostParentId":"490G00003465"},{"icsId":"1009699","id":"490009699N","lat":51.426967,"lon":-0.323539,"name":"Marston Road","parentId":"490G00009699","stationId":"490G00009699","stopLetter":"X","topMostParentId":"490G00009699"},{"icsId":"1013174","id":"490013174N","lat":51.42869,"lon":-0.323965,"name":"Teddington Lock","parentId":"490G00013174","stationId":"490G00013174","stopLetter":"Y","topMostParentId":"490G00013174"},{"icsId":"1004709","id":"490004709W","lat":51.427283,"lon":-0.328706,"name":"Cambridge Road","parentId":"490G00004709","stationId":"490G00004709","stopLetter":"Z","topMostParentId":"490G00004709"},{"icsId":"1013172","id":"490013172D","lat":51.426979,"lon":-0.331996,"name":"Elmfield Avenue","parentId":"490G00013172","stationId":"490G00013172","stopLetter":"D","topMostParentId":"490G00013172"},{"icsId":"1004377","id":"490004377F","lat":51.425952,"lon":-0.336867,"name":"Broad Street / Teddington","parentId":"490G00004377","stationId":"490G00004377","stopLetter":"F","topMostParentId":"490G00004377"},{"icsId":"1013176","id":"490013176N","lat":51.427059,"lon":-0.340739,"name":"Teddington Memorial Hospital","parentId":"490G00013176","stationId":"490G00013176","stopLetter":"M","topMostParentId":"490G00013176"},{"icsId":"1007249","id":"490007249N","lat":51.429044,"lon":-0.34317,"name":"Gloucester Road","parentId":"490G00007249","stationId":"490G00007249","stopLetter":"N","topMostParentId":"490G00007249"},{"icsId":"1011215","id":"490011215S1","lat":51.431463,"lon":-0.345687,"name":"Princes Road","parentId":"490G00011215","stationId":"490G00011215","stopLetter":"->N","topMostParentId":"490G00011215"},{"icsId":"1001113","id":"490005445C","lat":51.434853,"lon":-0.346946,"name":"Fulwell Station","parentId":"490G05445D","stationId":"490G05445D","stopLetter":"C","topMostParentId":"910GFULWELL"},{"icsId":"1012333","id":"490012333E","lat":51.435717,"lon":-0.349533,"name":"South Road / Fulwell","parentId":"490G00012333","stationId":"490G00012333","stopLetter":"F","topMostParentId":"490G00012333"},{"icsId":"1007064","id":"490007064E","lat":51.436638,"lon":-0.350449,"name":"Fulwell / Sixth Cross Road","parentId":"490G00007064","stationId":"490G00007064","stopLetter":"J","topMostParentId":"490G00007064"},{"icsId":"1013765","id":"490013765N","lat":51.440257,"lon":-0.346966,"name":"Trafalgar Road / Prince Of Wales","parentId":"490G00013765","stationId":"490G00013765","stopLetter":"SD","topMostParentId":"490G00013765"},{"icsId":"1013865","id":"490013865N","lat":51.442035,"lon":-0.344226,"name":"The Prince Albert / Twickenham","parentId":"490G00013865","stationId":"490G00013865","stopLetter":"GA","topMostParentId":"490G00013865"},{"icsId":"1013869","id":"490013869N","lat":51.443931,"lon":-0.340919,"name":"Twickenham Green","parentId":"490G00013869","stationId":"490G00013869","stopLetter":"GM","topMostParentId":"490G00013869"},{"icsId":"1008009","id":"490008009E","lat":51.445416,"lon":-0.33593,"name":"Heath Road / Grove Avenue","parentId":"490G00008009","stationId":"490G00008009","stopLetter":"GP","topMostParentId":"490G00008009"},{"icsId":"1020202","id":"490008007T","lat":51.445511,"lon":-0.330616,"name":"Heath Road / Twickenham","parentId":"490G00020202","stationId":"490G00020202","stopLetter":"T","topMostParentId":"490G00020202"},{"icsId":"1013871","id":"490013870E","lat":51.448307,"lon":-0.329291,"name":"London Road / Twickenham","parentId":"490G00013871","stationId":"490G00013871","stopLetter":"E","topMostParentId":"490G00013871"},{"icsId":"1001300","id":"490013861B","lat":51.450167,"lon":-0.331108,"name":"Twickenham Station","parentId":"490G13861B","stationId":"490G13861B","stopLetter":"B","topMostParentId":"910GTWCKNHM"},{"icsId":"1007982","id":"490007982N","lat":51.451794,"lon":-0.333611,"name":"Heatham House","parentId":"490G00007982","stationId":"490G00007982","stopLetter":"L","topMostParentId":"490G00007982"},{"icsId":"1005244","id":"490005244N","lat":51.453153,"lon":-0.335548,"name":"Chudleigh Road","parentId":"490G00005244","stationId":"490G00005244","stopLetter":"M","topMostParentId":"490G00005244"},{"icsId":"1013873","id":"490013873W","lat":51.45467,"lon":-0.339796,"name":"Twickenham Stadium","parentId":"490G00013873","stationId":"490G00013873","stopLetter":"N","topMostParentId":"490G00013873"},{"icsId":"1013875","id":"490013875W","lat":51.454006,"lon":-0.343059,"name":"Tayben Avenue","parentId":"490G00013875","stationId":"490G00013875","stopLetter":"P","topMostParentId":"490G00013875"},{"icsId":"1008869","id":"490008869W","lat":51.453687,"lon":-0.347215,"name":"Kneller Hall","parentId":"490G00008869","stationId":"490G00008869","stopLetter":"Q","topMostParentId":"490G00008869"},{"icsId":"1014241","id":"490014241W","lat":51.453801,"lon":-0.352148,"name":"Warren Road","parentId":"490G00014241","stationId":"490G00014241","stopLetter":"V","topMostParentId":"490G00014241"},{"icsId":"1014629","id":"490014629D","lat":51.453556,"lon":-0.356489,"name":"Admiral Nelson / Whitton","parentId":"490G00014629","stationId":"490G00014629","stopLetter":"W","topMostParentId":"490G00014629"},{"icsId":"1014632","id":"490014632N","lat":51.455681,"lon":-0.359896,"name":"Whitton Church","parentId":"490G00014632","stationId":"490G00014632","stopLetter":"->N","topMostParentId":"490G00014632"},{"icsId":"1014634","id":"490014634N","lat":51.458353,"lon":-0.362549,"name":"Whitton Dene","parentId":"490G00014634","stationId":"490G00014634","stopLetter":"SH","topMostParentId":"490G00014634"},{"icsId":"1010808","id":"490010808N","lat":51.460281,"lon":-0.362797,"name":"Park Road","parentId":"490G00010808","stationId":"490G00010808","stopLetter":"SJ","topMostParentId":"490G00010808"},{"icsId":"1001156","id":"490001156B","lat":51.463059,"lon":-0.362784,"name":"Hounslow Station","parentId":"490G01156A","stationId":"490G01156A","stopLetter":"SK","topMostParentId":"910GHOUNSLW"},{"icsId":"1011160","id":"490011160N","lat":51.464435,"lon":-0.362807,"name":"Pownall Gardens","parentId":"490G00011160","stationId":"490G00011160","stopLetter":"SL","topMostParentId":"490G00011160"},{"icsId":"1007573","id":"490007573J","lat":51.466865,"lon":-0.362936,"name":"Grove Road","parentId":"490G00007573","stationId":"490G00007573","stopLetter":"J","topMostParentId":"490G00007573"},{"icsId":"1013777","id":"490013777O","lat":51.467519,"lon":-0.362121,"name":"Treaty Centre","parentId":"490G00013777","stationId":"490G00013777","stopLetter":"O","topMostParentId":"490G00013777"},{"icsId":"1008399","id":"490008399K","lat":51.469449,"lon":-0.358006,"name":"Hounslow High Street","parentId":"490G00008399","stationId":"490G00008399","stopLetter":"K","topMostParentId":"490G00008399"},{"icsId":"1008392","id":"490008392Z1","lat":51.470928,"lon":-0.354454,"name":"Hounslow Bus Station","parentId":"490G000601","stationId":"490G000601","stopLetter":"Z1","topMostParentId":"490G000601"}]}]}