{"direction":"inbound","lineId":"290","lineName":"290","mode":"bus","stopPointSequences":[{"stopPoint":[{"icsId":"1013862","id":"490013862G","lat":51.449023,"lon":-0.329063,"name":"Arragon Road","parentId":"490G000809","stationId":"490G000809","stopLetter":"D","topMostParentId":"490G000809"},{"icsId":"1013871","id":"490013871F","lat":51.448521,"lon":-0.329182,"name":"London Road / Twickenham","parentId":"490G00013871","stationId":"490G00013871","stopLetter":"F","topMostParentId":"490G00013871"},{"icsId":"1020202","id":"490020202W","lat":51.445291,"lon":-0.330955,"name":"Heath Road / Twickenham","parentId":"490G00020202","stationId":"490G00020202","stopLetter":"K","topMostParentId":"490G00020202"},{"icsId":"1008009","id":"490008009W","lat":51.445269,"lon":-0.336324,"name":"Heath Road / Grove Avenue","parentId":"490G00008009","stationId":"490G00008009","stopLetter":"GS","topMostParentId":"490G00008009"},{"icsId":"1013869","id":"490013869S","lat":51.443904,"lon":-0.340892,"name":"Twickenham Green","parentId":"490G00013869","stationId":"490G00013869","stopLetter":"GT","topMostParentId":"490G00013869"},{"icsId":"1013865","id":"490013865S","lat":51.442364,"lon":-0.343278,"name":"The Prince Albert / Twickenham","parentId":"490G00013865","stationId":"490G00013865","stopLetter":"GB","topMostParentId":"490G00013865"},{"icsId":"1013765","id":"490013765S","lat":51.439539,"lon":-0.347668,"name":"Trafalgar Road / Prince Of Wales","parentId":"490G00013765","stationId":"490G00013765","stopLetter":"SC","topMostParentId":"490G00013765"},{"icsId":"1007064","id":"490007064F","lat":51.436849,"lon":-0.350111,"name":"Fulwell / Sixth Cross Road","parentId":"490G00007064","stationId":"490G00007064","stopLetter":"H","topMostParentId":"490G00007064"},{"icsId":"1006828","id":"490006828W","lat":51.436406,"lon":-0.354443,"name":"Fielding Avenue","parentId":"490G00006828","stationId":"490G00006828","stopLetter":"L","topMostParentId":"490G00006828"},{"icsId":"1012487","id":"490012487W","lat":51.438933,"lon":-0.360856,"name":"Staines Road","parentId":"490G00012487","stationId":"490G00012487","stopLetter":"M","topMostParentId":"490G00012487"},{"icsId":"1014251","id":"490014251W","lat":51.438771,"lon":-0.364113,"name":"Warwick Lodge / Staines Road","parentId":"490G00014251","stationId":"490G00014251","stopLetter":"U","topMostParentId":"490G00014251"},{"icsId":"1005651","id":"490005651W","lat":51.438043,"lon":-0.367995,"name":"Court Close Avenue","parentId":"490G00005651","stationId":"490G00005651","stopLetter":"V","topMostParentId":"490G00005651"},{"icsId":"1013868","id":"490013868W","lat":51.437306,"lon":-0.371892,"name":"Twickenham Golf Centre","parentId":"490G00013868","stationId":"490G00013868","stopLetter":"K","topMostParentId":"490G00013868"},{"icsId":"1007764","id":"490007764W2","lat":51.436599,"lon":-0.376665,"name":"Twickenham Road","parentId":"490G00007764","stationId":"490G00007764","stopLetter":"L","topMostParentId":"490G00007764"},{"icsId":"1015343","id":"490015343S2","lat":51.435801,"lon":-0.376866,"name":"Hampton Road East","parentId":"490G00015343","stationId":"490G00015343","stopLetter":"E","topMostParentId":"490G00015343"},{"icsId":"1007770","id":"490007770N","lat":51.434717,"lon":-0.375178,"name":"Uxbridge Road / Hampton Sainsbury's","parentId":"490G00007770","stationId":"490G00007770","stopLetter":"S","topMostParentId":"490G00007770"},{"icsId":"1015343","id":"490015343N","lat":51.435709,"lon":-0.377329,"name":"Hampton Road East","parentId":"490G00015343","stationId":"490G00015343","stopLetter":"T","topMostParentId":"490G00015343"},{"icsId":"1015344","id":"490015344W","lat":51.435839,"lon":-0.380231,"name":"Apex Corner / Country Way","parentId":"490G00015344","stationId":"490G00015344","stopLetter":"M","topMostParentId":"490G00015344"},{"icsId":"1005778","id":"490005778W","lat":51.435131,"lon":-0.384299,"name":"Crispen Road","parentId":"490G00005778","stationId":"490G00005778","stopLetter":"N","topMostParentId":"490G00005778"},{"icsId":"1003718","id":"490003718W","lat":51.433169,"lon":-0.392669,"name":"Bear Road Flyover","parentId":"490G00003718","stationId":"490G00003718","stopLetter":"BB","topMostParentId":"490G00003718"},{"icsId":"1005288","id":"490005288W","lat":51.431378,"lon":-0.397839,"name":"Church Road","parentId":"490G00005288","stationId":"490G00005288","stopLetter":"Y","topMostParentId":"490G00005288"},{"icsId":"1010148","id":"490010148W","lat":51.430517,"lon":-0.400659,"name":"Nallhead Road","parentId":"490G00010148","stationId":"490G00010148","stopLetter":"Z","topMostParentId":"490G00010148"},{"icsId":"1010814","id":"40004402059A","lat":51.421482,"lon":-0.412078,"name":"Park Road","parentId":"400G4402059A","stationId":"400G4402059A","topMostParentId":"910GKMPTNPK"},{"icsId":"1012488","id":"40004402211A","lat":51.420406,"lon":-0.415611,"name":"Staines Road East","topMostParentId":"40004402211A"},{"icsId":"1013006","id":"40004402064D","lat":51.419349,"lon":-0.421242,"name":"Sunbury Cross","parentId":"400G4402064D","stationId":"400G4402064D","topMostParentId":"910GSUNBURY"},{"icsId":"1012374","id":"40004402065B","lat":51.419793,"lon":-0.424808,"name":"Spelthorne Grove","parentId":"400G4402065A","stationId":"400G4402065A","topMostParentId":"400G4402065A"},{"icsId":"1014770","id":"40004402066A","lat":51.420264,"lon":-0.428473,"name":"Windmill Road","parentId":"400G4402066B","stationId":"400G4402066B","topMostParentId":"400G4402066B"},{"icsId":"1010150","id":"40004402067B","lat":51.421177,"lon":-0.435504,"name":"Napier Road","parentId":"400G4402067A","stationId":"400G4402067A","topMostParentId":"400G4402067A"},{"icsId":"1003430","id":"40004402091B","lat":51.421999,"lon":-0.441862,"name":"Chertsey Road","parentId":"400G4402091D","stationId":"400G4402091D","topMostParentId":"400G4402091D"},{"icsId":"1003433","id":"40004402098B","lat":51.424209,"lon":-0.449841,"name":"Ashford Road","parentId":"400G4402098B","stationId":"400G4402098B","topMostParentId":"400G4402098B"},{"icsId":"1013306","id":"40004402099A","lat":51.427261,"lon":-0.452198,"name":"The Coppice / School Road","parentId":"400G4402099A","stationId":"400G4402099A","topMostParentId":"400G4402099A"},{"icsId":"1009840","id":"40004402100B","lat":51.429758,"lon":-0.453969,"name":"Metcalf Road / The Ash Tree","parentId":"400G4402100B","stationId":"400G4402100B","topMostParentId":"400G4402100B"},{"icsId":"1005293","id":"40004402169A","lat":51.431444,"lon":-0.457048,"name":"Town Tree Road","parentId":"400G4402169B","stationId":"400G4402169B","topMostParentId":"400G4402169B"},{"icsId":"1003434","id":"40004402106B","lat":51.432532,"lon":-0.461183,"name":"Ashford War Memorial","parentId":"400G4402106A","stationId":"400G4402106A","topMostParentId":"400G4402106A"},{"icsId":"1007077","id":"40004402109B","lat":51.429684,"lon":-0.465465,"name":"Gables Avenue","parentId":"400G4402109B","stationId":"400G4402109B","topMostParentId":"400G4402109B"},{"icsId":"1006895","id":"40004402110B","lat":51.427573,"lon":-0.471132,"name":"Fordbridge Roundabout","parentId":"400G4402110B","stationId":"400G4402110B","topMostParentId":"400G4402110B"},{"icsId":"1003432","id":"40004402111B","lat":51.425896,"lon":-0.475661,"name":"Ashford Road","parentId":"400G4402111B","stationId":"400G4402111B","topMostParentId":"400G4402111B"},{"icsId":"1019819","id":"40004402116B","lat":51.426618,"lon":-0.481405,"name":"Edinburgh Drive","parentId":"400G4402116A","stationId":"400G4402116A","topMostParentId":"400G4402116A"},{"icsId":"1010965","id":"40004402117B","lat":51.427072,"lon":-0.485216,"name":"Petersfield Avenue","parentId":"400G4402117A","stationId":"400G4402117A","topMostParentId":"400G4402117A"},{"icsId":"1006797","id":"40004402118B","lat":51.427534,"lon":-0.488926,"name":"Fenton Avenue","parentId":"400G4402118A","stationId":"400G4402118A","topMostParentId":"400G4402118A"},{"icsId":"1014947","id":"40004402119D","lat":51.428399,"lon":-0.493976,"name":"Worple Road","parentId":"400G4402119D","stationId":"400G4402119D","topMostParentId":"400G4402119D"},{"icsId":"1008886","id":"40004402120A","lat":51.429785,"lon":-0.49685,"name":"Knowle Green","parentId":"400G4402120B","stationId":"400G4402120B","topMostParentId":"400G4402120B"},{"icsId":"1012476","id":"40004402122A","lat":51.433473,"lon":-0.503275,"name":"Staines Station","parentId":"400G4402122B","stationId":"400G4402122B","stopLetter":"T","topMostParentId":"910GSTAINES"},{"icsId":"1012481","id":"40004402124A","lat":51.434674,"lon":-0.505049,"name":"Staines Police Station","parentId":"400G4402124A","stationId":"400G4402124A","stopLetter":"M","topMostParentId":"400G4402124A"},{"icsId":"1012337","id":"40004402209A","lat":51.434558,"lon":-0.508649,"name":"South Street","stopLetter":"K","topMostParentId":"40004402209A"},{"icsId":"1012479","id":"40004402126J","lat":51.432241,"lon":-0.509602,"name":"Staines Bus Station","parentId":"400G4402126A","stationId":"400G4402126A","stopLetter":"5","topMostParentId":"400G4402126A"}]}]}