{"direction":"inbound","lineId":"293","lineName":"293","mode":"bus","stopPointSequences":[{"stopPoint":[{"icsId":"1006605","id":"40004406036B","lat":51.326276,"lon":-0.274494,"name":"Epsom Hospital","parentId":"400G4406036A","stationId":"400G4406036A","stopLetter":"Q","topMostParentId":"400G4406036A"},{"icsId":"1006396","id":"40004406114B","lat":51.325324,"lon":-0.278247,"name":"Westlands Court","parentId":"400G4406114C","stationId":"400G4406114C","topMostParentId":"400G4406114C"},{"icsId":"1018348","id":"40004406164A","lat":51.321252,"lon":-0.278371,"name":"Woodcote Side","topMostParentId":"40004406164A"},{"icsId":"1014831","id":"40004406009B","lat":51.322774,"lon":-0.274884,"name":"Hylands Road","parentId":"400G4406009B","stationId":"400G4406009B","topMostParentId":"400G4406009B"},{"icsId":"1014830","id":"40004406010B","lat":51.324189,"lon":-0.272047,"name":"Woodcote Green Road","parentId":"400G4406010A","stationId":"400G4406010A","stopLetter":"S","topMostParentId":"400G4406010A"},{"icsId":"1014826","id":"40004406011B","lat":51.327996,"lon":-0.270411,"name":"Avenue Road","parentId":"400G4406011A","stationId":"400G4406011A","topMostParentId":"400G4406011A"},{"icsId":"1006600","id":"40004406038C","lat":51.333193,"lon":-0.269153,"name":"Epsom Clock Tower","parentId":"400G4406038A","stationId":"400G4406038A","stopLetter":"C","topMostParentId":"910GEPSM"},{"icsId":"1006610","id":"40004406039A","lat":51.333991,"lon":-0.265347,"name":"Epsom High Street","parentId":"400G4406039A","stationId":"400G4406039A","stopLetter":"G","topMostParentId":"910GEPSM"},{"icsId":"1015601","id":"40004406040A","lat":51.336319,"lon":-0.260996,"name":"Rainbow Leisure Centre","parentId":"400G4406040A","stationId":"400G4406040A","topMostParentId":"400G4406040A"},{"icsId":"1008717","id":"40004406117A","lat":51.338032,"lon":-0.258304,"name":"Kiln Lane","parentId":"400G4406117A","stationId":"400G4406117A","topMostParentId":"400G4406117A"},{"icsId":"1015600","id":"40004406041A","lat":51.339588,"lon":-0.25589,"name":"Windmill Lane","parentId":"400G4406041A","stationId":"400G4406041A","topMostParentId":"400G4406041A"},{"icsId":"1008111","id":"40004406043A","lat":51.342954,"lon":-0.25246,"name":"Hessle Grove","parentId":"400G4406043A","stationId":"400G4406043A","topMostParentId":"400G4406043A"},{"icsId":"1015599","id":"40004406044A","lat":51.344965,"lon":-0.251637,"name":"Mongers Lane","parentId":"400G4406044A","stationId":"400G4406044A","topMostParentId":"400G4406044A"},{"icsId":"1006676","id":"40004406045A","lat":51.346867,"lon":-0.250731,"name":"Reigate Road / Green Man","parentId":"400G4406045A","stationId":"400G4406045A","topMostParentId":"400G4406045A"},{"icsId":"1006679","id":"40004406915A","lat":51.350565,"lon":-0.25026,"name":"The Spring","parentId":"400G4406055B","stationId":"400G4406055B","topMostParentId":"400G4406055B"},{"icsId":"1012795","id":"40004406056A","lat":51.353785,"lon":-0.246677,"name":"Welbeck Close","parentId":"400G4406056A","stationId":"400G4406056A","topMostParentId":"400G4406056A"},{"icsId":"1010755","id":"40004406058A","lat":51.355512,"lon":-0.243709,"name":"Ewell Park Way","parentId":"400G4406058A","stationId":"400G4406058A","topMostParentId":"400G4406058A"},{"icsId":"1004311","id":"40004406059A","lat":51.359805,"lon":-0.239724,"name":"Briarwood Road","parentId":"400G4406059A","stationId":"400G4406059A","topMostParentId":"400G4406059A"},{"icsId":"1010293","id":"40004406060A","lat":51.362595,"lon":-0.236931,"name":"Nonsuch Park","parentId":"400G4406060A","stationId":"400G4406060A","topMostParentId":"400G4406060A"},{"icsId":"1012370","id":"40004406146A","lat":51.364779,"lon":-0.234463,"name":"Sparrow Farm Road","parentId":"400G4406145A","stationId":"400G4406145A","topMostParentId":"400G4406145A"},{"icsId":"1010502","id":"490010502W","lat":51.36798,"lon":-0.231423,"name":"Oaks Avenue","parentId":"490G00010502","stationId":"490G00010502","stopLetter":"W","topMostParentId":"490G00010502"},{"icsId":"1010323","id":"490010323C","lat":51.371651,"lon":-0.227403,"name":"North Cheam / Queen Victoria","parentId":"490G00010323","stationId":"490G00010323","stopLetter":"C","topMostParentId":"490G00010323"},{"icsId":"1010325","id":"490010325N","lat":51.374876,"lon":-0.224218,"name":"North Cheam Sports Club","parentId":"490G00010325","stationId":"490G00010325","stopLetter":"HJ","topMostParentId":"490G00010325"},{"icsId":"1008948","id":"490008948N1","lat":51.376447,"lon":-0.222246,"name":"Langley Avenue","parentId":"490G00008948","stationId":"490G00008948","stopLetter":"HK","topMostParentId":"490G00008948"},{"icsId":"1012580","id":"490012580N","lat":51.377934,"lon":-0.220708,"name":"St Anthony's Hospital","parentId":"490G00012580","stationId":"490G00012580","stopLetter":"HL","topMostParentId":"490G00012580"},{"icsId":"1007130","id":"490007130AF","lat":51.380663,"lon":-0.21803,"name":"Garth Road / Stonecot Hill","parentId":"490G00007130","stationId":"490G00007130","stopLetter":"HP","topMostParentId":"490G00007130"},{"icsId":"1016460","id":"490016460N","lat":51.383956,"lon":-0.224671,"name":"Alpha Place","parentId":"490G00016460","stationId":"490G00016460","stopLetter":"->N","topMostParentId":"490G00016460"},{"icsId":"1016493","id":"490016493N","lat":51.389153,"lon":-0.226956,"name":"Rosebery Close","parentId":"490G00016493","stationId":"490G00016493","stopLetter":"LE","topMostParentId":"490G00016493"},{"icsId":"1016459","id":"490016459N","lat":51.390452,"lon":-0.226044,"name":"Lower Morden Lane / Morden Cemetery","parentId":"490G00016459","stationId":"490G00016459","stopLetter":"LF","topMostParentId":"490G00016459"},{"icsId":"1009429","id":"490009424E","lat":51.391439,"lon":-0.22178,"name":"Tudor Drive","parentId":"490G00009429","stationId":"490G00009429","stopLetter":"HE","topMostParentId":"490G00009429"},{"icsId":"1005317","id":"490005317E","lat":51.392941,"lon":-0.21705,"name":"Churston Drive","parentId":"490G00005317","stationId":"490G00005317","stopLetter":"HF","topMostParentId":"490G00005317"},{"icsId":"1008212","id":"490008212E","lat":51.395308,"lon":-0.214198,"name":"Hillcross Avenue","parentId":"490G00008212","stationId":"490G00008212","stopLetter":"HG","topMostParentId":"490G00008212"},{"icsId":"1009974","id":"490009974E","lat":51.397148,"lon":-0.211639,"name":"Monkleigh Road","parentId":"490G00009974","stationId":"490G00009974","stopLetter":"HH","topMostParentId":"490G00009974"},{"icsId":"1003447","id":"490003447E","lat":51.398404,"lon":-0.206731,"name":"Ashridge Way","parentId":"490G00003447","stationId":"490G00003447","stopLetter":"A","topMostParentId":"490G00003447"},{"icsId":"1009731","id":"490009731E","lat":51.399306,"lon":-0.202829,"name":"Maycross Avenue","parentId":"490G00009731","stationId":"490G00009731","stopLetter":"B","topMostParentId":"490G00009731"},{"icsId":"1009187","id":"490009187N","lat":51.401151,"lon":-0.199953,"name":"Links Avenue","parentId":"490G00009187","stationId":"490G00009187","stopLetter":"C","topMostParentId":"490G00009187"},{"icsId":"1000151","id":"490000151K","lat":51.401893,"lon":-0.195568,"name":"Morden Station","parentId":"490G00151H","stationId":"490G00151H","stopLetter":"M","topMostParentId":"940GZZLUMDN","zone":"4"}]}]}