{"direction":"inbound","lineId":"296","lineName":"296","mode":"bus","stopPointSequences":[{"stopPoint":[{"icsId":"1011626","id":"490011626C","lat":51.557061,"lon":0.067999,"name":"Roden Street","parentId":"490G00011626","stationId":"490G00011626","stopLetter":"C","topMostParentId":"490G00011626"},{"icsId":"1001157","id":"490001157H","lat":51.55893,"lon":0.070104,"name":"Ilford Station","parentId":"490G01157G","stationId":"490G01157G","stopLetter":"H","topMostParentId":"910GILFORD"},{"icsId":"1013966","id":"490013966J","lat":51.561905,"lon":0.06819,"name":"Beal Road","parentId":"490G00013966","stationId":"490G00013966","stopLetter":"VK","topMostParentId":"490G00013966"},{"icsId":"1013331","id":"490013331W","lat":51.564484,"lon":0.066244,"name":"Northbrook Road","parentId":"490G00013331","stationId":"490G00013331","stopLetter":"VM","topMostParentId":"490G00013331"},{"icsId":"1013988","id":"490013988N","lat":51.567676,"lon":0.065249,"name":"Valentines Park","parentId":"490G00013988","stationId":"490G00013988","stopLetter":"VP","topMostParentId":"490G00013988"},{"icsId":"1003947","id":"490003947N","lat":51.570244,"lon":0.063893,"name":"Bethell Avenue","parentId":"490G00003947","stationId":"490G00003947","stopLetter":"VR","topMostParentId":"490G00003947"},{"icsId":"1003828","id":"490003828N","lat":51.572831,"lon":0.065107,"name":"Beehive Lane","parentId":"490G00003828","stationId":"490G00003828","stopLetter":"CM","topMostParentId":"490G00003828"},{"icsId":"1015202","id":"490015202M","lat":51.575899,"lon":0.06604,"name":"Gants Hill Station / Cranbrook Road","parentId":"490G000878","stationId":"490G000878","stopLetter":"CN","topMostParentId":"490G000878"},{"icsId":"1015201","id":"490015201K","lat":51.576394,"lon":0.06804,"name":"Parham Drive","parentId":"490G000877","stationId":"490G000877","stopLetter":"EC","topMostParentId":"490G000877"},{"icsId":"1003452","id":"490003452E","lat":51.575282,"lon":0.073993,"name":"Ashurst Drive","parentId":"490G00003452","stationId":"490G00003452","stopLetter":"ED","topMostParentId":"490G00003452"},{"icsId":"1019805","id":"490009930E","lat":51.574669,"lon":0.077645,"name":"Denham Drive","parentId":"490G00019805","stationId":"490G00019805","stopLetter":"EE","topMostParentId":"490G00019805"},{"icsId":"1008371","id":"490008371E","lat":51.573746,"lon":0.083029,"name":"Horns Road","parentId":"490G00008371","stationId":"490G00008371","stopLetter":"NL","topMostParentId":"490G00008371"},{"icsId":"1008752","id":"490008752E","lat":51.574722,"lon":0.087837,"name":"King George Avenue","parentId":"490G000622","stationId":"490G000622","stopLetter":"ND","topMostParentId":"490G000622"},{"icsId":"1000154","id":"490000154A","lat":51.575602,"lon":0.090446,"name":"Newbury Park Station","parentId":"490G00154B","stationId":"490G00154B","stopLetter":"NA","topMostParentId":"940GZZLUNBP","zone":"4"},{"icsId":"1010504","id":"490010504E","lat":51.57602,"lon":0.094708,"name":"Oaks Lane","parentId":"490G00010504","stationId":"490G00010504","stopLetter":"NC","topMostParentId":"490G00010504"},{"icsId":"1003171","id":"490003171E","lat":51.577566,"lon":0.098315,"name":"Aldborough Road North","parentId":"490G000383","stationId":"490G000383","stopLetter":"NG","topMostParentId":"490G000383"},{"icsId":"1011412","id":"490011412E","lat":51.580353,"lon":0.103842,"name":"Ramsgill Drive","parentId":"490G00011412","stationId":"490G00011412","stopLetter":"->E","topMostParentId":"490G00011412"},{"icsId":"1003696","id":"490003696E","lat":51.581923,"lon":0.108057,"name":"Bawdsey Avenue","parentId":"490G00003696","stationId":"490G00003696","stopLetter":"->E","topMostParentId":"490G00003696"},{"icsId":"1003620","id":"490003620D","lat":51.582624,"lon":0.11561,"name":"Barley Lane","parentId":"490G00003620","stationId":"490G00003620","stopLetter":"D","topMostParentId":"490G00003620"},{"icsId":"1007652","id":"490007651E1","lat":51.585776,"lon":0.119841,"name":"Hainault Road","parentId":"490G00007652","stationId":"490G00007652","stopLetter":"->E","topMostParentId":"490G00007652"},{"icsId":"1007651","id":"490007651E","lat":51.586593,"lon":0.124874,"name":"Red House Farm","parentId":"490G00007651","stationId":"490G00007651","topMostParentId":"490G00007651"},{"icsId":"1010718","id":"490010718E","lat":51.587391,"lon":0.129488,"name":"Padnall Road","parentId":"490G00010718","stationId":"490G00010718","stopLetter":"J","topMostParentId":"490G00010718"},{"icsId":"1004004","id":"490004004S","lat":51.587409,"lon":0.134426,"name":"Rose Lane / Billet Road","parentId":"490G00004004","stationId":"490G00004004","stopLetter":"E","topMostParentId":"490G00004004"},{"icsId":"1000458","id":"490009014S","lat":51.584387,"lon":0.135944,"name":"Marks Gate Community Centre","parentId":"490G000104","stationId":"490G000104","stopLetter":"F","topMostParentId":"490G000104"},{"icsId":"1014548","id":"490014548E","lat":51.582866,"lon":0.14042,"name":"Whalebone Lane North","parentId":"490G00014548","stationId":"490G00014548","stopLetter":"G","topMostParentId":"490G00014548"},{"icsId":"1009722","id":"490009720E","lat":51.582804,"lon":0.166341,"name":"Mawney Road","parentId":"490G00009722","stationId":"490G00009722","stopLetter":"M","topMostParentId":"490G00009722"},{"icsId":"1008747","id":"490008747E","lat":51.584872,"lon":0.169789,"name":"King George Close","parentId":"490G00008747","stationId":"490G00008747","stopLetter":"NH","topMostParentId":"490G00008747"},{"icsId":"1011658","id":"490011658S","lat":51.583717,"lon":0.174829,"name":"Romford Bus Garage","parentId":"490G00011658","stationId":"490G00011658","stopLetter":"NS","topMostParentId":"490G00011658"},{"icsId":"1004467","id":"490013240S","lat":51.581865,"lon":0.176776,"name":"The Avenue","parentId":"490G00004467","stationId":"490G00004467","stopLetter":"J","topMostParentId":"490G00004467"},{"icsId":"1011659","id":"490011659E","lat":51.580704,"lon":0.182133,"name":"Romford Market","parentId":"490G00011659","stationId":"490G00011659","stopLetter":"E","topMostParentId":"490G00011659"},{"icsId":"1014452","id":"490014448S","lat":51.577501,"lon":0.185097,"name":"Western Road","parentId":"490G00014452","stationId":"490G00014452","stopLetter":"QQ","topMostParentId":"490G00014452"},{"icsId":"1001243","id":"490001243W","lat":51.57396,"lon":0.183037,"name":"Romford Station","parentId":"490G01243W","stationId":"490G01243W","topMostParentId":"910GROMFORD"}]}]}