{"direction":"inbound","lineId":"299","lineName":"299","mode":"bus","stopPointSequences":[{"stopPoint":[{"icsId":"1000053","id":"490000053B","lat":51.65152,"lon":-0.149764,"name":"Cockfosters Station","parentId":"490G00053N2","stationId":"490G00053N2","stopLetter":"B","topMostParentId":"940GZZLUCKS","zone":"5"},{"icsId":"1013790","id":"490013790D","lat":51.647279,"lon":-0.147103,"name":"Freston Gardens","parentId":"490G00013790","stationId":"490G00013790","stopLetter":"D","topMostParentId":"490G00013790"},{"icsId":"1005455","id":"490005455E","lat":51.645354,"lon":-0.144826,"name":"Cockfosters Road","parentId":"490G00005455","stationId":"490G00005455","stopLetter":"E","topMostParentId":"490G00005455"},{"icsId":"1010869","id":"490010869E","lat":51.64592,"lon":-0.138559,"name":"Peace Close","parentId":"490G00010869","stationId":"490G00010869","stopLetter":"E","topMostParentId":"490G00010869"},{"icsId":"1005040","id":"490005040S","lat":51.636181,"lon":-0.137368,"name":"Avenue Road","parentId":"490G00005040","stationId":"490G00005040","stopLetter":"R","topMostParentId":"490G00005040"},{"icsId":"1012298","id":"490012298S","lat":51.634952,"lon":-0.13473,"name":"Southgate Asda","parentId":"490G00012298","stationId":"490G00012298","stopLetter":"K","topMostParentId":"490G00012298"},{"icsId":"1012300","id":"490012300L","lat":51.633239,"lon":-0.130494,"name":"Southgate Police Station","parentId":"490G00012300","stationId":"490G00012300","stopLetter":"L","topMostParentId":"490G00012300"},{"icsId":"1000210","id":"490000210C","lat":51.63211,"lon":-0.127897,"name":"Southgate Station","parentId":"490G00210G","stationId":"490G00210G","stopLetter":"C","topMostParentId":"940GZZLUSGT","zone":"4"},{"icsId":"1012299","id":"490012299S","lat":51.629336,"lon":-0.127678,"name":"Southgate College","parentId":"490G00012299","stationId":"490G00012299","stopLetter":"S","topMostParentId":"490G00012299"},{"icsId":"1009773","id":"490009773S","lat":51.625356,"lon":-0.124519,"name":"Meadway","parentId":"490G00009773","stationId":"490G00009773","stopLetter":"A","topMostParentId":"490G00009773"},{"icsId":"1014999","id":"490014999S","lat":51.624306,"lon":-0.123494,"name":"Ye Olde Cherry Tree","parentId":"490G00014999","stationId":"490G00014999","stopLetter":"B","topMostParentId":"490G00014999"},{"icsId":"1006908","id":"490006908S","lat":51.621551,"lon":-0.121628,"name":"Forestdale","parentId":"490G00006908","stationId":"490G00006908","stopLetter":"C","topMostParentId":"490G00006908"},{"icsId":"1014717","id":"490014717S","lat":51.617687,"lon":-0.122351,"name":"Wilmer Way","parentId":"490G00014717","stationId":"490G00014717","stopLetter":"E","topMostParentId":"490G00014717"},{"icsId":"1004487","id":"490004487S","lat":51.615977,"lon":-0.119446,"name":"Broomfield Lane","parentId":"490G00004487","stationId":"490G00004487","stopLetter":"->S","topMostParentId":"490G00004487"},{"icsId":"1019109","id":"490004214S","lat":51.613449,"lon":-0.121081,"name":"Westminster Drive","parentId":"490G00019109","stationId":"490G00019109","stopLetter":"GT","topMostParentId":"490G00019109"},{"icsId":"1004214","id":"490004490S","lat":51.612093,"lon":-0.12173,"name":"Bowes Road","parentId":"490G00004214","stationId":"490G00004214","stopLetter":"GK","topMostParentId":"490G00004214"},{"icsId":"1015014","id":"490015014S","lat":51.609627,"lon":-0.122756,"name":"York Road","parentId":"490G00015014","stationId":"490G00015014","stopLetter":"GB","topMostParentId":"490G00015014"},{"icsId":"1000028","id":"490000028D","lat":51.607555,"lon":-0.123636,"name":"Bounds Green Station","parentId":"490G00028C","stationId":"490G00028C","stopLetter":"BB","topMostParentId":"940GZZLUBDS","zone":"3+4"},{"icsId":"1014844","id":"490014844S","lat":51.604872,"lon":-0.127328,"name":"Woodfield Way","parentId":"490G00014844","stationId":"490G00014844","stopLetter":"GZ","topMostParentId":"490G00014844"},{"icsId":"1003158","id":"490003158S","lat":51.601675,"lon":-0.131603,"name":"Albert Road","parentId":"490G00003158","stationId":"490G00003158","stopLetter":"->S","topMostParentId":"490G00003158"},{"icsId":"1014061","id":"490014061S","lat":51.600075,"lon":-0.13499,"name":"Victoria Road","parentId":"490G00014061","stationId":"490G00014061","topMostParentId":"490G00014061"},{"icsId":"1011684","id":"490011684S","lat":51.598482,"lon":-0.13829,"name":"Rosebery Road","parentId":"490G00011684","stationId":"490G00011684","topMostParentId":"490G00011684"},{"icsId":"1014757","id":"490014757W","lat":51.597555,"lon":-0.141677,"name":"St Andrew's Church","parentId":"490G00014757","stationId":"490G00014757","topMostParentId":"490G00014757"},{"icsId":"1005509","id":"490005509S","lat":51.595678,"lon":-0.144699,"name":"Colney Hatch Lane","parentId":"490G00005509","stationId":"490G00005509","stopLetter":"CS","topMostParentId":"490G00005509"},{"icsId":"1015187","id":"490015186B","lat":51.591637,"lon":-0.142756,"name":"Muswell Hill","parentId":"490G00015187","stationId":"490G00015187","stopLetter":"B","topMostParentId":"490G00015187"}]}]}