{"direction":"inbound","lineId":"301","lineName":"301","mode":"bus","stopPointSequences":[{"stopPoint":[{"icsId":"1014934","id":"490014934E","lat":51.491399,"lon":0.071379,"name":"Plumstead Road / Woolwich Public Market","parentId":"490G00014934","stationId":"490G00014934","stopLetter":"K","topMostParentId":"490G00014934"},{"icsId":"1009723","id":"490009723E","lat":51.49117,"lon":0.077232,"name":"Maxey Road","parentId":"490G00009723","stationId":"490G00009723","stopLetter":"->E","topMostParentId":"490G00009723"},{"icsId":"1011069","id":"490011069A","lat":51.491037,"lon":0.081158,"name":"Plumstead Bus Garage","parentId":"490G00011069","stationId":"490G00011069","stopLetter":"A","topMostParentId":"490G00011069"},{"icsId":"1010975","id":"490010975E","lat":51.490803,"lon":0.08727,"name":"Pettman Crescent","parentId":"490G00010975","stationId":"490G00010975","stopLetter":"P","topMostParentId":"490G00010975"},{"icsId":"1007629","id":"490007629E","lat":51.49178,"lon":0.091463,"name":"Hadden Road","parentId":"490G00007629","stationId":"490G00007629","stopLetter":"R","topMostParentId":"490G00007629"},{"icsId":"1004179","id":"490004179E","lat":51.493034,"lon":0.094272,"name":"Boughton Road","parentId":"490G00004179","stationId":"490G00004179","stopLetter":"->E","topMostParentId":"490G00004179"},{"icsId":"1011256","id":"490011256E","lat":51.495523,"lon":0.09842,"name":"Purland Road West","parentId":"490G00011256","stationId":"490G00011256","stopLetter":"P","topMostParentId":"490G00011256"},{"icsId":"1011255","id":"490011255E","lat":51.495357,"lon":0.102663,"name":"Purland Road East","parentId":"490G00011255","stationId":"490G00011255","stopLetter":"Q","topMostParentId":"490G00011255"},{"icsId":"1006344","id":"490006344N","lat":51.497939,"lon":0.104568,"name":"Nathan Way / Eastern Way","parentId":"490G00006344","stationId":"490G00006344","stopLetter":"R","topMostParentId":"490G00006344"},{"icsId":"1007382","id":"490007382N","lat":51.502368,"lon":0.102856,"name":"Grasshaven Way","parentId":"490G00007382","stationId":"490G00007382","stopLetter":"Y","topMostParentId":"490G00007382"},{"icsId":"1014285","id":"490014285N","lat":51.505131,"lon":0.104712,"name":"Watersmeet Place","parentId":"490G00014285","stationId":"490G00014285","stopLetter":"->N","topMostParentId":"490G00014285"},{"icsId":"1016617","id":"490013214B","lat":51.505977,"lon":0.106711,"name":"Central Way / Thamesmead Town Centre","parentId":"490G00016617","stationId":"490G00016617","stopLetter":"B","topMostParentId":"490G00016617"},{"icsId":"1007092","id":"490007092G","lat":51.505902,"lon":0.110829,"name":"Gallions Reach Health Centre","parentId":"490G00007092","stationId":"490G00007092","stopLetter":"G","topMostParentId":"490G00007092"},{"icsId":"1007923","id":"490007923S","lat":51.503883,"lon":0.111615,"name":"Hawksmoor School","parentId":"490G00007923","stationId":"490G00007923","stopLetter":"SA","topMostParentId":"490G00007923"},{"icsId":"1012364","id":"490012364S","lat":51.50227,"lon":0.112808,"name":"Southwood Road","parentId":"490G00012364","stationId":"490G00012364","stopLetter":"SB","topMostParentId":"490G00012364"},{"icsId":"1013459","id":"490013459E","lat":51.503668,"lon":0.117556,"name":"Titmuss Avenue","parentId":"490G00013459","stationId":"490G00013459","stopLetter":"SC","topMostParentId":"490G00013459"},{"icsId":"1004130","id":"490004130S","lat":51.503737,"lon":0.119202,"name":"Carlyle Road / Crossway","parentId":"490G00004130","stationId":"490G00004130","stopLetter":"SJ","topMostParentId":"490G00004130"},{"icsId":"1010190","id":"490010190S","lat":51.497482,"lon":0.121476,"name":"Newacres Library","parentId":"490G00010190","stationId":"490G00010190","stopLetter":"->S","topMostParentId":"490G00010190"},{"icsId":"1013257","id":"490013257B","lat":51.49523,"lon":0.121199,"name":"Harrow Manorway / Yarnton Way","parentId":"490G00013257","stationId":"490G00013257","stopLetter":"B","topMostParentId":"490G00013257"},{"icsId":"1010675","id":"490010675BA","lat":51.493486,"lon":0.121175,"name":"Overton Road","parentId":"490G00010675","stationId":"490G00010675","stopLetter":"BA","topMostParentId":"490G00010675"},{"icsId":"1019855","id":"490001001D","lat":51.490915,"lon":0.122093,"name":"Harrow Manorway / Abbey Wood Station","parentId":"490G000957","stationId":"490G000957","stopLetter":"D","topMostParentId":"490G000957"},{"icsId":"1003039","id":"490003039E","lat":51.48934,"lon":0.121184,"name":"Abbey Wood Road","parentId":"490G000378","stationId":"490G000378","stopLetter":"E","topMostParentId":"490G000378"},{"icsId":"1006898","id":"490006877S","lat":51.489395,"lon":0.124068,"name":"Abbey Road","parentId":"490G00006898","stationId":"490G00006898","stopLetter":"W","topMostParentId":"490G00006898"},{"icsId":"1016308","id":"490016308S","lat":51.487926,"lon":0.125772,"name":"Woodland Way","parentId":"490G00016308","stationId":"490G00016308","topMostParentId":"490G00016308"},{"icsId":"1016307","id":"490016307S","lat":51.482348,"lon":0.126362,"name":"Hurst Lane","parentId":"490G00016307","stationId":"490G00016307","stopLetter":"F","topMostParentId":"490G00016307"},{"icsId":"1010253","id":"490010253W","lat":51.481232,"lon":0.125431,"name":"New Road","parentId":"490G00010253","stationId":"490G00010253","stopLetter":"H","topMostParentId":"490G00010253"},{"icsId":"1001977","id":"490001977Z","lat":51.480237,"lon":0.122793,"name":"Burcharbro Road","parentId":"490G000301","stationId":"490G000301","stopLetter":"->S","topMostParentId":"490G000301"},{"id":"490002147ZZ","lat":51.478706,"lon":0.123413,"name":"West Heath Road","parentId":"490G000368","stationId":"490G000368","topMostParentId":"490G000368"},{"icsId":"1000987","id":"490000987ZZ","lat":51.476839,"lon":0.124205,"name":"Brampton Road  Lessness Avenue","parentId":"490G000267","stationId":"490G000267","topMostParentId":"490G000267"},{"icsId":"1012539","id":"490012539ZZ","lat":51.475195,"lon":0.125568,"name":"St Andrew's Parish Church","parentId":"490G00012539","stationId":"490G00012539","topMostParentId":"490G00012539"},{"icsId":"1004249","id":"490004249S","lat":51.474115,"lon":0.126641,"name":"Brampton Road / Long Lane","parentId":"490G00004249","stationId":"490G00004249","stopLetter":"Q","topMostParentId":"490G00004249"},{"icsId":"1009788","id":"490009788S","lat":51.472679,"lon":0.131903,"name":"Melanie Close","parentId":"490G00009788","stationId":"490G00009788","topMostParentId":"490G00009788"},{"icsId":"1005898","id":"490005898S","lat":51.471766,"lon":0.134668,"name":"Long Lane / Kipling Road","parentId":"490G00005898","stationId":"490G00005898","stopLetter":"->E","topMostParentId":"490G00005898"},{"id":"490002146ZZ","lat":51.471222,"lon":0.137378,"name":"Franklin Road","parentId":"490G000367","stationId":"490G000367","topMostParentId":"490G000367"},{"id":"490002145ZZ","lat":51.470026,"lon":0.139353,"name":"Hudson Road","parentId":"490G000366","stationId":"490G000366","topMostParentId":"490G000366"},{"id":"490002144ZZ","lat":51.468558,"lon":0.141429,"name":"Cloudesley Road","parentId":"490G000364","stationId":"490G000364","topMostParentId":"490G000364"},{"icsId":"1008116","id":"490008116E","lat":51.466101,"lon":0.145922,"name":"Heversham Road","parentId":"490G00008116","stationId":"490G00008116","topMostParentId":"490G00008116"},{"icsId":"1014931","id":"490014931S","lat":51.46374,"lon":0.149137,"name":"Woolwich Road / Long Lane","parentId":"490G00014931","stationId":"490G00014931","stopLetter":"NC","topMostParentId":"490G00014931"},{"icsId":"1010459","id":"490010459S","lat":51.461766,"lon":0.147446,"name":"Garden Avenue","parentId":"490G00010459","stationId":"490G00010459","stopLetter":"ND","topMostParentId":"490G00010459"},{"icsId":"1010890","id":"490010890S","lat":51.45916,"lon":0.146359,"name":"Pelham Road","parentId":"490G00010890","stationId":"490G00010890","stopLetter":"NE","topMostParentId":"490G00010890"},{"icsId":"1003977","id":"490007152TB","lat":51.457188,"lon":0.147994,"name":"Market Place","parentId":"490G00003977","stationId":"490G00003977","stopLetter":"TB","topMostParentId":"490G00003977"}]}]}