{"direction":"inbound","lineId":"302","lineName":"302","mode":"bus","stopPointSequences":[{"stopPoint":[{"icsId":"1001161","id":"490001161N","lat":51.533706,"lon":-0.219154,"name":"Kensal Rise Station","parentId":"490G01161N","stationId":"490G01161N","stopLetter":"KR","topMostParentId":"910GKENR"},{"icsId":"1014620","id":"490001161N1","lat":51.535321,"lon":-0.220115,"name":"Wrentham Avenue","parentId":"490G00014620","stationId":"490G00014620","stopLetter":"KP","topMostParentId":"490G00014620"},{"icsId":"1010521","id":"490010521N","lat":51.537603,"lon":-0.222376,"name":"Okehampton Road","parentId":"490G00010521","stationId":"490G00010521","stopLetter":"KB","topMostParentId":"490G00010521"},{"icsId":"1003256","id":"490003256N","lat":51.54101,"lon":-0.225877,"name":"All Souls Avenue","parentId":"490G00003256","stationId":"490G00003256","stopLetter":"E","topMostParentId":"490G00003256"},{"icsId":"1012147","id":"490012147E","lat":51.542794,"lon":-0.225519,"name":"Hanover Road","parentId":"490G00012147","stationId":"490G00012147","stopLetter":"F","topMostParentId":"490G00012147"},{"icsId":"1014691","id":"490014691W2","lat":51.546836,"lon":-0.228737,"name":"Willesden Green Library","parentId":"490G00014691","stationId":"490G00014691","stopLetter":"L","topMostParentId":"490G00014691"},{"icsId":"1014088","id":"490014088W","lat":51.5473,"lon":-0.233926,"name":"Villiers Road","parentId":"490G00014088","stationId":"490G00014088","stopLetter":"T","topMostParentId":"490G00014088"},{"icsId":"1014688","id":"490014687S","lat":51.547735,"lon":-0.236505,"name":"Strode Road","parentId":"490G00014688","stationId":"490G00014688","stopLetter":"WZ","topMostParentId":"490G00014688"},{"icsId":"1009844","id":"490009844N","lat":51.549336,"lon":-0.239501,"name":"Meyrick Road","parentId":"490G00009844","stationId":"490G00009844","stopLetter":"WL","topMostParentId":"490G00009844"},{"icsId":"1004989","id":"490006047D","lat":51.550445,"lon":-0.240943,"name":"Chapter Road","parentId":"490G000447","stationId":"490G000447","stopLetter":"DK","topMostParentId":"490G000447"},{"icsId":"1004607","id":"490004607W","lat":51.553121,"lon":-0.243696,"name":"Burnley Road","parentId":"490G00004607","stationId":"490G00004607","stopLetter":"DE","topMostParentId":"490G00004607"},{"icsId":"1010118","id":"490010118N","lat":51.556728,"lon":-0.246154,"name":"Mulgrave Road","parentId":"490G00010118","stationId":"490G00010118","topMostParentId":"490G00010118"},{"icsId":"1006097","id":"490006097LL","lat":51.557311,"lon":-0.247242,"name":"Clifford Way","parentId":"490G00006097","stationId":"490G00006097","stopLetter":"RR","topMostParentId":"490G00006097"},{"icsId":"1010163","id":"490010163N","lat":51.558557,"lon":-0.250613,"name":"Neasden Underpass","parentId":"490G00010163","stationId":"490G00010163","stopLetter":"EE","topMostParentId":"490G00010163"},{"icsId":"1003524","id":"490003524N","lat":51.562145,"lon":-0.257271,"name":"Aylesbury Street","parentId":"490G00003524","stationId":"490G00003524","stopLetter":"BP","topMostParentId":"490G00003524"},{"icsId":"1011297","id":"490011297W","lat":51.563293,"lon":-0.260055,"name":"Quainton Street","parentId":"490G00011297","stationId":"490G00011297","stopLetter":"BQ","topMostParentId":"490G00011297"},{"icsId":"1004052","id":"490004052N","lat":51.564559,"lon":-0.262993,"name":"Blackbird Hill","parentId":"490G00004052","stationId":"490G00004052","stopLetter":"BR","topMostParentId":"490G00004052"},{"icsId":"1015261","id":"490015261N","lat":51.566518,"lon":-0.264708,"name":"Tudor Gardens","parentId":"490G00015261","stationId":"490G00015261","stopLetter":"BC","topMostParentId":"490G00015261"},{"icsId":"1006005","id":"490006005N","lat":51.569174,"lon":-0.263135,"name":"Deanscroft Avenue","parentId":"490G00006005","stationId":"490G00006005","stopLetter":"BD","topMostParentId":"490G00006005"},{"icsId":"1009002","id":"490009002N","lat":51.572259,"lon":-0.262541,"name":"Lavender Avenue","parentId":"490G00009002","stationId":"490G00009002","stopLetter":"BE","topMostParentId":"490G00009002"},{"icsId":"1011327","id":"490011327N","lat":51.575317,"lon":-0.262612,"name":"Queensbury Road","parentId":"490G00011327","stationId":"490G00011327","stopLetter":"P","topMostParentId":"490G00011327"},{"icsId":"1012201","id":"490012201N","lat":51.579197,"lon":-0.262883,"name":"Slough Lane","parentId":"490G00012201","stationId":"490G00012201","stopLetter":"R","topMostParentId":"490G00012201"},{"icsId":"1008761","id":"490008761N","lat":51.582427,"lon":-0.262399,"name":"Kingsbury Green","parentId":"490G00008761","stationId":"490G00008761","stopLetter":"S","topMostParentId":"490G00008761"},{"icsId":"1005997","id":"490005271W","lat":51.58303,"lon":-0.263039,"name":"Pipers Green","parentId":"490G00005997","stationId":"490G00005997","stopLetter":"H","topMostParentId":"490G00005997"},{"icsId":"1011636","id":"490011636N","lat":51.584994,"lon":-0.265736,"name":"Highfield Avenue","parentId":"490G00011636","stationId":"490G00011636","stopLetter":"T","topMostParentId":"490G00011636"},{"icsId":"1007959","id":"490007959N","lat":51.586963,"lon":-0.265069,"name":"Fairfields Crescent","parentId":"490G00007959","stationId":"490G00007959","stopLetter":"RH","topMostParentId":"490G00007959"},{"icsId":"1007566","id":"490007566N","lat":51.590656,"lon":-0.266098,"name":"Grove Park","parentId":"490G00007566","stationId":"490G00007566","stopLetter":"RJ","topMostParentId":"490G00007566"},{"icsId":"1015303","id":"490015303N","lat":51.594954,"lon":-0.268519,"name":"Carlisle Road","parentId":"490G00015303","stationId":"490G00015303","stopLetter":"RK","topMostParentId":"490G00015303"},{"icsId":"1008320","id":"490008320N","lat":51.597635,"lon":-0.270467,"name":"Holyrood Gardens","parentId":"490G00008320","stationId":"490G00008320","stopLetter":"W","topMostParentId":"490G00008320"},{"icsId":"1014307","id":"490014307L","lat":51.601279,"lon":-0.266357,"name":"Watling Avenue","parentId":"490G00014307","stationId":"490G00014307","stopLetter":"L","topMostParentId":"490G00014307"},{"icsId":"1000034","id":"490000034N","lat":51.602576,"lon":-0.264041,"name":"Burnt Oak Station","parentId":"490G00034M","stationId":"490G00034M","stopLetter":"N","topMostParentId":"940GZZLUBTK","zone":"4"},{"icsId":"1004170","id":"490004170N","lat":51.606165,"lon":-0.264713,"name":"Boston Road","parentId":"490G00004170","stationId":"490G00004170","stopLetter":"P","topMostParentId":"490G00004170"},{"icsId":"1014306","id":"490014306N","lat":51.608435,"lon":-0.265594,"name":"Ruddock Close","parentId":"490G00014306","stationId":"490G00014306","stopLetter":"N","topMostParentId":"490G00014306"},{"icsId":"1006006","id":"490006006E","lat":51.609439,"lon":-0.264805,"name":"Deans Lane","parentId":"490G00006006","stationId":"490G00006006","stopLetter":"T","topMostParentId":"490G00006006"},{"icsId":"1005779","id":"490005779E","lat":51.610157,"lon":-0.260473,"name":"Edwin Road","parentId":"490G00005779","stationId":"490G00005779","stopLetter":"U","topMostParentId":"490G00005779"},{"icsId":"1007375","id":"490007355E","lat":51.610268,"lon":-0.254562,"name":"Goldbeaters Grove","parentId":"490G00007375","stationId":"490G00007375","stopLetter":"V","topMostParentId":"490G00007375"},{"icsId":"1009466","id":"490009466E","lat":51.610844,"lon":-0.249167,"name":"Lyndhurst Avenue","parentId":"490G00009466","stationId":"490G00009466","stopLetter":"->E","topMostParentId":"490G00009466"},{"icsId":"1001193","id":"490001193C","lat":51.613412,"lon":-0.248953,"name":"Mill Hill Broadway Station","parentId":"490G01193A","stationId":"490G01193A","stopLetter":"C","topMostParentId":"910GMLHB"}]}]}