{"direction":"inbound","lineId":"307","lineName":"307","mode":"bus","stopPointSequences":[{"stopPoint":[{"icsId":"1003637","id":"490003637E","lat":51.65188,"lon":-0.214251,"name":"Barnet Hospital","parentId":"490G00003637","stationId":"490G00003637","stopLetter":"A","topMostParentId":"490G00003637"},{"icsId":"1013909","id":"490013909E","lat":51.653042,"lon":-0.20731,"name":"Union Street","parentId":"490G00013909","stationId":"490G00013909","stopLetter":"M","topMostParentId":"490G00013909"},{"icsId":"1015142","id":"490015142F","lat":51.653063,"lon":-0.201614,"name":"Barnet Church / Wood Street","parentId":"490G00015142","stationId":"490G00015142","stopLetter":"F","topMostParentId":"490G00015142"},{"icsId":"1019009","id":"490003634H","lat":51.652624,"lon":-0.198812,"name":"Barnet High Street / Barnet Church","parentId":"490G00019009","stationId":"490G00019009","stopLetter":"H","topMostParentId":"490G00019009"},{"icsId":"1009772","id":"490009772N","lat":51.651363,"lon":-0.196896,"name":"High Barnet Station / Meadway","parentId":"490G000664","stationId":"490G000664","stopLetter":"N","topMostParentId":"490G000664"},{"icsId":"1000107","id":"490000107R","lat":51.649347,"lon":-0.193247,"name":"High Barnet Station","parentId":"490G00107E","stationId":"490G00107E","stopLetter":"R","topMostParentId":"940GZZLUHBT","zone":"5"},{"icsId":"1003640","id":"490003640S","lat":51.647211,"lon":-0.188287,"name":"Potters Lane","parentId":"490G00003640","stationId":"490G00003640","stopLetter":"A","topMostParentId":"490G00003640"},{"icsId":"1012613","id":"490015143E","lat":51.647137,"lon":-0.18644,"name":"Barnet Everyman Cinema","parentId":"490G00012613","stationId":"490G00012613","stopLetter":"B","topMostParentId":"490G00012613"},{"icsId":"1014253","id":"490014253E","lat":51.648532,"lon":-0.18066,"name":"Warwick Road","parentId":"490G00014253","stationId":"490G00014253","stopLetter":"C","topMostParentId":"490G00014253"},{"icsId":"1001203","id":"490001201D","lat":51.649684,"lon":-0.176089,"name":"New Barnet Station  / Station Road","parentId":"490G00001203","stationId":"490G00001203","stopLetter":"D","topMostParentId":"490G00001203"},{"icsId":"1010193","id":"490010193C","lat":51.649874,"lon":-0.171572,"name":"New Barnet Sainsbury's","parentId":"490G00010193","stationId":"490G00010193","stopLetter":"C","topMostParentId":"490G00010193"},{"icsId":"1006313","id":"490006313E","lat":51.647547,"lon":-0.167647,"name":"Victoria Road","parentId":"490G00006313","stationId":"490G00006313","stopLetter":"BA","topMostParentId":"490G00006313"},{"icsId":"1006315","id":"490006315E","lat":51.64312,"lon":-0.164559,"name":"East Barnet Village","parentId":"490G00006315","stationId":"490G00006315","stopLetter":"BB","topMostParentId":"490G00006315"},{"icsId":"1006316","id":"490006316E","lat":51.64309,"lon":-0.162103,"name":"East Barnet War Memorial","parentId":"490G00006316","stationId":"490G00006316","stopLetter":"BC","topMostParentId":"490G00006316"},{"icsId":"1010815","id":"490010815E","lat":51.644277,"lon":-0.159771,"name":"Park Road","parentId":"490G00010815","stationId":"490G00010815","stopLetter":"BD","topMostParentId":"490G00010815"},{"icsId":"1003861","id":"490003861E","lat":51.645128,"lon":-0.156181,"name":"Belmont Avenue","parentId":"490G00003861","stationId":"490G00003861","topMostParentId":"490G00003861"},{"icsId":"1008042","id":"490008042N","lat":51.645384,"lon":-0.152442,"name":"Heddon Court Avenue","parentId":"490G00008042","stationId":"490G00008042","stopLetter":"N","topMostParentId":"490G00008042"},{"icsId":"1005455","id":"490005455E","lat":51.645354,"lon":-0.144826,"name":"Cockfosters Road","parentId":"490G00005455","stationId":"490G00005455","stopLetter":"E","topMostParentId":"490G00005455"},{"icsId":"1010869","id":"490010869E","lat":51.64592,"lon":-0.138559,"name":"Peace Close","parentId":"490G00010869","stationId":"490G00010869","stopLetter":"E","topMostParentId":"490G00010869"},{"icsId":"1015505","id":"490015505C","lat":51.64803,"lon":-0.132083,"name":"Oakwood Station  / Chase Road","parentId":"490G000905","stationId":"490G000905","stopLetter":"C","topMostParentId":"490G000905"},{"icsId":"1013789","id":"490013789E","lat":51.649278,"lon":-0.12917,"name":"Trent Park Golf Course","parentId":"490G00013789","stationId":"490G00013789","stopLetter":"L","topMostParentId":"490G00013789"},{"icsId":"1008912","id":"490008912E","lat":51.651642,"lon":-0.124605,"name":"Lakeside","parentId":"490G00008912","stationId":"490G00008912","stopLetter":"->E","topMostParentId":"490G00008912"},{"icsId":"1005630","id":"490005630E","lat":51.653978,"lon":-0.113218,"name":"Cotswold Way","parentId":"490G00005630","stationId":"490G00005630","stopLetter":"A","topMostParentId":"490G00005630"},{"icsId":"1009190","id":"490009190E","lat":51.65503,"lon":-0.108722,"name":"Links Side","parentId":"490G00009190","stationId":"490G00009190","stopLetter":"B","topMostParentId":"490G00009190"},{"icsId":"1005037","id":"490005037E","lat":51.655298,"lon":-0.101367,"name":"Chase Ridings","parentId":"490G00005037","stationId":"490G00005037","stopLetter":"C","topMostParentId":"490G00005037"},{"icsId":"1013527","id":"490013527E","lat":51.653827,"lon":-0.096628,"name":"The Ridgeway","parentId":"490G00013527","stationId":"490G00013527","stopLetter":"D","topMostParentId":"490G00013527"},{"icsId":"1001099","id":"490001099CC","lat":51.653667,"lon":-0.089016,"name":"Enfield Chase Station","parentId":"490G01099CC","stationId":"490G01099CC","stopLetter":"CC","topMostParentId":"910GENFC"},{"icsId":"1006587","id":"490006587E","lat":51.652213,"lon":-0.083064,"name":"Enfield Town / Church Street","parentId":"490G00006587","stationId":"490G00006587","stopLetter":"E","topMostParentId":"490G00006587"},{"icsId":"1001101","id":"490001101K","lat":51.65241,"lon":-0.078632,"name":"Enfield Town Station","parentId":"490G01101L","stationId":"490G01101L","stopLetter":"K","topMostParentId":"910GENFLDTN"},{"icsId":"1008903","id":"490008903E","lat":51.652263,"lon":-0.074084,"name":"Ladysmith Road","parentId":"490G00008903","stationId":"490G00008903","stopLetter":"->E","topMostParentId":"490G00008903"},{"icsId":"1004902","id":"490004902E","lat":51.651683,"lon":-0.07048,"name":"Cecil Avenue","parentId":"490G00004902","stationId":"490G00004902","stopLetter":"M","topMostParentId":"490G00004902"},{"icsId":"1003937","id":"490010933E","lat":51.650726,"lon":-0.065924,"name":"Percival Road","parentId":"490G00003937","stationId":"490G00003937","stopLetter":"N","topMostParentId":"490G00003937"},{"icsId":"1007396","id":"490007396E2","lat":51.649833,"lon":-0.06138,"name":"Great Cambridge Road","parentId":"490G00007396","stationId":"490G00007396","stopLetter":"R","topMostParentId":"490G00007396"},{"icsId":"1012261","id":"490012261N","lat":51.650248,"lon":-0.06035,"name":"Southbury Road","parentId":"490G00012261","stationId":"490G00012261","stopLetter":"U","topMostParentId":"490G00012261"},{"icsId":"1005842","id":"490005842N","lat":51.654369,"lon":-0.059972,"name":"Crown Road","parentId":"490G00005842","stationId":"490G00005842","stopLetter":"E","topMostParentId":"490G00005842"},{"icsId":"1004830","id":"490004830N","lat":51.65888,"lon":-0.059244,"name":"Cambridge Gardens","parentId":"490G00004830","stationId":"490G00004830","stopLetter":"U","topMostParentId":"490G00004830"},{"icsId":"1004831","id":"490004831E","lat":51.660094,"lon":-0.057616,"name":"Great Cambridge Road","parentId":"490G00004831","stationId":"490G00004831","stopLetter":"N","topMostParentId":"490G00004831"},{"icsId":"1010895","id":"490010895E","lat":51.659979,"lon":-0.050652,"name":"Larksfield Grove","parentId":"490G00010895","stationId":"490G00010895","stopLetter":"EP","topMostParentId":"490G00010895"},{"icsId":"1012075","id":"490004828E","lat":51.659959,"lon":-0.047848,"name":"Sherborne Avenue","parentId":"490G00012075","stationId":"490G00012075","stopLetter":"ER","topMostParentId":"490G00012075"},{"icsId":"1004314","id":"490004314S","lat":51.658087,"lon":-0.047191,"name":"Green Street","parentId":"490G00004314","stationId":"490G00004314","stopLetter":"EC","topMostParentId":"490G00004314"},{"icsId":"1004312","id":"490004312E","lat":51.656959,"lon":-0.046401,"name":"Ashley Road","parentId":"490G00004312","stationId":"490G00004312","stopLetter":"ET","topMostParentId":"490G00004312"},{"icsId":"1009740","id":"490009740E","lat":51.655841,"lon":-0.038685,"name":"Mayfield Road","parentId":"490G00009740","stationId":"490G00009740","stopLetter":"C","topMostParentId":"490G00009740"},{"icsId":"1001033","id":"490001033A","lat":51.65459,"lon":-0.03274,"name":"Brimsdown Station","parentId":"490G01033S","stationId":"490G01033S","stopLetter":"A","topMostParentId":"910GBRIMSDN"}]}]}