{"direction":"inbound","lineId":"308","lineName":"308","mode":"bus","stopPointSequences":[{"stopPoint":[{"icsId":"1005337","id":"490005337S","lat":51.558849,"lon":-0.053883,"name":"Lea Bridge Road / Upper Clapton Road","parentId":"490G00005337","stationId":"490G00005337","stopLetter":"S","topMostParentId":"490G00005337"},{"icsId":"1014310","id":"490014310E2","lat":51.560068,"lon":-0.050946,"name":"Wattisfield Road","parentId":"490G00014310","stationId":"490G00014310","stopLetter":"R","topMostParentId":"490G00014310"},{"icsId":"1020144","id":"490020144Z","lat":51.5599,"lon":-0.047822,"name":"Millfields Park","parentId":"490G00020144","stationId":"490G00020144","stopLetter":"Z","topMostParentId":"490G00020144"},{"icsId":"1020145","id":"4900020145S","lat":51.557503,"lon":-0.046497,"name":"Millfields Road Lea Bridge","parentId":"490G00020145","stationId":"490G00020145","stopLetter":"->S","topMostParentId":"490G00020145"},{"icsId":"1016752","id":"490016752S","lat":51.555276,"lon":-0.045611,"name":"Chatsworth Estate","parentId":"490G00016752","stationId":"490G00016752","stopLetter":"->S","topMostParentId":"490G00016752"},{"icsId":"1003067","id":"490005405G","lat":51.551677,"lon":-0.043818,"name":"Brooksby's Walk","parentId":"490G00003067","stationId":"490G00003067","stopLetter":"G","topMostParentId":"490G00003067"},{"icsId":"1008327","id":"490008327F","lat":51.549922,"lon":-0.043764,"name":"Homerton Hospital","parentId":"490G00008327","stationId":"490G00008327","stopLetter":"F","topMostParentId":"490G00008327"},{"icsId":"1007622","id":"490007622L","lat":51.548861,"lon":-0.040001,"name":"Glyn Road","parentId":"490G00007622","stationId":"490G00007622","stopLetter":"L","topMostParentId":"490G00007622"},{"icsId":"1003222","id":"490003222E","lat":51.550156,"lon":-0.034075,"name":"Adley Street","parentId":"490G00003222","stationId":"490G00003222","stopLetter":"A","topMostParentId":"490G00003222"},{"icsId":"1008803","id":"490008803E","lat":51.550839,"lon":-0.031925,"name":"Kingsmead Estate","parentId":"490G00008803","stationId":"490G00008803","stopLetter":"B","topMostParentId":"490G00008803"},{"icsId":"1006383","id":"490006383E","lat":51.552078,"lon":-0.022164,"name":"Hackney Marsh","parentId":"490G00006383","stationId":"490G00006383","stopLetter":"S","topMostParentId":"490G00006383"},{"icsId":"1011301","id":"490011301H","lat":51.553052,"lon":-0.019122,"name":"Ruckholt Road Bridge","parentId":"490G00011301","stationId":"490G00011301","stopLetter":"T","topMostParentId":"490G00011301"},{"icsId":"1020146","id":"4900020146E","lat":51.55499,"lon":-0.014594,"name":"Lea Interchange Bus Garage","parentId":"490G00020146","stationId":"490G00020146","stopLetter":"V","topMostParentId":"490G00020146"},{"icsId":"1020128","id":"490020128S","lat":51.551201,"lon":-0.009134,"name":"Velopark","parentId":"490G00020128","stationId":"490G00020128","stopLetter":"X","topMostParentId":"490G00020128"},{"icsId":"1020129","id":"490020129S","lat":51.547667,"lon":-0.008106,"name":"Chobham Academy","parentId":"490G00020129","stationId":"490G00020129","stopLetter":"Y","topMostParentId":"490G00020129"},{"icsId":"1001556","id":"490018554E","lat":51.545586,"lon":-0.007302,"name":"Stratford International Station","parentId":"490G18554E","stationId":"490G18554E","stopLetter":"F","topMostParentId":"910GSTFODOM"},{"icsId":"1019793","id":"490019793W","lat":51.543968,"lon":-0.004171,"name":"Stratford City Bus Station","parentId":"490G00019793","stationId":"490G00019793","stopLetter":"W","topMostParentId":"490G00019793"},{"icsId":"1018979","id":"490003260S","lat":51.545939,"lon":-0.000624,"name":"Windmill Lane","parentId":"490G00018979","stationId":"490G00018979","stopLetter":"Z","topMostParentId":"490G00018979"},{"icsId":"1012902","id":"490012902R","lat":51.542875,"lon":0.00403,"name":"Stratford Library","parentId":"490G00012902","stationId":"490G00012902","stopLetter":"R","topMostParentId":"490G00012902"},{"icsId":"1013480","id":"490013480E","lat":51.542337,"lon":0.004987,"name":"Litchfield Avenue","parentId":"490G00013480","stationId":"490G00013480","stopLetter":"MJ","topMostParentId":"490G00013480"},{"icsId":"1014269","id":"490014269E","lat":51.542661,"lon":0.008607,"name":"Water Lane / University Of East London","parentId":"490G00014269","stationId":"490G00014269","stopLetter":"MK","topMostParentId":"490G00014269"},{"icsId":"1013391","id":"490013391N","lat":51.543981,"lon":0.008218,"name":"U E L Stratford Campus","parentId":"490G00013391","stationId":"490G00013391","stopLetter":"ML","topMostParentId":"490G00013391"},{"icsId":"1009392","id":"490009392N","lat":51.545443,"lon":0.007388,"name":"Louise Road","parentId":"490G000647","stationId":"490G000647","stopLetter":"MM","topMostParentId":"490G000647"},{"icsId":"1013639","id":"490013639E","lat":51.54688,"lon":0.009081,"name":"Thorogood Gardens","parentId":"490G00013639","stationId":"490G00013639","stopLetter":"MN","topMostParentId":"490G00013639"},{"icsId":"1009760","id":"490009760W1","lat":51.547604,"lon":0.012978,"name":"Mcgrath Road","parentId":"490G00009760","stationId":"490G00009760","stopLetter":"->E","topMostParentId":"490G00009760"},{"icsId":"1009513","id":"490009513E","lat":51.548203,"lon":0.016351,"name":"Magpie Close","parentId":"490G00009513","stationId":"490G00009513","topMostParentId":"490G00009513"},{"icsId":"1012728","id":"490012728E","lat":51.548968,"lon":0.020467,"name":"St James' School","parentId":"490G00012728","stationId":"490G00012728","stopLetter":"DD","topMostParentId":"490G00012728"},{"icsId":"1001111","id":"490001111D","lat":51.549658,"lon":0.024262,"name":"Forest Gate Station","parentId":"490G01111A","stationId":"490G01111A","stopLetter":"D","topMostParentId":"910GFRSTGT"},{"icsId":"1001312","id":"490001312N","lat":51.551301,"lon":0.02497,"name":"Wanstead Park Station","parentId":"490G01312N","stationId":"490G01312N","stopLetter":"J","topMostParentId":"910GWNSTDPK"},{"icsId":"1003999","id":"490003999N","lat":51.553061,"lon":0.024067,"name":"Bignold Road","parentId":"490G00003999","stationId":"490G00003999","stopLetter":"->N","topMostParentId":"490G00003999"},{"icsId":"1010981","id":"490010981N","lat":51.55538,"lon":0.021025,"name":"Pevensey Road","parentId":"490G00010981","stationId":"490G00010981","stopLetter":"A","topMostParentId":"490G00010981"},{"icsId":"1014201","id":"490014201N","lat":51.557081,"lon":0.018821,"name":"Wanstead Flats","parentId":"490G00014201","stationId":"490G00014201","stopLetter":"B","topMostParentId":"490G00014201"},{"icsId":"1008910","id":"490008910E","lat":51.563521,"lon":0.024488,"name":"Windsor Road","parentId":"490G00008910","stationId":"490G00008910","stopLetter":"T","topMostParentId":"490G00008910"},{"icsId":"1004087","id":"490004087N","lat":51.566631,"lon":0.024597,"name":"Blake Hall Crescent","parentId":"490G00004087","stationId":"490G00004087","stopLetter":"S","topMostParentId":"490G00004087"},{"icsId":"1004653","id":"490004653N","lat":51.570653,"lon":0.02342,"name":"Bush Road","parentId":"490G00004653","stationId":"490G00004653","stopLetter":"M","topMostParentId":"490G00004653"},{"icsId":"1004706","id":"490004706N","lat":51.573052,"lon":0.023512,"name":"Cambridge Park","parentId":"490G00004706","stationId":"490G00004706","stopLetter":"L","topMostParentId":"490G00004706"},{"icsId":"1000250","id":"490015125B","lat":51.575154,"lon":0.026261,"name":"Wanstead Station","parentId":"490G00250A","stationId":"490G00250A","stopLetter":"B","topMostParentId":"940GZZLUWSD","zone":"4"},{"icsId":"1014816","id":"490014816W","lat":51.576786,"lon":0.027055,"name":"Woodbine Place","parentId":"490G00014816","stationId":"490G00014816","stopLetter":"AP","topMostParentId":"490G00014816"}]}]}