{"direction":"inbound","lineId":"31","lineName":"31","mode":"bus","stopPointSequences":[{"stopPoint":[{"icsId":"1003375","id":"490003375WK","lat":51.508569,"lon":-0.223694,"name":"White City Bus Station","parentId":"490G00003375","stationId":"490G00003375","stopLetter":"WK","topMostParentId":"490G00003375"},{"icsId":"1000203","id":"490000203D","lat":51.504607,"lon":-0.218012,"name":"Shepherd's Bush Station","parentId":"490G00203A","stationId":"490G00203A","stopLetter":"D","topMostParentId":"HUBSPB","zone":"2"},{"icsId":"1008651","id":"490008651E","lat":51.505258,"lon":-0.214125,"name":"Royal Crescent","parentId":"490G00008651","stationId":"490G00008651","stopLetter":"HJ","topMostParentId":"490G00008651"},{"icsId":"1010305","id":"490010305E","lat":51.506112,"lon":-0.20997,"name":"Norland Square","parentId":"490G00010305","stationId":"490G00010305","stopLetter":"HK","topMostParentId":"490G00010305"},{"icsId":"1000113","id":"490000113T","lat":51.507607,"lon":-0.204839,"name":"Holland Park Station","parentId":"490G00113G","stationId":"490G00113G","stopLetter":"HL","topMostParentId":"940GZZLUHPK","zone":"2"},{"icsId":"1019162","id":"490015465D","lat":51.508839,"lon":-0.198378,"name":"Notting Hill Gate Stn  / Hillgate St","parentId":"490G00019162","stationId":"490G00019162","stopLetter":"D","topMostParentId":"490G00019162"},{"icsId":"1015039","id":"490015039B","lat":51.509489,"lon":-0.197401,"name":"Notting Hill Gate Stn  / Pembridge Rd","parentId":"490G000848","stationId":"490G000848","stopLetter":"B","topMostParentId":"490G000848"},{"icsId":"1005085","id":"490005085N","lat":51.513069,"lon":-0.197447,"name":"Chepstow Crescent","parentId":"490G00005085","stationId":"490G00005085","stopLetter":"PU","topMostParentId":"490G00005085"},{"icsId":"1005089","id":"490005089E","lat":51.514713,"lon":-0.19561,"name":"Pembridge Villas / Westbourne Grove","parentId":"490G00005089","stationId":"490G00005089","stopLetter":"PV","topMostParentId":"490G00005089"},{"icsId":"1019713","id":"490014402A","lat":51.515835,"lon":-0.195421,"name":"Artesian Road","parentId":"490G00019713","stationId":"490G00019713","stopLetter":"PC","topMostParentId":"490G00019713"},{"icsId":"1012948","id":"490012948N","lat":51.518573,"lon":-0.196293,"name":"St Stephens Gardens","parentId":"490G00012948","stationId":"490G00012948","stopLetter":"->N","topMostParentId":"490G00012948"},{"icsId":"1014404","id":"490014404P","lat":51.519119,"lon":-0.199097,"name":"Brunel Estate","parentId":"490G00014404","stationId":"490G00014404","stopLetter":"P","topMostParentId":"490G00014404"},{"icsId":"1000259","id":"490000259A","lat":51.521225,"lon":-0.200931,"name":"Westbourne Park Station","parentId":"490G00259A","stationId":"490G00259A","stopLetter":"A","topMostParentId":"940GZZLUWSP","zone":"2"},{"icsId":"1019459","id":"490007861C","lat":51.523487,"lon":-0.20188,"name":"Harrow Road","parentId":"490G00019459","stationId":"490G00019459","stopLetter":"C","topMostParentId":"490G00019459"},{"icsId":"1018987","id":"490007861E","lat":51.524539,"lon":-0.200642,"name":"Elgin Avenue / Harrow Road","parentId":"490G00018987","stationId":"490G00018987","stopLetter":"E","topMostParentId":"490G00018987"},{"icsId":"1006473","id":"490006473N","lat":51.525145,"lon":-0.197951,"name":"Elgin Avenue / Chippenham Road","parentId":"490G00006473","stationId":"490G00006473","stopLetter":"MP","topMostParentId":"490G00006473"},{"icsId":"1013297","id":"490013297N1","lat":51.527321,"lon":-0.197346,"name":"Chippenham Road / Shirland Road","parentId":"490G00013297","stationId":"490G00013297","stopLetter":"MR","topMostParentId":"490G00013297"},{"icsId":"1005186","id":"490005186N2","lat":51.528488,"lon":-0.196046,"name":"Chippenham Gardens","parentId":"490G00005186","stationId":"490G00005186","stopLetter":"MU","topMostParentId":"490G00005186"},{"icsId":"1004717","id":"490004444N","lat":51.530761,"lon":-0.194154,"name":"Hansel Road","parentId":"490G00004717","stationId":"490G00004717","stopLetter":"MV","topMostParentId":"490G00004717"},{"icsId":"1012626","id":"490012626N","lat":51.533272,"lon":-0.192584,"name":"Rudolph Road","parentId":"490G00012626","stationId":"490G00012626","stopLetter":"KC","topMostParentId":"490G00012626"},{"icsId":"1000127","id":"490000127KA","lat":51.535504,"lon":-0.193274,"name":"Kilburn Park Station","parentId":"490G00127KB","stationId":"490G00127KB","stopLetter":"KA","topMostParentId":"940GZZLUKPK","zone":"2"},{"icsId":"1001170","id":"490015243Z","lat":51.536313,"lon":-0.192694,"name":"Kilburn High Rd Stn  / Cambridge Avenue","parentId":"490G01170Q","stationId":"490G01170Q","stopLetter":"Z","topMostParentId":"910GKLBRNHR"},{"icsId":"1008725","id":"490001170T","lat":51.537705,"lon":-0.191975,"name":"Belsize Road","parentId":"490G00008725","stationId":"490G00008725","stopLetter":"T","topMostParentId":"490G00008725"},{"icsId":"1003027","id":"490003027E","lat":51.539414,"lon":-0.188519,"name":"Abbey Road","parentId":"490G00003027","stationId":"490G00003027","stopLetter":"X","topMostParentId":"490G00003027"},{"icsId":"1009372","id":"490009371Y","lat":51.541479,"lon":-0.180736,"name":"South Hampstead Station  / Loudoun Road","parentId":"490G00009372","stationId":"490G00009372","stopLetter":"Y","topMostParentId":"490G00009372"},{"icsId":"1006837","id":"490006837K","lat":51.541725,"lon":-0.175737,"name":"Finchley Road","parentId":"490G000515","stationId":"490G000515","stopLetter":"K","topMostParentId":"490G000515"},{"icsId":"1000230","id":"490000230E","lat":51.542512,"lon":-0.173715,"name":"Swiss Cottage Station","parentId":"490G00230N","stationId":"490G00230N","stopLetter":"E","topMostParentId":"940GZZLUSWC","zone":"2"},{"icsId":"1014749","id":"490014749E","lat":51.542714,"lon":-0.169929,"name":"Winchester Road","parentId":"490G00014749","stationId":"490G00014749","stopLetter":"L","topMostParentId":"490G00014749"},{"icsId":"1013582","id":"490013582E","lat":51.5433,"lon":-0.16542,"name":"Elsworthy Rise","parentId":"490G00013582","stationId":"490G00013582","stopLetter":"M","topMostParentId":"490G00013582"},{"icsId":"1011187","id":"490011186E","lat":51.543777,"lon":-0.161449,"name":"Primrose Hill Rd / Adelaide Medical Ctr","parentId":"490G00011187","stationId":"490G00011187","stopLetter":"P","topMostParentId":"490G00011187"},{"icsId":"1006655","id":"490006655CG","lat":51.543889,"lon":-0.158243,"name":"Eton Road","parentId":"490G00006655","stationId":"490G00006655","stopLetter":"R","topMostParentId":"490G00006655"},{"icsId":"1000043","id":"490000043CA","lat":51.543975,"lon":-0.154029,"name":"Chalk Farm Station","parentId":"490G00043CD","stationId":"490G00043CD","stopLetter":"CA","topMostParentId":"940GZZLUCFM","zone":"2"},{"icsId":"1004964","id":"490004963CE","lat":51.542854,"lon":-0.148522,"name":"Chalk Farm Road / Morrisons","parentId":"490G00004964","stationId":"490G00004964","stopLetter":"CE","topMostParentId":"490G00004964"},{"icsId":"1007927","id":"490007927M","lat":51.542884,"lon":-0.143545,"name":"Hawley Road","parentId":"490G00007927","stationId":"490G00007927","stopLetter":"M","topMostParentId":"490G00007927"},{"icsId":"1004713","id":"490004713D","lat":51.541972,"lon":-0.14103,"name":"Camden Gardens","parentId":"490G00004713","stationId":"490G00004713","stopLetter":"D","topMostParentId":"490G00004713"},{"icsId":"1000036","id":"490015531S","lat":51.539408,"lon":-0.141538,"name":"Camden Town Station","parentId":"490G00036N","stationId":"490G00036N","stopLetter":"Z1","topMostParentId":"940GZZLUCTN","zone":"2"}]}]}