{"direction":"inbound","lineId":"312","lineName":"312","mode":"bus","stopPointSequences":[{"stopPoint":[{"icsId":"1001216","id":"490010448S","lat":51.397398,"lon":-0.074199,"name":"Norwood Junction Station","parentId":"490G10448S","stationId":"490G10448S","stopLetter":"S","topMostParentId":"HUBNWD"},{"icsId":"1006193","id":"490001216P","lat":51.398307,"lon":-0.072623,"name":"Portland Road / Norwood Jct Station","parentId":"490G00006193","stationId":"490G00006193","stopLetter":"P","topMostParentId":"490G00006193"},{"icsId":"1013371","id":"490013371S","lat":51.395139,"lon":-0.067538,"name":"Harrington Road","parentId":"490G00013371","stationId":"490G00013371","stopLetter":"PM","topMostParentId":"490G00013371"},{"icsId":"1012321","id":"490012321N2","lat":51.392668,"lon":-0.066564,"name":"South Norwood Leisure Centre","parentId":"490G00012321","stationId":"490G00012321","stopLetter":"PL","topMostParentId":"490G00012321"},{"icsId":"1005852","id":"490005852S","lat":51.390424,"lon":-0.065192,"name":"Croydon Arena","parentId":"490G00005852","stationId":"490G00005852","stopLetter":"WK","topMostParentId":"490G00005852"},{"icsId":"1002086","id":"490002086A","lat":51.388324,"lon":-0.064879,"name":"Woodside Tram Stop","parentId":"490G02086A","stationId":"490G02086A","stopLetter":"WL","topMostParentId":"940GZZCRWOD"},{"icsId":"1003419","id":"490003419C","lat":51.38487,"lon":-0.063788,"name":"Ashburton Park","parentId":"490G00003419","stationId":"490G00003419","stopLetter":"WQ","topMostParentId":"490G00003419"},{"icsId":"1012100","id":"490012100E2","lat":51.383171,"lon":-0.065958,"name":"Brockenhurst Road","parentId":"490G00012100","stationId":"490G00012100","stopLetter":"AK","topMostParentId":"490G00012100"},{"icsId":"1003103","id":"490003103W","lat":51.381868,"lon":-0.06929,"name":"Parkview Road","parentId":"490G00003103","stationId":"490G00003103","stopLetter":"AL","topMostParentId":"490G00003103"},{"icsId":"1002002","id":"490002002A","lat":51.380445,"lon":-0.072454,"name":"Addiscombe Tram Stop","parentId":"490G02002A","stationId":"490G02002A","stopLetter":"AM","topMostParentId":"940GZZCRADD"},{"icsId":"1015131","id":"490015131W1","lat":51.379273,"lon":-0.075046,"name":"Ashburton Road","parentId":"490G00015131","stationId":"490G00015131","stopLetter":"AN","topMostParentId":"490G00015131"},{"icsId":"1007907","id":"490007907W","lat":51.37864,"lon":-0.078105,"name":"Havelock Road","parentId":"490G00007907","stationId":"490G00007907","stopLetter":"AP","topMostParentId":"490G00007907"},{"icsId":"1003102","id":"490003102W","lat":51.379411,"lon":-0.082326,"name":"Canning Road","parentId":"490G00003102","stationId":"490G00003102","stopLetter":"AQ","topMostParentId":"490G00003102"},{"icsId":"1015539","id":"490015539W","lat":51.379998,"lon":-0.085233,"name":"Morland Road","parentId":"490G00015539","stationId":"490G00015539","stopLetter":"->W","topMostParentId":"490G00015539"},{"icsId":"1013446","id":"490013446S","lat":51.37952,"lon":-0.087926,"name":"Leslie Grove","parentId":"490G00013446","stationId":"490G00013446","stopLetter":"->S","topMostParentId":"490G00013446"},{"icsId":"1005813","id":"490005813N1","lat":51.378063,"lon":-0.090674,"name":"Cross Road","parentId":"490G00005813","stationId":"490G00005813","stopLetter":"E0","topMostParentId":"490G00005813"},{"icsId":"1000279","id":"490001089E5","lat":51.376011,"lon":-0.091075,"name":"Addiscombe Road","parentId":"490G00000279","stationId":"490G00000279","stopLetter":"E5","topMostParentId":"490G00000279"},{"icsId":"1001089","id":"490001089E7","lat":51.37459,"lon":-0.093275,"name":"East Croydon Station","parentId":"490G01089E7","stationId":"490G01089E7","stopLetter":"E7","topMostParentId":"HUBECY"},{"icsId":"1010839","id":"490010839C4","lat":51.373429,"lon":-0.098223,"name":"Park Street","parentId":"490G00010839","stationId":"490G00010839","stopLetter":"KJ","topMostParentId":"490G00010839"},{"icsId":"1005855","id":"490005855C15","lat":51.371178,"lon":-0.100285,"name":"Croydon Flyover","parentId":"490G00005855","stationId":"490G00005855","stopLetter":"KP","topMostParentId":"490G00005855"},{"icsId":"1005574","id":"490005574S","lat":51.368211,"lon":-0.099201,"name":"Coombe Road","parentId":"490G00005574","stationId":"490G00005574","stopLetter":"W","topMostParentId":"490G00005574"},{"icsId":"1013269","id":"490013269S","lat":51.365896,"lon":-0.098966,"name":"Aberdeen Road","parentId":"490G00013269","stationId":"490G00013269","stopLetter":"S","topMostParentId":"490G00013269"},{"icsId":"1013100","id":"490013100J","lat":51.363052,"lon":-0.098236,"name":"Swan & Sugar Loaf","parentId":"490G00013100","stationId":"490G00013100","stopLetter":"J","topMostParentId":"490G00013100"},{"icsId":"1013920","id":"490013920S","lat":51.360077,"lon":-0.097814,"name":"Upland Road","parentId":"490G00013920","stationId":"490G00013920","stopLetter":"GH","topMostParentId":"490G00013920"},{"icsId":"1007670","id":"490007670S","lat":51.356946,"lon":-0.097699,"name":"Haling Park Road","parentId":"490G00007670","stationId":"490G00007670","stopLetter":"GJ","topMostParentId":"490G00007670"},{"icsId":"1012272","id":"490012272S1","lat":51.354769,"lon":-0.09766,"name":"South Croydon Bus Garage","parentId":"490G00012272","stationId":"490G00012272","topMostParentId":"490G00012272"}]}]}