{"direction":"inbound","lineId":"32","lineName":"32","mode":"bus","stopPointSequences":[{"stopPoint":[{"icsId":"1000127","id":"490000127KA","lat":51.535504,"lon":-0.193274,"name":"Kilburn Park Station","parentId":"490G00127KB","stationId":"490G00127KB","stopLetter":"KA","topMostParentId":"940GZZLUKPK","zone":"2"},{"icsId":"1001170","id":"490015243Z","lat":51.536313,"lon":-0.192694,"name":"Kilburn High Rd Stn  / Cambridge Avenue","parentId":"490G01170Q","stationId":"490G01170Q","stopLetter":"Z","topMostParentId":"910GKLBRNHR"},{"icsId":"1008720","id":"490001170S","lat":51.537518,"lon":-0.193281,"name":"Brondesbury Road","parentId":"490G00008720","stationId":"490G00008720","stopLetter":"S","topMostParentId":"490G00008720"},{"icsId":"1015245","id":"490008710P","lat":51.539126,"lon":-0.194904,"name":"Kilburn High Road","parentId":"490G00015245","stationId":"490G00015245","stopLetter":"P","topMostParentId":"490G00015245"},{"icsId":"1011235","id":"490011235J","lat":51.540315,"lon":-0.196212,"name":"Priory Park Road","parentId":"490G00011235","stationId":"490G00011235","stopLetter":"J","topMostParentId":"490G00011235"},{"icsId":"1004565","id":"490004565N","lat":51.542812,"lon":-0.199532,"name":"Buckley Road","parentId":"490G00004565","stationId":"490G00004565","stopLetter":"F","topMostParentId":"490G00004565"},{"icsId":"1001038","id":"490001038N","lat":51.545324,"lon":-0.202086,"name":"Brondesbury Station","parentId":"490G01038N","stationId":"490G01038N","stopLetter":"C","topMostParentId":"910GBRBY"},{"icsId":"1000126","id":"490000126A","lat":51.546425,"lon":-0.203485,"name":"Kilburn Station","parentId":"490G00126B","stationId":"490G00126B","stopLetter":"A","topMostParentId":"940GZZLUKBN","zone":"2"},{"icsId":"1008768","id":"490008768N","lat":51.548907,"lon":-0.205882,"name":"St Cuthbert's Road","parentId":"490G00008768","stationId":"490G00008768","stopLetter":"BX","topMostParentId":"490G00008768"},{"icsId":"1009909","id":"490009909N","lat":51.550602,"lon":-0.207907,"name":"Mill Lane","parentId":"490G00009909","stationId":"490G00009909","stopLetter":"BK","topMostParentId":"490G00009909"},{"icsId":"1014140","id":"490014140N","lat":51.553421,"lon":-0.21172,"name":"Skardu Road","parentId":"490G00014140","stationId":"490G00014140","stopLetter":"BL","topMostParentId":"490G00014140"},{"icsId":"1005770","id":"490005770K","lat":51.556175,"lon":-0.214829,"name":"Cricklewood Broadway / The Crown","parentId":"490G000471","stationId":"490G000471","stopLetter":"BN","topMostParentId":"490G000471"},{"icsId":"1005776","id":"490005776A","lat":51.557394,"lon":-0.216339,"name":"Cricklewood Lane","parentId":"490G000474","stationId":"490G000474","stopLetter":"BP","topMostParentId":"490G000474"},{"icsId":"1010015","id":"490010015N","lat":51.559362,"lon":-0.218642,"name":"Mora Road","parentId":"490G00010015","stationId":"490G00010015","stopLetter":"BQ","topMostParentId":"490G00010015"},{"icsId":"1015045","id":"490015045BS","lat":51.561532,"lon":-0.220635,"name":"Longley Way","parentId":"490G00015045","stationId":"490G00015045","stopLetter":"BR","topMostParentId":"490G00015045"},{"icsId":"1015033","id":"490005772N","lat":51.562986,"lon":-0.222209,"name":"Cricklewood Bus Garage","parentId":"490G00015033","stationId":"490G00015033","stopLetter":"BS","topMostParentId":"490G00015033"},{"icsId":"1006096","id":"490006096N","lat":51.564881,"lon":-0.224414,"name":"Dollis Hill Lane","parentId":"490G00006096","stationId":"490G00006096","stopLetter":"SE","topMostParentId":"490G00006096"},{"icsId":"1008421","id":"490008421N","lat":51.566678,"lon":-0.226711,"name":"Humber Road","parentId":"490G00008421","stationId":"490G00008421","stopLetter":"SF","topMostParentId":"490G00008421"},{"icsId":"1010691","id":"490010691N","lat":51.56787,"lon":-0.228814,"name":"Oxgate Lane","parentId":"490G00010691","stationId":"490G00010691","stopLetter":"SH","topMostParentId":"490G00010691"},{"icsId":"1012589","id":"490012589N","lat":51.570446,"lon":-0.231514,"name":"Staples Corner","parentId":"490G00012589","stationId":"490G00012589","stopLetter":"SJ","topMostParentId":"490G00012589"},{"icsId":"1011182","id":"490011182N","lat":51.572929,"lon":-0.235126,"name":"Priestley Way","parentId":"490G00011182","stationId":"490G00011182","stopLetter":"SQ","topMostParentId":"490G00011182"},{"icsId":"1012609","id":"490012609N","lat":51.577028,"lon":-0.23921,"name":"Station Road","parentId":"490G00012609","stationId":"490G00012609","stopLetter":"HK","topMostParentId":"490G00012609"},{"icsId":"1014470","id":"490014470N2","lat":51.578179,"lon":-0.24045,"name":"West Hendon Broadway","parentId":"490G00014470","stationId":"490G00014470","stopLetter":"HL","topMostParentId":"490G00014470"},{"icsId":"1014561","id":"490014561D","lat":51.579601,"lon":-0.242344,"name":"West Hendon Broadway / Herbert Road","parentId":"490G00014561","stationId":"490G00014561","stopLetter":"HM","topMostParentId":"490G00014561"},{"icsId":"1014471","id":"490014471N","lat":51.581993,"lon":-0.245355,"name":"Hendon Magistrates Court","parentId":"490G00014471","stationId":"490G00014471","stopLetter":"HP","topMostParentId":"490G00014471"},{"icsId":"1008762","id":"490008762N","lat":51.583873,"lon":-0.24775,"name":"Kingsbury Road","parentId":"490G00008762","stationId":"490G00008762","stopLetter":"HQ","topMostParentId":"490G00008762"},{"icsId":"1012043","id":"490012043CH","lat":51.587018,"lon":-0.251209,"name":"Sheaveshill Avenue","parentId":"490G00012043","stationId":"490G00012043","stopLetter":"CH","topMostParentId":"490G00012043"},{"icsId":"1005483","id":"490005483GZ","lat":51.590407,"lon":-0.255381,"name":"Colindeep Lane","parentId":"490G00005483","stationId":"490G00005483","stopLetter":"GZ","topMostParentId":"490G00005483"},{"icsId":"1005481","id":"490005481CL","lat":51.591526,"lon":-0.256854,"name":"Colindale Avenue","parentId":"490G00005481","stationId":"490G00005481","stopLetter":"CL","topMostParentId":"490G00005481"},{"icsId":"1014985","id":"490014985N","lat":51.593869,"lon":-0.259609,"name":"The Greenway","parentId":"490G00014985","stationId":"490G00014985","stopLetter":"CN","topMostParentId":"490G00014985"},{"icsId":"1004791","id":"490004791N","lat":51.595808,"lon":-0.26183,"name":"Carlisle Road","parentId":"490G00004791","stationId":"490G00004791","stopLetter":"CR","topMostParentId":"490G00004791"},{"icsId":"1010006","id":"490010006N","lat":51.597396,"lon":-0.263993,"name":"Montrose Avenue","parentId":"490G00010006","stationId":"490G00010006","stopLetter":"Z","topMostParentId":"490G00010006"},{"icsId":"1012472","id":"490012472G","lat":51.599782,"lon":-0.266631,"name":"Stag Lane","parentId":"490G00012472","stationId":"490G00012472","stopLetter":"G","topMostParentId":"490G00012472"},{"icsId":"1004618","id":"490004618C","lat":51.601801,"lon":-0.268836,"name":"Burnt Oak Broadway","parentId":"490G000434","stationId":"490G000434","stopLetter":"C","topMostParentId":"490G000434"},{"icsId":"1004617","id":"490004617B","lat":51.60336,"lon":-0.270885,"name":"North Road","parentId":"490G000433","stationId":"490G000433","stopLetter":"B","topMostParentId":"490G000433"},{"icsId":"1006425","id":"490006425HB","lat":51.606026,"lon":-0.27422,"name":"Edgware Community Hospital","parentId":"490G00006425","stationId":"490G00006425","stopLetter":"HB","topMostParentId":"490G00006425"},{"icsId":"1006004","id":"490006004HC","lat":51.607339,"lon":-0.275427,"name":"Deansbrook Road","parentId":"490G00006004","stationId":"490G00006004","stopLetter":"HC","topMostParentId":"490G00006004"},{"icsId":"1012411","id":"490012411P","lat":51.609821,"lon":-0.27851,"name":"Spring Villa Road","parentId":"490G00012411","stationId":"490G00012411","stopLetter":"P","topMostParentId":"490G00012411"},{"icsId":"1012618","id":"490011171H","lat":51.612421,"lon":-0.277386,"name":"Manor Park Crescent","parentId":"490G00012618","stationId":"490G00012618","stopLetter":"H","topMostParentId":"490G00012618"},{"icsId":"1000070","id":"490000070G","lat":51.613401,"lon":-0.275515,"name":"Edgware Station","parentId":"490G00070C","stationId":"490G00070C","stopLetter":"G","topMostParentId":"940GZZLUEGW","zone":"5"}]}]}