{"direction":"inbound","lineId":"329","lineName":"329","mode":"bus","stopPointSequences":[{"stopPoint":[{"icsId":"1013852","id":"490013852S","lat":51.59036,"lon":-0.102242,"name":"Turnpike Lane Bus Station","parentId":"490G000808","stationId":"490G000808","stopLetter":"S","topMostParentId":"490G000808"},{"icsId":"1014669","id":"490000241O","lat":51.591054,"lon":-0.104061,"name":"Coleraine Road","parentId":"490G000835","stationId":"490G000835","stopLetter":"O","topMostParentId":"490G000835"},{"icsId":"1009469","id":"490009461J","lat":51.594098,"lon":-0.108193,"name":"Wood Green Shopping City","parentId":"490G00009469","stationId":"490G00009469","stopLetter":"J","topMostParentId":"490G00009469"},{"icsId":"1000275","id":"490015567H","lat":51.59659,"lon":-0.109952,"name":"Wood Green Station","parentId":"490G00275D","stationId":"490G00275D","stopLetter":"H","topMostParentId":"940GZZLUWOG","zone":"3"},{"icsId":"1007797","id":"490007797N","lat":51.599977,"lon":-0.111429,"name":"Haringey Civic Centre","parentId":"490G00007797","stationId":"490G00007797","stopLetter":"BP","topMostParentId":"490G00007797"},{"icsId":"1010274","id":"490010274N","lat":51.602688,"lon":-0.112298,"name":"Nightingale Road","parentId":"490G00010274","stationId":"490G00010274","stopLetter":"BQ","topMostParentId":"490G00010274"},{"icsId":"1009709","id":"490012152N","lat":51.605745,"lon":-0.111666,"name":"Arcadian Gardens","parentId":"490G00009709","stationId":"490G00009709","stopLetter":"BR","topMostParentId":"490G00009709"},{"icsId":"1003875","id":"490003875N","lat":51.609165,"lon":-0.110195,"name":"Berkshire Gardens","parentId":"490G00003875","stationId":"490G00003875","stopLetter":"BS","topMostParentId":"490G00003875"},{"icsId":"1010333","id":"490010333T","lat":51.611046,"lon":-0.109742,"name":"Tottenhall Road","parentId":"490G00010333","stationId":"490G00010333","stopLetter":"T","topMostParentId":"490G00010333"},{"icsId":"1015331","id":"490015399L","lat":51.613296,"lon":-0.109851,"name":"North Circular Road","parentId":"490G00015331","stationId":"490G00015331","stopLetter":"L","topMostParentId":"490G00015331"},{"icsId":"1004486","id":"490004486J","lat":51.614995,"lon":-0.10978,"name":"Broomfield Lane","parentId":"490G00004486","stationId":"490G00004486","stopLetter":"J","topMostParentId":"490G00004486"},{"icsId":"1010736","id":"490010736G","lat":51.617046,"lon":-0.109319,"name":"Palmers Green / The Triangle","parentId":"490G000696","stationId":"490G000696","stopLetter":"G","topMostParentId":"490G000696"},{"icsId":"1009248","id":"490009248C","lat":51.619485,"lon":-0.107167,"name":"Lodge Drive","parentId":"490G00009248","stationId":"490G00009248","stopLetter":"C","topMostParentId":"490G00009248"},{"icsId":"1006974","id":"490006974A","lat":51.620241,"lon":-0.106644,"name":"Fox Lane","parentId":"490G00006974","stationId":"490G00006974","stopLetter":"A","topMostParentId":"490G00006974"},{"icsId":"1004196","id":"490004196N","lat":51.622766,"lon":-0.104877,"name":"Bourne Hill","parentId":"490G00004196","stationId":"490G00004196","stopLetter":"->N","topMostParentId":"490G00004196"},{"icsId":"1011855","id":"490011855N","lat":51.624075,"lon":-0.10241,"name":"St Monica's Church","parentId":"490G00011855","stationId":"490G00011855","topMostParentId":"490G00011855"},{"icsId":"1009764","id":"490009764N","lat":51.624825,"lon":-0.100949,"name":"Meadowcroft Road","parentId":"490G00009764","stationId":"490G00009764","stopLetter":"->N","topMostParentId":"490G00009764"},{"icsId":"1003653","id":"490006812N","lat":51.627655,"lon":-0.098562,"name":"Woodberry Avenue","parentId":"490G00003653","stationId":"490G00003653","stopLetter":"N","topMostParentId":"490G00003653"},{"icsId":"1014755","id":"490014755N","lat":51.628822,"lon":-0.097921,"name":"Highfield Road","parentId":"490G00014755","stationId":"490G00014755","stopLetter":"P","topMostParentId":"490G00014755"},{"icsId":"1012612","id":"490012612C","lat":51.631265,"lon":-0.096041,"name":"Station Road","parentId":"490G000763","stationId":"490G000763","stopLetter":"R","topMostParentId":"490G000763"},{"icsId":"1006513","id":"490012135N","lat":51.634686,"lon":-0.094106,"name":"Shrubbery Gardens","parentId":"490G00006513","stationId":"490G00006513","stopLetter":"S","topMostParentId":"490G00006513"},{"icsId":"1007438","id":"490007438S2","lat":51.636178,"lon":-0.091269,"name":"Green Dragon Lane","parentId":"490G00007438","stationId":"490G00007438","stopLetter":"T","topMostParentId":"490G00007438"},{"icsId":"1012220","id":"490012220N","lat":51.635896,"lon":-0.086079,"name":"Solna Road","parentId":"490G00012220","stationId":"490G00012220","stopLetter":"U","topMostParentId":"490G00012220"},{"icsId":"1005306","id":"490015284W","lat":51.637146,"lon":-0.081156,"name":"Church Street","parentId":"490G00005306","stationId":"490G00005306","stopLetter":"V","topMostParentId":"490G00005306"},{"icsId":"1019747","id":"490005306N","lat":51.637798,"lon":-0.080883,"name":"Bush Hill Road","parentId":"490G00019747","stationId":"490G00019747","stopLetter":"W","topMostParentId":"490G00019747"},{"icsId":"1005549","id":"490005549N","lat":51.639455,"lon":-0.079945,"name":"Conifer Gardens","parentId":"490G00005549","stationId":"490G00005549","stopLetter":"H","topMostParentId":"490G00005549"},{"icsId":"1011857","id":"490011857N","lat":51.641895,"lon":-0.079553,"name":"St Stephens Church","parentId":"490G00011857","stationId":"490G00011857","stopLetter":"J","topMostParentId":"490G00011857"},{"icsId":"1004650","id":"490004650N","lat":51.644259,"lon":-0.081145,"name":"Bush Hill","parentId":"490G00004650","stationId":"490G00004650","stopLetter":"K","topMostParentId":"490G00004650"},{"icsId":"1010760","id":"490010760N","lat":51.646662,"lon":-0.080147,"name":"Park Crescent","parentId":"490G00010760","stationId":"490G00010760","stopLetter":"L","topMostParentId":"490G00010760"},{"icsId":"1004904","id":"490004904Y","lat":51.6498,"lon":-0.080159,"name":"Cecil Road / St Annes School","parentId":"490G00004904","stationId":"490G00004904","stopLetter":"Y","topMostParentId":"490G00004904"},{"icsId":"1006586","id":"490006586S","lat":51.650553,"lon":-0.082758,"name":"Enfield Town / Cecil Road","parentId":"490G00006586","stationId":"490G00006586","stopLetter":"S","topMostParentId":"490G00006586"},{"icsId":"1009222","id":"490009222E","lat":51.652946,"lon":-0.086112,"name":"Little Park Gardens","parentId":"490G00009222","stationId":"490G00009222","topMostParentId":"490G00009222"}]}]}