{"direction":"inbound","lineId":"331","lineName":"331","mode":"bus","stopPointSequences":[{"stopPoint":[{"icsId":"1000246","id":"490000246L","lat":51.546545,"lon":-0.478425,"name":"Uxbridge Station","parentId":"490G00246H","stationId":"490G00246H","stopLetter":"L","topMostParentId":"940GZZLUUXB","zone":"6"},{"icsId":"1013969","id":"490013969A","lat":51.548094,"lon":-0.481417,"name":"Uxbridge High Street","parentId":"490G00013969","stationId":"490G00013969","stopLetter":"A","topMostParentId":"490G00013969"},{"icsId":"1003180","id":"040000001302","lat":51.553418,"lon":-0.488437,"name":"Oakside","topMostParentId":"040000001302"},{"icsId":"1008873","id":"040000001304","lat":51.55574,"lon":-0.490683,"name":"Knighton Way Lane","topMostParentId":"040000001304"},{"icsId":"1006035","id":"040000001306","lat":51.565946,"lon":-0.501252,"name":"Springbridge Nurseries","topMostParentId":"040000001306"},{"icsId":"1014079","id":"040000001310","lat":51.571723,"lon":-0.505088,"name":"Village Road","topMostParentId":"040000001310"},{"icsId":"1013667","id":"040000001312","lat":51.575296,"lon":-0.503932,"name":"Tilehouse Lane","topMostParentId":"040000001312"},{"icsId":"1006034","id":"040000001348","lat":51.580643,"lon":-0.498748,"name":"Station Parade","parentId":"040G00001313","stationId":"040G00001313","topMostParentId":"910GDENHAM"},{"icsId":"1019949","id":"040000001316","lat":51.582026,"lon":-0.496437,"name":"Moorfield Road","stopLetter":"67","topMostParentId":"040000001316"},{"icsId":"1008373","id":"490008373N","lat":51.586908,"lon":-0.487283,"name":"Broadwater Lock / Grand Union Canal","parentId":"490G00008373","stationId":"490G00008373","stopLetter":"->N","topMostParentId":"490G00008373"},{"icsId":"1013815","id":"490013815N","lat":51.589386,"lon":-0.48147,"name":"Truesdale Drive","parentId":"490G00013815","stationId":"490G00013815","stopLetter":"->N","topMostParentId":"490G00013815"},{"icsId":"1011223","id":"490011223N","lat":51.591672,"lon":-0.482303,"name":"Priory Avenue","parentId":"490G00011223","stationId":"490G00011223","stopLetter":"->N","topMostParentId":"490G00011223"},{"icsId":"1012804","id":"490012804N","lat":51.595583,"lon":-0.482967,"name":"St Mary's Road","parentId":"490G00012804","stationId":"490G00012804","stopLetter":"->N","topMostParentId":"490G00012804"},{"icsId":"1009400","id":"490009400N","lat":51.598903,"lon":-0.483838,"name":"Lovett Road","parentId":"490G00009400","stationId":"490G00009400","stopLetter":"->N","topMostParentId":"490G00009400"},{"icsId":"1006146","id":"490006146N","lat":51.600791,"lon":-0.483746,"name":"Dovedale Close","parentId":"490G00006146","stationId":"490G00006146","stopLetter":"->N","topMostParentId":"490G00006146"},{"icsId":"1007784","id":"490007784N","lat":51.603004,"lon":-0.483152,"name":"Merle Avenue","parentId":"490G00007784","stationId":"490G00007784","stopLetter":"->N","topMostParentId":"490G00007784"},{"icsId":"1004267","id":"490004267E","lat":51.604054,"lon":-0.480908,"name":"The Green","parentId":"490G00004267","stationId":"490G00004267","stopLetter":"->E","topMostParentId":"490G00004267"},{"icsId":"1010054","id":"490010054E","lat":51.604902,"lon":-0.476244,"name":"Mossendew Close","parentId":"490G00010054","stationId":"490G00010054","stopLetter":"->E","topMostParentId":"490G00010054"},{"icsId":"1008567","id":"490008567E","lat":51.605756,"lon":-0.472793,"name":"The Harefield Academy","parentId":"490G00008567","stationId":"490G00008567","stopLetter":"->E","topMostParentId":"490G00008567"},{"icsId":"1012071","id":"490012071E","lat":51.610043,"lon":-0.465732,"name":"Shepherds Hill House","parentId":"490G00012071","stationId":"490G00012071","stopLetter":"->E","topMostParentId":"490G00012071"},{"icsId":"1009211","id":"490009211E","lat":51.611281,"lon":-0.464087,"name":"Littlebourne Farm","parentId":"490G00009211","stationId":"490G00009211","stopLetter":"->E","topMostParentId":"490G00009211"},{"icsId":"1012137","id":"490012137E","lat":51.612599,"lon":-0.460388,"name":"Shrubs Road","parentId":"490G00012137","stationId":"490G00012137","stopLetter":"->E","topMostParentId":"490G00012137"},{"icsId":"1010110","id":"210021803500","lat":51.614903,"lon":-0.45033,"name":"Mount Vernon / Bishops Wood Hospitals","parentId":"210G3255","stationId":"210G3255","topMostParentId":"210G3255"},{"icsId":"1003678","id":"210021803520","lat":51.620466,"lon":-0.44533,"name":"Batchworth Heath","parentId":"210G3253","stationId":"210G3253","topMostParentId":"210G3253"},{"icsId":"1010100","id":"490010100N","lat":51.616643,"lon":-0.444493,"name":"Mount Vernon Hospital","parentId":"490G00010100","stationId":"490G00010100","stopLetter":"A","topMostParentId":"490G00010100"},{"icsId":"1010101","id":"490010101S","lat":51.616107,"lon":-0.44207,"name":"Thirlmere Gardens","parentId":"490G00010101","stationId":"490G00010101","stopLetter":"J","topMostParentId":"490G00010101"},{"icsId":"1008322","id":"490008322S","lat":51.614371,"lon":-0.438013,"name":"Holy Trinity School","parentId":"490G00008322","stationId":"490G00008322","stopLetter":"K","topMostParentId":"490G00008322"},{"icsId":"1007468","id":"490007468E","lat":51.612414,"lon":-0.434152,"name":"The Avenue","parentId":"490G00007468","stationId":"490G00007468","stopLetter":"L","topMostParentId":"490G00007468"},{"icsId":"1013374","id":"490013374W","lat":51.611995,"lon":-0.430397,"name":"The Glen","parentId":"490G00013374","stationId":"490G00013374","stopLetter":"M","topMostParentId":"490G00013374"},{"icsId":"1006032","id":"490006032G","lat":51.612114,"lon":-0.42723,"name":"Dene Road","parentId":"490G00006032","stationId":"490G00006032","stopLetter":"G","topMostParentId":"490G00006032"},{"icsId":"1000165","id":"490000165B","lat":51.610823,"lon":-0.42349,"name":"Northwood Station","parentId":"490G00165B","stationId":"490G00165B","stopLetter":"B","topMostParentId":"940GZZLUNOW","zone":"6"},{"icsId":"1019887","id":"490010428S","lat":51.609795,"lon":-0.427281,"name":"Hawkesworth Close","parentId":"490G00019887","stationId":"490G00019887","stopLetter":"->S","topMostParentId":"490G00019887"},{"icsId":"1016669","id":"490016669S","lat":51.608653,"lon":-0.428649,"name":"Leaf Close","parentId":"490G00016669","stationId":"490G00016669","stopLetter":"->S","topMostParentId":"490G00016669"},{"icsId":"1011566","id":"490011566N","lat":51.609474,"lon":-0.431523,"name":"Northwood Golf Course","parentId":"490G00011566","stationId":"490G00011566","stopLetter":"W","topMostParentId":"490G00011566"},{"icsId":"1019750","id":"490013385S","lat":51.609498,"lon":-0.434656,"name":"Links Way","parentId":"490G00019750","stationId":"490G00019750","stopLetter":"Y","topMostParentId":"490G00019750"},{"icsId":"1004662","id":"490004662W","lat":51.609049,"lon":-0.438788,"name":"Northgate","parentId":"490G00004662","stationId":"490G00004662","stopLetter":"->W","topMostParentId":"490G00004662"},{"icsId":"1006214","id":"490006214S","lat":51.609089,"lon":-0.441068,"name":"Manor House Drive","parentId":"490G00006214","stationId":"490G00006214","stopLetter":"->S","topMostParentId":"490G00006214"},{"icsId":"1008530","id":"490008530S","lat":51.605743,"lon":-0.445053,"name":"Jackets Lane","parentId":"490G00008530","stationId":"490G00008530","stopLetter":"->S","topMostParentId":"490G00008530"},{"icsId":"1011533","id":"490011533S","lat":51.589624,"lon":-0.436552,"name":"Reservoir Road","parentId":"490G00011533","stationId":"490G00011533","stopLetter":"->S","topMostParentId":"490G00011533"},{"icsId":"1004266","id":"490004266W","lat":51.587551,"lon":-0.436869,"name":"Breakspear Crematorium","parentId":"490G00004266","stationId":"490G00004266","stopLetter":"->W","topMostParentId":"490G00004266"},{"icsId":"1006844","id":"490006844S","lat":51.585234,"lon":-0.441798,"name":"Howletts Lane","parentId":"490G00006844","stationId":"490G00006844","stopLetter":"->S","topMostParentId":"490G00006844"},{"icsId":"1004269","id":"490004269E","lat":51.582533,"lon":-0.442959,"name":"Leaholme Way","parentId":"490G00004269","stationId":"490G00004269","stopLetter":"->E","topMostParentId":"490G00004269"},{"icsId":"1013209","id":"490013209E","lat":51.581394,"lon":-0.439101,"name":"Thames Drive","parentId":"490G00013209","stationId":"490G00013209","stopLetter":"->E","topMostParentId":"490G00013209"},{"icsId":"1012774","id":"490012774E","lat":51.580625,"lon":-0.434047,"name":"St Margaret's Road","parentId":"490G00012774","stationId":"490G00012774","topMostParentId":"490G00012774"},{"icsId":"1011778","id":"490011778S","lat":51.578369,"lon":-0.43004,"name":"Ruislip Young People's Centre","parentId":"490G00011778","stationId":"490G00011778","topMostParentId":"490G00011778"},{"icsId":"1013475","id":"490013475G","lat":51.575698,"lon":-0.426005,"name":"The Oaks","parentId":"490G00013475","stationId":"490G00013475","stopLetter":"G","topMostParentId":"490G00013475"},{"icsId":"1008454","id":"490011782E","lat":51.573926,"lon":-0.423973,"name":"Midcroft","parentId":"490G00008454","stationId":"490G00008454","stopLetter":"E","topMostParentId":"490G00008454"},{"icsId":"1011781","id":"490011781D","lat":51.572922,"lon":-0.422825,"name":"Brickwall Lane","parentId":"490G00011781","stationId":"490G00011781","stopLetter":"D","topMostParentId":"490G00011781"},{"icsId":"1000197","id":"490000197Z1","lat":51.572056,"lon":-0.421325,"name":"Ruislip Station","parentId":"490G00197Z2","stationId":"490G00197Z2","stopLetter":"Z1","topMostParentId":"940GZZLURSP","zone":"6"}]}]}