{"direction":"inbound","lineId":"333","lineName":"333","mode":"bus","stopPointSequences":[{"stopPoint":[{"icsId":"1009297","id":"490000073G","lat":51.496934,"lon":-0.099325,"name":"Elephant & Castle / Newington Causeway","parentId":"490G000644","stationId":"490G000644","stopLetter":"G","topMostParentId":"490G000644"},{"icsId":"1000073","id":"490000073P","lat":51.494221,"lon":-0.100605,"name":"Elephant & Castle Station","parentId":"490G00073G","stationId":"490G00073G","stopLetter":"P","topMostParentId":"HUBEPH","zone":"1+2"},{"icsId":"1010223","id":"490010223S1","lat":51.491672,"lon":-0.102555,"name":"Newington Butts","parentId":"490G00010223","stationId":"490G00010223","stopLetter":"BD","topMostParentId":"490G00010223"},{"icsId":"1010925","id":"490010925S","lat":51.490839,"lon":-0.103353,"name":"Penton Place","parentId":"490G00010925","stationId":"490G00010925","stopLetter":"BE","topMostParentId":"490G00010925"},{"icsId":"1000121","id":"490000121S","lat":51.488653,"lon":-0.105489,"name":"Kennington Station","parentId":"490G00121B","stationId":"490G00121B","stopLetter":"KA","topMostParentId":"940GZZLUKNG","zone":"2"},{"icsId":"1008656","id":"490008645Z","lat":51.484856,"lon":-0.10929,"name":"Kennington Road","parentId":"490G00008656","stationId":"490G00008656","stopLetter":"Z","topMostParentId":"490G00008656"},{"icsId":"1008649","id":"490000172N","lat":51.482335,"lon":-0.111886,"name":"Camberwell New Road","parentId":"490G00008649","stationId":"490G00008649","stopLetter":"N","topMostParentId":"490G00008649"},{"icsId":"1000172","id":"490000172R","lat":51.481578,"lon":-0.112335,"name":"Oval Station","parentId":"490G00172N","stationId":"490G00172N","stopLetter":"R","topMostParentId":"940GZZLUOVL","zone":"2"},{"icsId":"1006796","id":"490006796T","lat":51.480141,"lon":-0.114108,"name":"Fentiman Road","parentId":"490G00006796","stationId":"490G00006796","stopLetter":"T","topMostParentId":"490G00006796"},{"icsId":"1006134","id":"490006134S","lat":51.478461,"lon":-0.115905,"name":"Dorset Road","parentId":"490G00006134","stationId":"490G00006134","stopLetter":"H","topMostParentId":"490G00006134"},{"icsId":"1003164","id":"490003164S","lat":51.476948,"lon":-0.117422,"name":"Albert Square","parentId":"490G00003164","stationId":"490G00003164","stopLetter":"J","topMostParentId":"490G00003164"},{"icsId":"1008970","id":"490008970E","lat":51.474128,"lon":-0.120447,"name":"Lansdowne Way","parentId":"490G00008970","stationId":"490G00008970","stopLetter":"E","topMostParentId":"490G00008970"},{"icsId":"1012832","id":"490012832X","lat":51.47151,"lon":-0.121519,"name":"Stockwell Gardens","parentId":"490G000768","stationId":"490G000768","stopLetter":"X","topMostParentId":"490G000768"},{"icsId":"1008500","id":"490008500S","lat":51.46964,"lon":-0.119868,"name":"Irving Grove","parentId":"490G00008500","stationId":"490G00008500","stopLetter":"K","topMostParentId":"490G00008500"},{"icsId":"1012833","id":"490012833S1","lat":51.468374,"lon":-0.118841,"name":"Stockwell Green","parentId":"490G00012833","stationId":"490G00012833","topMostParentId":"490G00012833"},{"icsId":"1012578","id":"490012578B","lat":51.466309,"lon":-0.116838,"name":"Stansfield Road","parentId":"490G00012578","stationId":"490G00012578","topMostParentId":"490G00012578"},{"icsId":"1007526","id":"490007523B","lat":51.465239,"lon":-0.115183,"name":"Brixton Academy","parentId":"490G00007526","stationId":"490G00007526","stopLetter":"B","topMostParentId":"490G00007526"},{"icsId":"1000031","id":"490000031P","lat":51.461796,"lon":-0.115253,"name":"Brixton Station","parentId":"490G00031N","stationId":"490G00031N","stopLetter":"P","topMostParentId":"HUBBRX","zone":"2"},{"icsId":"1011793","id":"490011793S","lat":51.458793,"lon":-0.116931,"name":"Rush Common","parentId":"490G00011793","stationId":"490G00011793","stopLetter":"BA","topMostParentId":"490G00011793"},{"icsId":"1004362","id":"490004362S1","lat":51.456342,"lon":-0.118328,"name":"Brixton Water Lane","parentId":"490G00004362","stationId":"490G00004362","stopLetter":"BB","topMostParentId":"490G00004362"},{"icsId":"1004101","id":"490004101S","lat":51.454058,"lon":-0.120005,"name":"Blenheim Gardens","parentId":"490G00004101","stationId":"490G00004101","stopLetter":"BC","topMostParentId":"490G00004101"},{"icsId":"1008544","id":"490008544S","lat":51.452216,"lon":-0.121203,"name":"Jebb Avenue / Brixton Prison","parentId":"490G00008544","stationId":"490G00008544","stopLetter":"BD","topMostParentId":"490G00008544"},{"icsId":"1015218","id":"490015218S","lat":51.44882,"lon":-0.12366,"name":"New Park Road","parentId":"490G00015218","stationId":"490G00015218","stopLetter":"BE","topMostParentId":"490G00015218"},{"icsId":"1008310","id":"490008310S","lat":51.447781,"lon":-0.123947,"name":"Holmewood Road","parentId":"490G00008310","stationId":"490G00008310","stopLetter":"BF","topMostParentId":"490G00008310"},{"icsId":"1019763","id":"490005234S","lat":51.444291,"lon":-0.124421,"name":"Streatham Hill / Christchurch Road","parentId":"490G00019763","stationId":"490G00019763","stopLetter":"BH","topMostParentId":"490G00019763"},{"icsId":"1013186","id":"490013186S","lat":51.442024,"lon":-0.124384,"name":"Telford Avenue","parentId":"490G00013186","stationId":"490G00013186","stopLetter":"W","topMostParentId":"490G00013186"},{"icsId":"1019944","id":"490001281D","lat":51.439403,"lon":-0.12583,"name":"Streatham Hill Stn  / Streatham Hill","parentId":"490G000969","stationId":"490G000969","stopLetter":"D","topMostParentId":"490G000969"},{"icsId":"1009076","id":"490009076E","lat":51.437492,"lon":-0.127203,"name":"Leigham Court Road","parentId":"490G000632","stationId":"490G000632","stopLetter":"E","topMostParentId":"490G000632"},{"icsId":"1010078","id":"490010078J","lat":51.435927,"lon":-0.127742,"name":"Mount Ephraim Road","parentId":"490G00010078","stationId":"490G00010078","stopLetter":"J","topMostParentId":"490G00010078"},{"icsId":"1008765","id":"490008765L","lat":51.434447,"lon":-0.127961,"name":"Kingscourt Road","parentId":"490G00008765","stationId":"490G00008765","stopLetter":"L","topMostParentId":"490G00008765"},{"icsId":"1003758","id":"490003758NA","lat":51.432658,"lon":-0.128566,"name":"Becmead Avenue","parentId":"490G00003758","stationId":"490G00003758","stopLetter":"NA","topMostParentId":"490G00003758"},{"icsId":"1012933","id":"490012761ST","lat":51.42842,"lon":-0.131832,"name":"Streatham / St Leonard's Church","parentId":"490G00012933","stationId":"490G00012933","stopLetter":"SL","topMostParentId":"490G00012933"},{"icsId":"1003292","id":"490003292S1","lat":51.427212,"lon":-0.134413,"name":"Ambleside Avenue","parentId":"490G00003292","stationId":"490G00003292","stopLetter":"SM","topMostParentId":"490G00003292"},{"icsId":"1005566","id":"490005566S","lat":51.426419,"lon":-0.136574,"name":"Conyers Road","parentId":"490G00005566","stationId":"490G00005566","stopLetter":"SN","topMostParentId":"490G00005566"},{"icsId":"1003189","id":"490003189S","lat":51.425058,"lon":-0.140341,"name":"Aldrington Road","parentId":"490G00003189","stationId":"490G00003189","stopLetter":"SQ","topMostParentId":"490G00003189"},{"icsId":"1013647","id":"490013647S","lat":51.423718,"lon":-0.142093,"name":"Thrale Road","parentId":"490G00013647","stationId":"490G00013647","stopLetter":"A","topMostParentId":"490G00013647"},{"icsId":"1005931","id":"490005931S","lat":51.421681,"lon":-0.14462,"name":"Dahomey Road","parentId":"490G00005931","stationId":"490G00005931","stopLetter":"B","topMostParentId":"490G00005931"},{"icsId":"1006388","id":"490006388S","lat":51.420017,"lon":-0.146299,"name":"Mitcham Lane / Southcroft Road","parentId":"490G00006388","stationId":"490G00006388","stopLetter":"C","topMostParentId":"490G00006388"},{"icsId":"1012269","id":"490012269W","lat":51.419923,"lon":-0.14833,"name":"Southcroft Road / Mitcham Lane","parentId":"490G00012269","stationId":"490G00012269","stopLetter":"F","topMostParentId":"490G00012269"},{"icsId":"1010284","id":"490010284W","lat":51.420808,"lon":-0.152537,"name":"Nimrod Road","parentId":"490G00010284","stationId":"490G00010284","stopLetter":"G","topMostParentId":"490G00010284"},{"icsId":"1006319","id":"490006319W","lat":51.421522,"lon":-0.155069,"name":"Eastbourne Road","parentId":"490G00006319","stationId":"490G00006319","stopLetter":"TQ","topMostParentId":"490G00006319"},{"icsId":"1003295","id":"490005830W","lat":51.422636,"lon":-0.158965,"name":"Amen Corner","parentId":"490G00003295","stationId":"490G00003295","stopLetter":"TS","topMostParentId":"490G00003295"},{"icsId":"1013709","id":"490013709S","lat":51.424478,"lon":-0.16348,"name":"Tooting / The Mitre","parentId":"490G00013709","stationId":"490G00013709","stopLetter":"TH","topMostParentId":"490G00013709"},{"icsId":"1003990","id":"490003990P","lat":51.425981,"lon":-0.165836,"name":"Bickley Street","parentId":"490G00003990","stationId":"490G00003990","stopLetter":"P","topMostParentId":"490G00003990"},{"icsId":"1000234","id":"490000234W1","lat":51.426865,"lon":-0.166606,"name":"Tooting Broadway Station","parentId":"490G00234G","stationId":"490G00234G","stopLetter":"R","topMostParentId":"940GZZLUTBY","zone":"3"}]}]}