{"direction":"inbound","lineId":"337","lineName":"337","mode":"bus","stopPointSequences":[{"stopPoint":[{"icsId":"1011556","id":"490011556H","lat":51.45921,"lon":-0.304551,"name":"Richmond Bus Station","parentId":"490G00011556","stationId":"490G00011556","stopLetter":"H","topMostParentId":"490G00011556"},{"icsId":"1007166","id":"490007166A","lat":51.460511,"lon":-0.305612,"name":"George Street","parentId":"490G00007166","stationId":"490G00007166","stopLetter":"A","topMostParentId":"490G00007166"},{"icsId":"1012050","id":"490012050G","lat":51.461414,"lon":-0.302109,"name":"Eton Street","parentId":"490G00012050","stationId":"490G00012050","stopLetter":"G","topMostParentId":"490G00012050"},{"icsId":"1012051","id":"490012051E","lat":51.461918,"lon":-0.296548,"name":"Church Road","parentId":"490G00012051","stationId":"490G00012051","stopLetter":"->E","topMostParentId":"490G00012051"},{"icsId":"1012452","id":"490012452SH","lat":51.462085,"lon":-0.291359,"name":"St Mary's Grove","parentId":"490G00012452","stationId":"490G00012452","stopLetter":"SH","topMostParentId":"490G00012452"},{"icsId":"1006377","id":"490006377SD","lat":51.461804,"lon":-0.287469,"name":"Manor Road / North Sheen Station","parentId":"490G00006377","stationId":"490G00006377","stopLetter":"SD","topMostParentId":"490G00006377"},{"icsId":"1012046","id":"490012046E","lat":51.463328,"lon":-0.282891,"name":"Sheen Court","parentId":"490G00012046","stationId":"490G00012046","stopLetter":"S","topMostParentId":"490G00012046"},{"icsId":"1003941","id":"490005407E","lat":51.464265,"lon":-0.27871,"name":"Berwyn Road","parentId":"490G00003941","stationId":"490G00003941","stopLetter":"T","topMostParentId":"490G00003941"},{"icsId":"1007332","id":"490007332E","lat":51.464476,"lon":-0.275304,"name":"Graemesdyke Avenue","parentId":"490G00007332","stationId":"490G00007332","stopLetter":"U","topMostParentId":"490G00007332"},{"icsId":"1013196","id":"490013196E","lat":51.464217,"lon":-0.271773,"name":"Temple Sheen Road","parentId":"490G00013196","stationId":"490G00013196","stopLetter":"V","topMostParentId":"490G00013196"},{"icsId":"1012049","id":"490012049E","lat":51.464533,"lon":-0.26819,"name":"East Sheen","parentId":"490G00012049","stationId":"490G00012049","stopLetter":"C","topMostParentId":"490G00012049"},{"icsId":"1010732","id":"490010732E","lat":51.465031,"lon":-0.26355,"name":"Thornton Road","parentId":"490G00010732","stationId":"490G00010732","stopLetter":"G","topMostParentId":"490G00010732"},{"icsId":"1007186","id":"490011350E","lat":51.46528,"lon":-0.259754,"name":"Kings Road","parentId":"490G00007186","stationId":"490G00007186","stopLetter":"H","topMostParentId":"490G00007186"},{"icsId":"1011184","id":"490011184E","lat":51.46529,"lon":-0.252541,"name":"Priests Bridge","parentId":"490G00011184","stationId":"490G00011184","stopLetter":"J","topMostParentId":"490G00011184"},{"icsId":"1011229","id":"490011229E","lat":51.465264,"lon":-0.2508,"name":"Priory Lane","parentId":"490G00011229","stationId":"490G00011229","stopLetter":"D","topMostParentId":"490G00011229"},{"icsId":"1011642","id":"490011642E","lat":51.465528,"lon":-0.244384,"name":"Queens Ride","parentId":"490G00011642","stationId":"490G00011642","stopLetter":"E","topMostParentId":"490G00011642"},{"icsId":"1007192","id":"490007192E","lat":51.464771,"lon":-0.237718,"name":"Gipsy Lane","parentId":"490G00007192","stationId":"490G00007192","stopLetter":"F","topMostParentId":"490G00007192"},{"icsId":"1014818","id":"490014818E","lat":51.464199,"lon":-0.233738,"name":"Woodborough Road","parentId":"490G00014818","stationId":"490G00014818","stopLetter":"G","topMostParentId":"490G00014818"},{"icsId":"1011287","id":"490011287E","lat":51.463287,"lon":-0.228763,"name":"Putney Leisure Centre","parentId":"490G00011287","stationId":"490G00011287","stopLetter":"L","topMostParentId":"490G00011287"},{"icsId":"1011288","id":"490011288E","lat":51.462658,"lon":-0.222238,"name":"Putney Methodist Church","parentId":"490G00011288","stationId":"490G00011288","stopLetter":"M","topMostParentId":"490G00011288"},{"icsId":"1004628","id":"490004628JA","lat":51.461474,"lon":-0.218872,"name":"Putney Arts Theatre","parentId":"490G00004628","stationId":"490G00004628","stopLetter":"J","topMostParentId":"490G00004628"},{"icsId":"1001231","id":"490001231F","lat":51.460611,"lon":-0.21535,"name":"Putney Station","parentId":"490G01231F","stationId":"490G01231F","stopLetter":"F","topMostParentId":"910GPUTNEY"},{"icsId":"1000069","id":"490000069EA","lat":51.460025,"lon":-0.212321,"name":"East Putney Station","parentId":"490G00069EB","stationId":"490G00069EB","stopLetter":"EA","topMostParentId":"940GZZLUEPY","zone":"2+3"},{"icsId":"1009543","id":"490009543E","lat":51.457693,"lon":-0.206237,"name":"Manfred Road","parentId":"490G00009543","stationId":"490G00009543","stopLetter":"ED","topMostParentId":"490G00009543"},{"icsId":"1012985","id":"490012985E","lat":51.456768,"lon":-0.203366,"name":"Galveston Road","parentId":"490G00012985","stationId":"490G00012985","stopLetter":"EE","topMostParentId":"490G00012985"},{"icsId":"1009836","id":"490009836A","lat":51.456961,"lon":-0.1995,"name":"Merton Road","parentId":"490G00009836","stationId":"490G00009836","stopLetter":"A","topMostParentId":"490G00009836"},{"icsId":"1003383","id":"490003383E","lat":51.45831,"lon":-0.196611,"name":"Armoury Way","parentId":"490G00003383","stationId":"490G00003383","stopLetter":"E","topMostParentId":"490G00003383"},{"icsId":"1014195","id":"490014195N","lat":51.457629,"lon":-0.189743,"name":"Wandsworth Town Hall","parentId":"490G00014195","stationId":"490G00014195","stopLetter":"N","topMostParentId":"490G00014195"},{"icsId":"1003259","id":"490003259E","lat":51.457707,"lon":-0.185523,"name":"East Hill / Alma Road","parentId":"490G00003259","stationId":"490G00003259","stopLetter":"A","topMostParentId":"490G00003259"},{"icsId":"1009638","id":"490015404E","lat":51.459451,"lon":-0.180847,"name":"Marcilly Road","parentId":"490G00009638","stationId":"490G00009638","stopLetter":"B","topMostParentId":"490G00009638"},{"icsId":"1011066","id":"490011066E","lat":51.461337,"lon":-0.174323,"name":"Plough Road","parentId":"490G00011066","stationId":"490G00011066","stopLetter":"C","topMostParentId":"490G00011066"},{"icsId":"1001069","id":"490001069C","lat":51.463013,"lon":-0.170484,"name":"Clapham Junction Station","parentId":"490G01069M","stationId":"490G01069M","stopLetter":"C","topMostParentId":"490G01069M"},{"icsId":"1005332","id":"490005332T","lat":51.463086,"lon":-0.167689,"name":"Clapham Junction Station  / The Falcon","parentId":"490G000462","stationId":"490G000462","stopLetter":"T","topMostParentId":"HUBCLJ"},{"icsId":"1005333","id":"490005333Y","lat":51.461281,"lon":-0.167257,"name":"Clapham Junction / The Northcote","parentId":"490G00005333","stationId":"490G00005333","stopLetter":"Y","topMostParentId":"HUBCLJ"},{"icsId":"1004133","id":"490004133W","lat":51.460083,"lon":-0.170573,"name":"Bolingbroke Grove","parentId":"490G00004133","stationId":"490G00004133","stopLetter":"SC","topMostParentId":"490G00004133"}]}]}