{"direction":"inbound","lineId":"339","lineName":"339","mode":"bus","stopPointSequences":[{"stopPoint":[{"icsId":"1000202","id":"490000202D","lat":51.511883,"lon":-0.056188,"name":"Shadwell Station","parentId":"490G00202A","stationId":"490G00202A","stopLetter":"D","topMostParentId":"HUBSDE","zone":"2"},{"icsId":"1013158","id":"490013158G","lat":51.513081,"lon":-0.05412,"name":"Sutton Street","parentId":"490G00013158","stationId":"490G00013158","stopLetter":"G","topMostParentId":"490G00013158"},{"icsId":"1008584","id":"490008584H","lat":51.514614,"lon":-0.053319,"name":"Musbury Street","parentId":"490G00008584","stationId":"490G00008584","stopLetter":"H","topMostParentId":"490G00008584"},{"icsId":"1008535","id":"490008535E","lat":51.517006,"lon":-0.048417,"name":"Jamaica Street","parentId":"490G00008535","stationId":"490G00008535","stopLetter":"W","topMostParentId":"490G00008535"},{"icsId":"1012653","id":"490012653E","lat":51.516801,"lon":-0.043655,"name":"St Dunstan's Church","parentId":"490G00012653","stationId":"490G00012653","stopLetter":"X","topMostParentId":"490G00012653"},{"icsId":"1003897","id":"490003897B","lat":51.518342,"lon":-0.039539,"name":"Harford Street","parentId":"490G00003897","stationId":"490G00003897","stopLetter":"N","topMostParentId":"490G00003897"},{"icsId":"1006105","id":"490006105N","lat":51.518833,"lon":-0.038812,"name":"Dongola Road","parentId":"490G00006105","stationId":"490G00006105","stopLetter":"P","topMostParentId":"490G00006105"},{"icsId":"1006626","id":"490006626N","lat":51.521837,"lon":-0.039389,"name":"Ernest Street","parentId":"490G00006626","stationId":"490G00006626","stopLetter":"R","topMostParentId":"490G00006626"},{"icsId":"1007341","id":"490007341E","lat":51.524353,"lon":-0.03709,"name":"Regents Canal","parentId":"490G00007341","stationId":"490G00007341","stopLetter":"E","topMostParentId":"490G00007341"},{"icsId":"1018852","id":"490000146G","lat":51.525807,"lon":-0.035355,"name":"Mile End Station / Mile End Road","parentId":"490G000925","stationId":"490G000925","stopLetter":"G","topMostParentId":"490G000925"},{"icsId":"1013517","id":"490013517N","lat":51.527068,"lon":-0.03654,"name":"Lichfield Road","parentId":"490G00013517","stationId":"490G00013517","stopLetter":"->N","topMostParentId":"490G00013517"},{"icsId":"1003352","id":"490003352N","lat":51.528963,"lon":-0.038521,"name":"Arbery Road","parentId":"490G00003352","stationId":"490G00003352","stopLetter":"Q","topMostParentId":"490G00003352"},{"icsId":"1012633","id":"490012633N","lat":51.530425,"lon":-0.039928,"name":"St Barnabas Church","parentId":"490G00012633","stationId":"490G00012633","stopLetter":"R","topMostParentId":"490G00012633"},{"icsId":"1007580","id":"490007580E","lat":51.531049,"lon":-0.039584,"name":"Roman Road / Grove Road","parentId":"490G00007580","stationId":"490G00007580","stopLetter":"RJ","topMostParentId":"490G00007580"},{"icsId":"1009786","id":"490009786E","lat":51.531813,"lon":-0.035832,"name":"Medway Road","parentId":"490G00009786","stationId":"490G00009786","stopLetter":"J","topMostParentId":"490G00009786"},{"icsId":"1006904","id":"490006904E","lat":51.532233,"lon":-0.033478,"name":"Ford Road","parentId":"490G00006904","stationId":"490G00006904","stopLetter":"K","topMostParentId":"490G00006904"},{"icsId":"1015685","id":"490015685E","lat":51.530203,"lon":-0.030422,"name":"Antill Road","parentId":"490G00015685","stationId":"490G00015685","stopLetter":"SL","topMostParentId":"490G00015685"},{"icsId":"1015683","id":"490015683E","lat":51.532072,"lon":-0.026088,"name":"Usher Road","parentId":"490G00015683","stationId":"490G00015683","stopLetter":"E","topMostParentId":"490G00015683"},{"icsId":"1003489","id":"490014659N","lat":51.534656,"lon":-0.021954,"name":"Autumn Street","parentId":"490G00003489","stationId":"490G00003489","stopLetter":"QS","topMostParentId":"490G00003489"},{"icsId":"1006862","id":"490006862W","lat":51.536255,"lon":-0.022951,"name":"Fish Island","parentId":"490G00006862","stationId":"490G00006862","stopLetter":"OT","topMostParentId":"490G00006862"},{"icsId":"1009970","id":"490009968N1","lat":51.538421,"lon":-0.025554,"name":"Wansbeck Road","parentId":"490G00009970","stationId":"490G00009970","stopLetter":"OF","topMostParentId":"490G00009970"},{"icsId":"1014198","id":"490014198E","lat":51.542143,"lon":-0.026027,"name":"Rothbury Road","parentId":"490G00014198","stationId":"490G00014198","stopLetter":"C","topMostParentId":"490G00014198"},{"icsId":"1000297","id":"490000297E","lat":51.542738,"lon":-0.022396,"name":"White Post Lane","parentId":"490G00000297","stationId":"490G00000297","stopLetter":"D","topMostParentId":"490G00000297"},{"icsId":"1020184","id":"490020184S","lat":51.539433,"lon":-0.008797,"name":"London Aquatics Centre","parentId":"490G00020184","stationId":"490G00020184","stopLetter":"J","topMostParentId":"490G00020184"},{"icsId":"1019793","id":"490019793S","lat":51.543622,"lon":-0.003927,"name":"Stratford City Bus Station","parentId":"490G00019793","stationId":"490G00019793","stopLetter":"S","topMostParentId":"490G00019793"},{"icsId":"1001556","id":"490018554C","lat":51.545448,"lon":-0.00663,"name":"Stratford International Station","parentId":"490G18554E","stationId":"490G18554E","stopLetter":"C","topMostParentId":"910GSTFODOM"},{"icsId":"1000287","id":"490000287N","lat":51.547737,"lon":-0.00692,"name":"Sir Ludwig Guttmann Health Centre","parentId":"490G000001","stationId":"490G000001","stopLetter":"Q","topMostParentId":"490G000001"},{"icsId":"1006438","id":"490006489E","lat":51.552078,"lon":7.8e-05,"name":"Edith Road","parentId":"490G00006438","stationId":"490G00006438","stopLetter":"E","topMostParentId":"490G00006438"},{"icsId":"1008181","id":"490009140E","lat":51.552473,"lon":0.003832,"name":"Burgess Road","parentId":"490G00008181","stationId":"490G00008181","stopLetter":"S","topMostParentId":"490G00008181"},{"icsId":"1011421","id":"490011421N","lat":51.555234,"lon":0.005396,"name":"Ranelagh Road","parentId":"490G00011421","stationId":"490G00011421","stopLetter":"J","topMostParentId":"490G00011421"},{"icsId":"1007849","id":"490007849N","lat":51.557589,"lon":0.006495,"name":"Harrow Green","parentId":"490G00007849","stationId":"490G00007849","stopLetter":"K","topMostParentId":"490G00007849"},{"icsId":"1003343","id":"490003343W","lat":51.559021,"lon":0.005346,"name":"Apollo Place","parentId":"490G00003343","stationId":"490G00003343","stopLetter":"M","topMostParentId":"490G00003343"},{"icsId":"1008304","id":"490008304W","lat":51.559988,"lon":0.002921,"name":"Hollydown Way","parentId":"490G00008304","stationId":"490G00008304","topMostParentId":"490G00008304"},{"icsId":"1004868","id":"490004918N","lat":51.561983,"lon":0.001436,"name":"Central Avenue","parentId":"490G00004868","stationId":"490G00004868","stopLetter":"->N","topMostParentId":"490G00004868"},{"icsId":"1007738","id":"490007738E","lat":51.565825,"lon":0.002384,"name":"Hampton Road","parentId":"490G00007738","stationId":"490G00007738","stopLetter":"AE","topMostParentId":"490G00007738"},{"icsId":"1006195","id":"490006195D","lat":51.566927,"lon":0.004193,"name":"Drayton Road","parentId":"490G00006195","stationId":"490G00006195","stopLetter":"AD","topMostParentId":"490G00006195"},{"icsId":"1009139","id":"490009139","lat":51.568189,"lon":0.007178,"name":"Leytonstone Station / Grove Green Road","parentId":"490G000638","stationId":"490G000638","stopLetter":"C","topMostParentId":"490G000638"}]}]}