{"direction":"inbound","lineId":"358","lineName":"358","mode":"bus","stopPointSequences":[{"stopPoint":[{"icsId":"1005879","id":"490005869D","lat":51.420429,"lon":-0.078078,"name":"Crystal Palace Bus Station","parentId":"490G00005879","stationId":"490G00005879","stopLetter":"D","topMostParentId":"490G00005879"},{"icsId":"1005877","id":"490005870E","lat":51.419757,"lon":-0.077129,"name":"Crystal Palace Park","parentId":"490G00005877","stationId":"490G00005877","stopLetter":"E","topMostParentId":"490G00005877"},{"icsId":"1001078","id":"490001078M","lat":51.417826,"lon":-0.073974,"name":"Crystal Palace Station","parentId":"490G01078M","stationId":"490G01078M","stopLetter":"M","topMostParentId":"HUBCYP"},{"icsId":"1003320","id":"490007700S","lat":51.41576,"lon":-0.071918,"name":"Hamlet Road","parentId":"490G00003320","stationId":"490G00003320","stopLetter":"A","topMostParentId":"490G00003320"},{"icsId":"1013610","id":"490013610S","lat":51.414224,"lon":-0.069883,"name":"Thicket Road","parentId":"490G00013610","stationId":"490G00013610","stopLetter":"B","topMostParentId":"490G00013610"},{"icsId":"1018975","id":"490001007AA","lat":51.41208,"lon":-0.066896,"name":"Anerley Road / Anerley Station","parentId":"490G00018975","stationId":"490G00018975","stopLetter":"C","topMostParentId":"490G00018975"},{"icsId":"1012015","id":"490012015S","lat":51.410984,"lon":-0.065346,"name":"Seymour Villas","parentId":"490G00012015","stationId":"490G00012015","stopLetter":"D","topMostParentId":"490G00012015"},{"icsId":"1003955","id":"490003955AG","lat":51.409676,"lon":-0.062942,"name":"Betts Way","parentId":"490G00003955","stationId":"490G00003955","stopLetter":"U","topMostParentId":"490G00003955"},{"icsId":"1018973","id":"490003317AH","lat":51.409224,"lon":-0.060071,"name":"Anerley Road / Croydon Road","parentId":"490G00018973","stationId":"490G00018973","stopLetter":"V","topMostParentId":"490G00018973"},{"icsId":"1003317","id":"490003317AK","lat":51.409068,"lon":-0.058798,"name":"Anerley Road / Oak Grove Road","parentId":"490G00003317","stationId":"490G00003317","stopLetter":"E","topMostParentId":"490G00003317"},{"icsId":"1003494","id":"490003494E","lat":51.41075,"lon":-0.05608,"name":"Avenue Road","parentId":"490G00003494","stationId":"490G00003494","stopLetter":"F","topMostParentId":"490G00003494"},{"icsId":"1015419","id":"490015419G","lat":51.413607,"lon":-0.052148,"name":"Penge / Pawleyne Arms","parentId":"490G00015419","stationId":"490G00015419","stopLetter":"G","topMostParentId":"490G00015419"},{"icsId":"1010907","id":"490010906J","lat":51.413523,"lon":-0.051404,"name":"Penge / Sainsbury's","parentId":"490G00010907","stationId":"490G00010907","stopLetter":"J","topMostParentId":"490G00010907"},{"icsId":"1005393","id":"490005393E","lat":51.4119,"lon":-0.049014,"name":"Clevedon Road","parentId":"490G00005393","stationId":"490G00005393","stopLetter":"->E","topMostParentId":"490G00005393"},{"icsId":"1001163","id":"490001163E","lat":51.410258,"lon":-0.045949,"name":"Kent House Station","parentId":"490G01163W","stationId":"490G01163W","stopLetter":"BA","topMostParentId":"910GKENTHOS"},{"icsId":"1002010","id":"490002010A","lat":51.409352,"lon":-0.043443,"name":"Beckenham Road Tram Stop","parentId":"490G02010B","stationId":"490G02010B","stopLetter":"BB","topMostParentId":"940GZZCRBRD"},{"icsId":"1001071","id":"490001071B","lat":51.408765,"lon":-0.040045,"name":"Clock House Station","parentId":"490G01071A","stationId":"490G01071A","stopLetter":"BC","topMostParentId":"910GCLOCKHS"},{"icsId":"1006516","id":"490006516E","lat":51.408526,"lon":-0.038143,"name":"Beckenham Library","parentId":"490G00006516","stationId":"490G00006516","stopLetter":"BD","topMostParentId":"490G00006516"},{"icsId":"1015349","id":"490015349E1","lat":51.407959,"lon":-0.035407,"name":"Hayne Road","parentId":"490G00015349","stationId":"490G00015349","stopLetter":"BE","topMostParentId":"490G00015349"},{"icsId":"1003743","id":"490003743S","lat":51.406582,"lon":-0.032647,"name":"Croydon Road / War Memorial","parentId":"490G00003743","stationId":"490G00003743","stopLetter":"S","topMostParentId":"490G00003743"},{"icsId":"1003742","id":"490003742S","lat":51.404762,"lon":-0.034063,"name":"Beckenham Hospital","parentId":"490G00003742","stationId":"490G00003742","stopLetter":"B","topMostParentId":"490G00003742"},{"icsId":"1005796","id":"490005796S","lat":51.402819,"lon":-0.03672,"name":"Cromwell Road","parentId":"490G00005796","stationId":"490G00005796","stopLetter":"->S","topMostParentId":"490G00005796"},{"icsId":"1006409","id":"490006409S","lat":51.399505,"lon":-0.040714,"name":"Eden Park Avenue","parentId":"490G00006409","stationId":"490G00006409","stopLetter":"L","topMostParentId":"490G00006409"},{"icsId":"1006506","id":"490006506BC1","lat":51.398601,"lon":-0.043168,"name":"Elmers End Green","parentId":"490G00006506","stationId":"490G00006506","stopLetter":"M","topMostParentId":"490G00006506"},{"icsId":"1003046","id":"490003046W","lat":51.393117,"lon":-0.041088,"name":"Abbots Way","parentId":"490G00003046","stationId":"490G00003046","stopLetter":"N","topMostParentId":"490G00003046"},{"icsId":"1013532","id":"490015526E","lat":51.392,"lon":-0.037183,"name":"Altyre Way","parentId":"490G00013532","stationId":"490G00013532","stopLetter":"->E","topMostParentId":"490G00013532"},{"icsId":"1009249","id":"490009249E","lat":51.392108,"lon":-0.033484,"name":"Lodge Gardens","parentId":"490G00009249","stationId":"490G00009249","stopLetter":"P","topMostParentId":"490G00009249"},{"icsId":"1006408","id":"490006408E1","lat":51.391115,"lon":-0.028941,"name":"Eden Park","parentId":"490G00006408","stationId":"490G00006408","stopLetter":"Q","topMostParentId":"490G00006408"},{"icsId":"1001091","id":"490001091B","lat":51.390217,"lon":-0.02691,"name":"Eden Park Station","parentId":"490G01091B","stationId":"490G01091B","stopLetter":"B","topMostParentId":"910GEDPK"},{"icsId":"1009192","id":"490009192E","lat":51.387188,"lon":-0.024338,"name":"Links Way","parentId":"490G00009192","stationId":"490G00009192","stopLetter":"J","topMostParentId":"490G00009192"},{"icsId":"1013932","id":"490013932N","lat":51.388153,"lon":-0.023923,"name":"Upper Elmers End Road","parentId":"490G00013932","stationId":"490G00013932","stopLetter":"H","topMostParentId":"490G00013932"},{"icsId":"1008950","id":"490008950N","lat":51.391005,"lon":-0.023498,"name":"Langley Court / South Gate","parentId":"490G00008950","stationId":"490G00008950","stopLetter":"C","topMostParentId":"490G00008950"},{"icsId":"1013296","id":"490015413N","lat":51.398286,"lon":-0.019059,"name":"The Chinese Garage","parentId":"490G00013296","stationId":"490G00013296","stopLetter":"LJ","topMostParentId":"490G00013296"},{"icsId":"1008674","id":"490008674E","lat":51.399462,"lon":-0.013056,"name":"Kenwood Drive","parentId":"490G00008674","stationId":"490G00008674","stopLetter":"PC","topMostParentId":"490G00008674"},{"icsId":"1011958","id":"490011958E","lat":51.399233,"lon":-0.009141,"name":"Scotts Lane","parentId":"490G00011958","stationId":"490G00011958","stopLetter":"PD","topMostParentId":"490G00011958"},{"icsId":"1006044","id":"490006044N","lat":51.399959,"lon":-0.005832,"name":"Den Road","parentId":"490G00006044","stationId":"490G00006044","stopLetter":"PJ","topMostParentId":"490G00006044"},{"icsId":"1012119","id":"490012119N2","lat":51.401304,"lon":-0.004005,"name":"Shortlands Grove","parentId":"490G00012119","stationId":"490G00012119","stopLetter":"PK","topMostParentId":"490G00012119"},{"icsId":"1005296","id":"490005300N","lat":51.403261,"lon":-0.001159,"name":"Church Road","parentId":"490G00005296","stationId":"490G00005296","stopLetter":"->N","topMostParentId":"490G00005296"},{"icsId":"1001248","id":"490001248E","lat":51.405322,"lon":0.000857,"name":"Shortlands Station","parentId":"490G01248A","stationId":"490G01248A","stopLetter":"E","topMostParentId":"910GSHRTLND"},{"icsId":"1014002","id":"490014002E","lat":51.406866,"lon":0.004721,"name":"Valley School","parentId":"490G00014002","stationId":"490G00014002","stopLetter":"P","topMostParentId":"490G00014002"},{"icsId":"1004409","id":"4900004411SE","lat":51.40624,"lon":0.013407,"name":"High Street / Market Square","parentId":"490G00004409","stationId":"490G00004409","stopLetter":"T","topMostParentId":"490G00004409"},{"icsId":"1004435","id":"490004435K","lat":51.406245,"lon":0.017807,"name":"Bromley Town Hall","parentId":"490G00004435","stationId":"490G00004435","stopLetter":"K","topMostParentId":"490G00004435"},{"icsId":"1008665","id":"490008665T","lat":51.404326,"lon":0.019103,"name":"Bromley Civic Centre","parentId":"490G00008665","stationId":"490G00008665","stopLetter":"T","topMostParentId":"490G00008665"},{"icsId":"1006507","id":"490006507Y","lat":51.401839,"lon":0.016247,"name":"Bromley High Street / The Mall","parentId":"490G00006507","stationId":"490G00006507","stopLetter":"X","topMostParentId":"490G00006507"},{"icsId":"1001037","id":"490001037Z","lat":51.400493,"lon":0.017122,"name":"Bromley South Station","parentId":"490G01037U","stationId":"490G01037U","stopLetter":"Z","topMostParentId":"910GBROMLYS"},{"icsId":"1004423","id":"490004423G","lat":51.398924,"lon":0.018908,"name":"Cromwell Avenue","parentId":"490G00004423","stationId":"490G00004423","stopLetter":"G","topMostParentId":"490G00004423"},{"icsId":"1003934","id":"490003934S","lat":51.39701,"lon":0.023553,"name":"Bertha James Day Centre","parentId":"490G00003934","stationId":"490G00003934","stopLetter":"BA","topMostParentId":"490G00003934"},{"icsId":"1008330","id":"490008330S","lat":51.396041,"lon":0.024934,"name":"Homesdale Road","parentId":"490G00008330","stationId":"490G00008330","stopLetter":"BB","topMostParentId":"490G00008330"},{"icsId":"1012309","id":"490012309S","lat":51.392688,"lon":0.031096,"name":"Southlands Road","parentId":"490G00012309","stationId":"490G00012309","stopLetter":"BA","topMostParentId":"490G00012309"},{"icsId":"1008573","id":"490008573S","lat":51.390209,"lon":0.034551,"name":"Bromley Common / The Crown","parentId":"490G00008573","stationId":"490G00008573","stopLetter":"BB","topMostParentId":"490G00008573"},{"icsId":"1013856","id":"490013856S","lat":51.3826,"lon":0.040292,"name":"Bromley Common / Turpington Lane","parentId":"490G00013856","stationId":"490G00013856","stopLetter":"BL","topMostParentId":"490G00013856"},{"icsId":"1019738","id":"490010498S","lat":51.378677,"lon":0.042992,"name":"Oakley Road / Holy Trinity Church","parentId":"490G00019738","stationId":"490G00019738","stopLetter":"BM","topMostParentId":"490G00019738"},{"icsId":"1004413","id":"490004413S","lat":51.375748,"lon":0.044428,"name":"Bromley Bus Garage","parentId":"490G00004413","stationId":"490G00004413","stopLetter":"BN","topMostParentId":"490G00004413"},{"icsId":"1008913","id":"490010752S","lat":51.370609,"lon":0.047733,"name":"Lakeside Drive","parentId":"490G00008913","stationId":"490G00008913","stopLetter":"->S","topMostParentId":"490G00008913"},{"icsId":"1006757","id":"490006757E","lat":51.368406,"lon":0.049747,"name":"Farnborough Park","parentId":"490G00006757","stationId":"490G00006757","stopLetter":"->E","topMostParentId":"490G00006757"},{"icsId":"1006758","id":"490006756E","lat":51.36462,"lon":0.055899,"name":"Farnborough Common / P R U Hospital","parentId":"490G000512","stationId":"490G000512","stopLetter":"HC","topMostParentId":"490G000512"},{"icsId":"1014341","id":"490014341E","lat":51.363451,"lon":0.057455,"name":"Wellbrook Road","parentId":"490G00014341","stationId":"490G00014341","stopLetter":"A","topMostParentId":"490G00014341"},{"icsId":"1008203","id":"490008203E","lat":51.362298,"lon":0.059587,"name":"Hilda Vale Road","parentId":"490G00008203","stationId":"490G00008203","stopLetter":"B","topMostParentId":"490G00008203"},{"icsId":"1006754","id":"490006754W","lat":51.360134,"lon":0.06502,"name":"Farnborough Green","parentId":"490G00006754","stationId":"490G00006754","stopLetter":"C","topMostParentId":"490G00006754"},{"icsId":"1006753","id":"490006753E","lat":51.359436,"lon":0.071496,"name":"Farnborough High Street / Church Road","parentId":"490G00006753","stationId":"490G00006753","stopLetter":"D","topMostParentId":"490G00006753"},{"icsId":"1013817","id":"490013817E","lat":51.359502,"lon":0.074846,"name":"Tubbenden Lane South","parentId":"490G00013817","stationId":"490G00013817","stopLetter":"E","topMostParentId":"490G00013817"},{"icsId":"1010588","id":"490010588E2","lat":51.35903,"lon":0.078157,"name":"Oleander Close","parentId":"490G00010588","stationId":"490G00010588","stopLetter":"F","topMostParentId":"490G00010588"},{"icsId":"1006277","id":"490006277E","lat":51.358383,"lon":0.082652,"name":"Durrant Way","parentId":"490G00006277","stationId":"490G00006277","stopLetter":"G","topMostParentId":"490G00006277"},{"icsId":"1012089","id":"490012089E","lat":51.357771,"lon":0.08521,"name":"Orpington","parentId":"490G00012089","stationId":"490G00012089","stopLetter":"H","topMostParentId":"490G00012089"},{"icsId":"1009841","id":"490009841O","lat":51.356375,"lon":0.088378,"name":"Farnborough Hill / Bus Garage","parentId":"490G00009841","stationId":"490G00009841","stopLetter":"L","topMostParentId":"490G00009841"},{"icsId":"1006755","id":"490006755DE","lat":51.356725,"lon":0.088911,"name":"Glentrammon Road","parentId":"490G00006755","stationId":"490G00006755","stopLetter":"D","topMostParentId":"490G00006755"},{"icsId":"1005748","id":"490005748N","lat":51.360763,"lon":0.088922,"name":"Crescent Way","parentId":"490G00005748","stationId":"490G00005748","stopLetter":"J","topMostParentId":"490G00005748"},{"icsId":"1010639","id":"490010639N","lat":51.363253,"lon":0.091507,"name":"Sevenoaks Road / Cloonmore Avenue","parentId":"490G00010639","stationId":"490G00010639","stopLetter":"K","topMostParentId":"490G00010639"},{"icsId":"1012592","id":"490012592N","lat":51.365699,"lon":0.094017,"name":"Sevenoaks Road / Orpington Hospital","parentId":"490G00012592","stationId":"490G00012592","stopLetter":"L","topMostParentId":"490G00012592"},{"icsId":"1013749","id":"490013749N","lat":51.367384,"lon":0.095315,"name":"Sevenoaks Road / Tower Road","parentId":"490G00013749","stationId":"490G00013749","stopLetter":"N","topMostParentId":"490G00013749"},{"icsId":"1008209","id":"490008209K","lat":51.371216,"lon":0.096812,"name":"Hillcrest Road","parentId":"490G00008209","stationId":"490G00008209","stopLetter":"K","topMostParentId":"490G00008209"},{"icsId":"1019893","id":"490015411L","lat":51.372485,"lon":0.097229,"name":"Sevenoaks Road / Orpington War Memorial","parentId":"490G00019893","stationId":"490G00019893","stopLetter":"L","topMostParentId":"490G00019893"}]},{"stopPoint":[{"icsId":"1019893","id":"490015411L","lat":51.372485,"lon":0.097229,"name":"Sevenoaks Road / Orpington War Memorial","parentId":"490G00019893","stationId":"490G00019893","stopLetter":"L","topMostParentId":"490G00019893"},{"icsId":"1019892","id":"490015411R","lat":51.373987,"lon":0.097714,"name":"High Street / Orpington War Memorial","parentId":"490G00019892","stationId":"490G00019892","stopLetter":"R","topMostParentId":"490G00019892"},{"icsId":"1010641","id":"490010641X","lat":51.375406,"lon":0.100337,"name":"Orpington / Walnuts Centre","parentId":"490G00010641","stationId":"490G00010641","stopLetter":"X","topMostParentId":"490G00010641"},{"icsId":"1013818","id":"490013818J","lat":51.371761,"lon":0.091449,"name":"Tubbenden Lane","parentId":"490G00013818","stationId":"490G00013818","stopLetter":"J","topMostParentId":"490G00013818"}]},{"stopPoint":[{"icsId":"1013818","id":"490013818J","lat":51.371761,"lon":0.091449,"name":"Tubbenden Lane","parentId":"490G00013818","stationId":"490G00013818","stopLetter":"J","topMostParentId":"490G00013818"},{"icsId":"1001220","id":"490001220G","lat":51.373205,"lon":0.089661,"name":"Orpington Station","parentId":"490G01220G","stationId":"490G01220G","stopLetter":"G","topMostParentId":"910GORPNGTN"}]}]}