{"direction":"inbound","lineId":"360","lineName":"360","mode":"bus","stopPointSequences":[{"stopPoint":[{"icsId":"1011193","id":"490016263E","lat":51.499874,"lon":-0.178057,"name":"Prince Consort Road","parentId":"490G00011193","stationId":"490G00011193","stopLetter":"RZ","topMostParentId":"490G00011193"},{"icsId":"1000894","id":"490014048S","lat":51.496415,"lon":-0.173628,"name":"South Kensington Museums","parentId":"490G000213","stationId":"490G000213","stopLetter":"L","topMostParentId":"490G000213"},{"icsId":"1000212","id":"490000212S1","lat":51.494425,"lon":-0.174586,"name":"South Kensington Station","parentId":"490G00212G","stationId":"490G00212G","stopLetter":"T","topMostParentId":"940GZZLUSKS","zone":"1"},{"icsId":"1016312","id":"490016312S","lat":51.493403,"lon":-0.168432,"name":"Fulham Road","parentId":"490G00016312","stationId":"490G00016312","stopLetter":"->S","topMostParentId":"490G00016312"},{"icsId":"1000444","id":"490016311S","lat":51.492456,"lon":-0.165949,"name":"Marlborough Primary School","parentId":"490G000093","stationId":"490G000093","stopLetter":"->E","topMostParentId":"490G000093"},{"icsId":"1016310","id":"490016313E","lat":51.491442,"lon":-0.162677,"name":"Draycott Place","parentId":"490G00016310","stationId":"490G00016310","topMostParentId":"490G00016310"},{"icsId":"1000206","id":"490000206N","lat":51.49267,"lon":-0.158421,"name":"Sloane Square Station  / Symon Street","parentId":"490G00206H","stationId":"490G00206H","stopLetter":"B","topMostParentId":"940GZZLUSSQ","zone":"1"},{"icsId":"1011763","id":"490000206M","lat":51.491664,"lon":-0.157324,"name":"Sloane Square Stn  / Lower Sloane St","parentId":"490G00011763","stationId":"490G00011763","stopLetter":"M","topMostParentId":"490G00011763"},{"icsId":"1005063","id":"490011763S","lat":51.489117,"lon":-0.154906,"name":"Royal Hospital Chelsea","parentId":"490G00005063","stationId":"490G00005063","stopLetter":"S","topMostParentId":"490G00005063"},{"icsId":"1009205","id":"490009205E","lat":51.486185,"lon":-0.150343,"name":"Lister Hospital","parentId":"490G00009205","stationId":"490G00009205","stopLetter":"CB","topMostParentId":"490G00009205"},{"icsId":"1014504","id":"490014504N","lat":51.487067,"lon":-0.145237,"name":"Westmoreland Terrace","parentId":"490G00014504","stationId":"490G00014504","stopLetter":"E","topMostParentId":"490G00014504"},{"icsId":"1016309","id":"490016309E","lat":51.487742,"lon":-0.141853,"name":"Winchester Street","parentId":"490G00016309","stationId":"490G00016309","stopLetter":"C","topMostParentId":"490G00016309"},{"icsId":"1011004","id":"490011004N1","lat":51.488348,"lon":-0.138098,"name":"Pimlico Academy & Library","parentId":"490G00011004","stationId":"490G00011004","stopLetter":"D","topMostParentId":"490G00011004"},{"icsId":"1000180","id":"490000180H","lat":51.489144,"lon":-0.133341,"name":"Pimlico Station","parentId":"490G00180H","stationId":"490G00180H","stopLetter":"H","topMostParentId":"940GZZLUPCO","zone":"1"},{"icsId":"1020252","id":"490000247J","lat":51.484684,"lon":-0.124853,"name":"Vauxhall Bus Station","parentId":"490G00020252","stationId":"490G00020252","stopLetter":"J","topMostParentId":"HUBVXH"},{"icsId":"1014020","id":"490014020P","lat":51.487234,"lon":-0.123538,"name":"Vauxhall Cross","parentId":"490G00014020","stationId":"490G00014020","stopLetter":"P","topMostParentId":"HUBVXH"},{"icsId":"1011192","id":"490011192N","lat":51.490432,"lon":-0.122744,"name":"Albert Embankment / Prince Consort House","parentId":"490G00011192","stationId":"490G00011192","stopLetter":"SL","topMostParentId":"490G00011192"},{"icsId":"1011858","id":"490011858N","lat":51.491279,"lon":-0.122263,"name":"Salamanca Street","parentId":"490G00011858","stationId":"490G00011858","stopLetter":"SM","topMostParentId":"490G00011858"},{"icsId":"1016271","id":"490016271E","lat":51.491246,"lon":-0.117424,"name":"Tyers Street","parentId":"490G00016271","stationId":"490G00016271","stopLetter":"SH","topMostParentId":"490G00016271"},{"icsId":"1016270","id":"490016270N","lat":51.489823,"lon":-0.113939,"name":"Mary Lee Way","parentId":"490G00016270","stationId":"490G00016270","stopLetter":"KS","topMostParentId":"490G00016270"},{"icsId":"1008643","id":"490008643KH","lat":51.49005,"lon":-0.11125,"name":"Kennington Lane","parentId":"490G00008643","stationId":"490G00008643","stopLetter":"KH","topMostParentId":"490G00008643"},{"icsId":"1006864","id":"490006864N1","lat":51.49279,"lon":-0.111094,"name":"Fitzalan Street","parentId":"490G00006864","stationId":"490G00006864","stopLetter":"KG","topMostParentId":"490G00006864"},{"icsId":"1008476","id":"490008473E","lat":51.495635,"lon":-0.111336,"name":"Kennington Road / Imperial War Museum","parentId":"490G000608","stationId":"490G000608","stopLetter":"E","topMostParentId":"490G000608"},{"icsId":"1008473","id":"490015351E","lat":51.497032,"lon":-0.10929,"name":"Imperial War Museum","parentId":"490G000607","stationId":"490G000607","stopLetter":"K","topMostParentId":"490G000607"},{"icsId":"1012693","id":"490012693D","lat":51.498615,"lon":-0.108173,"name":"St George's Circus","parentId":"490G00012693","stationId":"490G00012693","stopLetter":"D","topMostParentId":"490G00012693"},{"icsId":"1009281","id":"490009281C","lat":51.496819,"lon":-0.102226,"name":"Elephant & Castle / London Road","parentId":"490G000642","stationId":"490G000642","stopLetter":"C","topMostParentId":"490G000642"},{"icsId":"1009297","id":"490000073F","lat":51.496432,"lon":-0.09998,"name":"Elephant & Castle / Newington Causeway","parentId":"490G000644","stationId":"490G000644","stopLetter":"F","topMostParentId":"490G000644"}]}]}