{"direction":"inbound","lineId":"366","lineName":"366","mode":"bus","stopPointSequences":[{"stopPoint":[{"icsId":"1006317","id":"490006317B","lat":51.513789,"lon":0.060245,"name":"Beckton Bus Station","parentId":"490G000496","stationId":"490G000496","stopLetter":"B","topMostParentId":"490G000496"},{"icsId":"1002011","id":"490002011H","lat":51.514148,"lon":0.060794,"name":"Beckton Station","parentId":"490G02011G","stationId":"490G02011G","stopLetter":"H","topMostParentId":"940GZZDLBEC","zone":"3"},{"icsId":"1011932","id":"490011932K","lat":51.511574,"lon":0.061946,"name":"Savage Gardens","parentId":"490G00011932","stationId":"490G00011932","stopLetter":"K","topMostParentId":"490G00011932"},{"icsId":"1009040","id":"490012896N","lat":51.509464,"lon":0.063307,"name":"Royal Docks Medical Centre","parentId":"490G000631","stationId":"490G000631","stopLetter":"N","topMostParentId":"490G000631"},{"icsId":"1002028","id":"490002028M","lat":51.509112,"lon":0.065409,"name":"Cyprus Station","parentId":"490G02028M","stationId":"490G02028M","stopLetter":"M","topMostParentId":"940GZZDLCYP","zone":"3"},{"icsId":"1006810","id":"490006804N2","lat":51.509264,"lon":0.067001,"name":"Ferndale Street","parentId":"490G00006810","stationId":"490G00006810","stopLetter":"X","topMostParentId":"490G00006810"},{"icsId":"1007094","id":"490007094S","lat":51.509704,"lon":0.069601,"name":"Gallions Reach Roundabout","parentId":"490G000530","stationId":"490G000530","stopLetter":"B","topMostParentId":"490G000530"},{"icsId":"1002039","id":"490002039E","lat":51.508445,"lon":0.072152,"name":"Gallions Reach Station","parentId":"490G02039A","stationId":"490G02039A","stopLetter":"C","topMostParentId":"940GZZDLGAL","zone":"3"},{"icsId":"1018714","id":"490018714N","lat":51.509834,"lon":0.074982,"name":"Armada Point","parentId":"490G00018714","stationId":"490G00018714","stopLetter":"G","topMostParentId":"490G00018714"},{"icsId":"1018760","id":"490018760E","lat":51.51082,"lon":0.079206,"name":"Beckton DLR Depot","parentId":"490G00018760","stationId":"490G00018760","stopLetter":"->E","topMostParentId":"490G00018760"},{"icsId":"1000425","id":"490018760N","lat":51.51275,"lon":0.080908,"name":"Hornet Way","parentId":"490G000074","stationId":"490G000074","stopLetter":"->N","topMostParentId":"490G000074"},{"icsId":"1016872","id":"490016872S1","lat":51.516245,"lon":0.079583,"name":"Gallions Reach Shopping Park","parentId":"490G00016872","stationId":"490G00016872","stopLetter":"S","topMostParentId":"490G00016872"},{"icsId":"1005335","id":"490005335W","lat":51.521405,"lon":0.070521,"name":"Beckton Triangle Retail Park","parentId":"490G00005335","stationId":"490G00005335","stopLetter":"D","topMostParentId":"490G00005335"},{"icsId":"1006318","id":"490006318N1","lat":51.52121,"lon":0.066821,"name":"East Beckton / Sainsbury's","parentId":"490G00006318","stationId":"490G00006318","stopLetter":"A","topMostParentId":"490G00006318"},{"icsId":"1005335","id":"490005335E","lat":51.521586,"lon":0.070457,"name":"Beckton Triangle Retail Park","parentId":"490G00005335","stationId":"490G00005335","stopLetter":"C","topMostParentId":"490G00005335"},{"icsId":"1003754","id":"490003754N","lat":51.525676,"lon":0.078715,"name":"Beckton Showcase Cinema","parentId":"490G00003754","stationId":"490G00003754","stopLetter":"->N","topMostParentId":"490G00003754"},{"icsId":"1003305","id":"490003305N","lat":51.530415,"lon":0.072616,"name":"Quay Road","parentId":"490G00003305","stationId":"490G00003305","stopLetter":"->N","topMostParentId":"490G00003305"},{"icsId":"1010408","id":"490010408P","lat":51.537641,"lon":0.074862,"name":"North Street","parentId":"490G00010408","stationId":"490G00010408","stopLetter":"P","topMostParentId":"490G00010408"},{"icsId":"1003616","id":"490003616D","lat":51.538108,"lon":0.077984,"name":"Barking Town Centre","parentId":"490G00003616","stationId":"490G00003616","stopLetter":"D","topMostParentId":"490G00003616"},{"icsId":"1000015","id":"490000015L","lat":51.539969,"lon":0.082063,"name":"Barking Station","parentId":"490G00015G","stationId":"490G00015G","stopLetter":"L","topMostParentId":"HUBBKG","zone":"4"},{"icsId":"1009294","id":"490009294N","lat":51.542078,"lon":0.081266,"name":"Longbridge Road","parentId":"490G00009294","stationId":"490G00009294","stopLetter":"Q","topMostParentId":"490G00009294"},{"icsId":"1009432","id":"490009432N","lat":51.544382,"lon":0.077621,"name":"Victoria Road","parentId":"490G00009432","stationId":"490G00009432","stopLetter":"K","topMostParentId":"490G00009432"},{"icsId":"1009434","id":"490009435E","lat":51.546895,"lon":0.079942,"name":"Buttsbury Road","parentId":"490G00009434","stationId":"490G00009434","stopLetter":"S","topMostParentId":"490G00009434"},{"icsId":"1003581","id":"490003581E","lat":51.547285,"lon":0.081777,"name":"Bankside Road","parentId":"490G00003581","stationId":"490G00003581","stopLetter":"T","topMostParentId":"490G00003581"},{"icsId":"1009437","id":"490009437E","lat":51.549722,"lon":0.086345,"name":"Loxford Youth Centre","parentId":"490G00009437","stationId":"490G00009437","stopLetter":"BW","topMostParentId":"490G00009437"},{"icsId":"1008449","id":"490008449E","lat":51.550513,"lon":0.090377,"name":"Loxford School Of Science and Technology","parentId":"490G00008449","stationId":"490G00008449","stopLetter":"BX","topMostParentId":"490G00008449"},{"icsId":"1009436","id":"490009436N","lat":51.55115,"lon":0.092469,"name":"Loxford Lane","parentId":"490G00009436","stationId":"490G00009436","stopLetter":"BT","topMostParentId":"490G00009436"},{"icsId":"1006656","id":"490006656W2","lat":51.553362,"lon":0.094042,"name":"Eton Road","parentId":"490G00006656","stationId":"490G00006656","stopLetter":"->W","topMostParentId":"490G00006656"},{"icsId":"1013025","id":"490013025N","lat":51.551869,"lon":0.08542,"name":"Sunnyside Road Loxford","parentId":"490G00013025","stationId":"490G00013025","stopLetter":"->N","topMostParentId":"490G00013025"},{"icsId":"1013024","id":"490013024N","lat":51.557965,"lon":0.082452,"name":"Sunnyside Road  Windsor Road","parentId":"490G00013024","stationId":"490G00013024","stopLetter":"->N","topMostParentId":"490G00013024"},{"icsId":"1003163","id":"490003163N2","lat":51.55886,"lon":0.082176,"name":"Sunnyside Road  Albert Road","parentId":"490G00003163","stationId":"490G00003163","stopLetter":"->N","topMostParentId":"490G00003163"},{"icsId":"1008469","id":"490008469Z","lat":51.559662,"lon":0.081073,"name":"Winston Way Primary School","parentId":"490G00008469","stationId":"490G00008469","stopLetter":"Z","topMostParentId":"490G00008469"},{"icsId":"1007657","id":"490007657W","lat":51.55957,"lon":0.077173,"name":"Hainault Street","parentId":"490G00007657","stationId":"490G00007657","stopLetter":"W","topMostParentId":"490G00007657"},{"icsId":"1008466","id":"490008466Q1","lat":51.557867,"lon":0.074311,"name":"Redbridge Central Library","parentId":"490G00008466","stationId":"490G00008466","stopLetter":"Q","topMostParentId":"490G00008466"},{"icsId":"1008470","id":"490008470M","lat":51.558137,"lon":0.071741,"name":"High Road Ilford","parentId":"490G000606","stationId":"490G000606","stopLetter":"M","topMostParentId":"490G000606"},{"icsId":"1001157","id":"490001157G","lat":51.558805,"lon":0.070069,"name":"Ilford Station","parentId":"490G01157G","stationId":"490G01157G","stopLetter":"G","topMostParentId":"910GILFORD"},{"icsId":"1013966","id":"490013311U","lat":51.563248,"lon":0.067458,"name":"Beal Road","parentId":"490G00013966","stationId":"490G00013966","stopLetter":"VL","topMostParentId":"490G00013966"},{"icsId":"1013331","id":"490013331W","lat":51.564484,"lon":0.066244,"name":"Northbrook Road","parentId":"490G00013331","stationId":"490G00013331","stopLetter":"VM","topMostParentId":"490G00013331"},{"icsId":"1006063","id":"490006063N","lat":51.566219,"lon":0.062701,"name":"De Vere Gardens","parentId":"490G00006063","stationId":"490G00006063","stopLetter":"VQ","topMostParentId":"490G00006063"},{"icsId":"1012013","id":"490012013N","lat":51.567748,"lon":0.05961,"name":"Seymour Gardens","parentId":"490G00012013","stationId":"490G00012013","stopLetter":"VS","topMostParentId":"490G00012013"},{"icsId":"1012535","id":"490012535N","lat":51.570215,"lon":0.056864,"name":"St Andrew's Church","parentId":"490G00012535","stationId":"490G00012535","stopLetter":"VT","topMostParentId":"490G00012535"},{"icsId":"1007245","id":"490007245N","lat":51.57176,"lon":0.055433,"name":"Cranbrook Primary School","parentId":"490G00007245","stationId":"490G00007245","topMostParentId":"490G00007245"},{"icsId":"1014203","id":"490014203N","lat":51.573231,"lon":0.054114,"name":"Wanstead Lane","parentId":"490G00014203","stationId":"490G00014203","stopLetter":"->N","topMostParentId":"490G00014203"},{"icsId":"1004850","id":"490004850N","lat":51.575005,"lon":0.052953,"name":"Castleview Gardens","parentId":"490G00004850","stationId":"490G00004850","stopLetter":"RL","topMostParentId":"490G00004850"},{"icsId":"1013332","id":"490013332W","lat":51.576103,"lon":0.051848,"name":"The Drive","parentId":"490G00013332","stationId":"490G00013332","stopLetter":"RN","topMostParentId":"490G00013332"},{"icsId":"1000190","id":"490015554C","lat":51.575851,"lon":0.04566,"name":"Redbridge Station","parentId":"490G00190038","stationId":"490G00190038","stopLetter":"RC","topMostParentId":"940GZZLURBG","zone":"4"},{"icsId":"1000190","id":"490000190B","lat":51.57645,"lon":0.045354,"name":"Redbridge Station","parentId":"490G00190038","stationId":"490G00190038","stopLetter":"RB","topMostParentId":"940GZZLURBG","zone":"4"},{"icsId":"1006805","id":"490006805E2","lat":51.576954,"lon":0.045868,"name":"Redbridge La E  Fernhall Dr","parentId":"490G00006805","stationId":"490G00006805","topMostParentId":"490G00006805"},{"icsId":"1006732","id":"490006732","lat":51.578057,"lon":0.0512,"name":"Vista Drive","parentId":"490G00006732","stationId":"490G00006732","topMostParentId":"490G00006732"},{"icsId":"1017350","id":"490017350N","lat":51.579322,"lon":0.049813,"name":"Redbridge Lane East  Falmouth Gardens","parentId":"490G00017350","stationId":"490G00017350","topMostParentId":"490G00017350"},{"icsId":"1006732","id":"490006732N","lat":51.580375,"lon":0.049255,"name":"Vista Drive","parentId":"490G00006732","stationId":"490G00006732","stopLetter":"->N","topMostParentId":"490G00006732"},{"icsId":"1010870","id":"490010870N","lat":51.581095,"lon":0.048695,"name":"Bergholt Avenue","parentId":"490G00010870","stationId":"490G00010870","topMostParentId":"490G00010870"},{"icsId":"1015719","id":"490015719N","lat":51.585276,"lon":0.044596,"name":"Falmouth Gardens","parentId":"490G00015719","stationId":"490G00015719","stopLetter":"->N","topMostParentId":"490G00015719"},{"icsId":"1015719","id":"490015719S","lat":51.58557,"lon":0.043758,"name":"Falmouth Gardens","parentId":"490G00015719","stationId":"490G00015719","stopLetter":"->S","topMostParentId":"490G00015719"}]}]}