{"direction":"inbound","lineId":"367","lineName":"367","mode":"bus","stopPointSequences":[{"stopPoint":[{"icsId":"1001036","id":"490001036D","lat":51.408257,"lon":0.016386,"name":"Bromley North Station","parentId":"490G01036EB","stationId":"490G01036EB","stopLetter":"D","topMostParentId":"910GBROMLYN"},{"icsId":"1008665","id":"490008665T","lat":51.404326,"lon":0.019103,"name":"Bromley Civic Centre","parentId":"490G00008665","stationId":"490G00008665","stopLetter":"T","topMostParentId":"490G00008665"},{"icsId":"1006507","id":"4900006507W","lat":51.401904,"lon":0.016092,"name":"Bromley High Street / The Mall","parentId":"490G00006507","stationId":"490G00006507","stopLetter":"W","topMostParentId":"490G00006507"},{"icsId":"1001037","id":"490001037X","lat":51.400693,"lon":0.017002,"name":"Bromley South Station","parentId":"490G01037U","stationId":"490G01037U","stopLetter":"Y","topMostParentId":"910GBROMLYS"},{"icsId":"1012775","id":"4900012775K","lat":51.398584,"lon":0.016205,"name":"St Mark's Church","parentId":"490G00012775","stationId":"490G00012775","stopLetter":"K","topMostParentId":"490G00012775"},{"icsId":"1011304","id":"490011304L","lat":51.397521,"lon":0.013196,"name":"Queen Anne Avenue","parentId":"490G00011304","stationId":"490G00011304","stopLetter":"L","topMostParentId":"490G00011304"},{"icsId":"1019188","id":"490004897N","lat":51.396124,"lon":0.008621,"name":"Caygill Close","parentId":"490G00019188","stationId":"490G00019188","topMostParentId":"490G00019188"},{"icsId":"1005901","id":"490005901N","lat":51.397278,"lon":0.007407,"name":"Durham Avenue","parentId":"490G00005901","stationId":"490G00005901","stopLetter":"->N","topMostParentId":"490G00005901"},{"icsId":"1016651","id":"490005900N","lat":51.399221,"lon":0.004228,"name":"Winchester Park","parentId":"490G00016651","stationId":"490G00016651","stopLetter":"->W","topMostParentId":"490G00016651"},{"icsId":"1012791","id":"490012791S","lat":51.400891,"lon":0.000204,"name":"St Mary's Church","parentId":"490G00012791","stationId":"490G00012791","topMostParentId":"490G00012791"},{"icsId":"1016775","id":"490008842N","lat":51.402477,"lon":0.002113,"name":"Mays Hill Road","parentId":"490G00016775","stationId":"490G00016775","stopLetter":"->N","topMostParentId":"490G00016775"},{"icsId":"1014000","id":"490012121N","lat":51.403016,"lon":0.00425,"name":"Valley Road","parentId":"490G00014000","stationId":"490G00014000","topMostParentId":"490G00014000"},{"icsId":"1001248","id":"490008843S","lat":51.40505,"lon":0.000975,"name":"Shortlands Station","parentId":"490G01248A","stationId":"490G01248A","stopLetter":"D","topMostParentId":"910GSHRTLND"},{"icsId":"1005296","id":"490005296S","lat":51.403137,"lon":-0.001251,"name":"Church Road","parentId":"490G00005296","stationId":"490G00005296","stopLetter":"->S","topMostParentId":"490G00005296"},{"icsId":"1003739","id":"490003739W","lat":51.404813,"lon":-0.005161,"name":"Beckenham Grove","parentId":"490G00003739","stationId":"490G00003739","stopLetter":"H","topMostParentId":"490G00003739"},{"icsId":"1012120","id":"490012120S1","lat":51.403252,"lon":-0.006451,"name":"Scotts Lane","parentId":"490G00012120","stationId":"490G00012120","stopLetter":"->S","topMostParentId":"490G00012120"},{"icsId":"1005653","id":"490005653W","lat":51.403734,"lon":-0.010427,"name":"Courtenay Drive","parentId":"490G00005653","stationId":"490G00005653","stopLetter":"->W","topMostParentId":"490G00005653"},{"icsId":"1010952","id":"490010952W","lat":51.40547,"lon":-0.013658,"name":"Perth Road","parentId":"490G00010952","stationId":"490G00010952","stopLetter":"J","topMostParentId":"490G00010952"},{"icsId":"1014462","id":"490014462W","lat":51.40707,"lon":-0.018924,"name":"Westgate Road","parentId":"490G00014462","stationId":"490G00014462","stopLetter":"K","topMostParentId":"490G00014462"},{"icsId":"1012691","id":"490012691F","lat":51.408668,"lon":-0.024635,"name":"Bromley Road / St George's Church","parentId":"490G00012691","stationId":"490G00012691","stopLetter":"F","topMostParentId":"490G00012691"},{"icsId":"1009580","id":"490009580H","lat":51.408014,"lon":-0.02531,"name":"Manor Road","parentId":"490G00009580","stationId":"490G00009580","stopLetter":"H","topMostParentId":"490G00009580"},{"icsId":"1003740","id":"490003740K","lat":51.40673,"lon":-0.028097,"name":"Beckenham High Street / Kelsey Square","parentId":"490G00003740","stationId":"490G00003740","stopLetter":"K","topMostParentId":"490G00003740"},{"icsId":"1012658","id":"490012658M","lat":51.405681,"lon":-0.029336,"name":"St Edmund's Hall","parentId":"490G00012658","stationId":"490G00012658","stopLetter":"S","topMostParentId":"490G00012658"},{"icsId":"1013921","id":"490013921S","lat":51.40348,"lon":-0.030034,"name":"Uplands","parentId":"490G00013921","stationId":"490G00013921","stopLetter":"->S","topMostParentId":"490G00013921"},{"icsId":"1004237","id":"490004237S","lat":51.400036,"lon":-0.030571,"name":"Bramerton Road","parentId":"490G00004237","stationId":"490G00004237","stopLetter":"->S","topMostParentId":"490G00004237"},{"icsId":"1012859","id":"490012859S","lat":51.39709,"lon":-0.029173,"name":"Crease Park","parentId":"490G00012859","stationId":"490G00012859","stopLetter":"->S","topMostParentId":"490G00012859"},{"icsId":"1014081","id":"490014081W1","lat":51.39609,"lon":-0.030683,"name":"Wellhouse Road","parentId":"490G00014081","stationId":"490G00014081","stopLetter":"->W","topMostParentId":"490G00014081"},{"icsId":"1004018","id":"490004018W","lat":51.397423,"lon":-0.03616,"name":"Birchwood Avenue","parentId":"490G00004018","stationId":"490G00004018","stopLetter":"->W","topMostParentId":"490G00004018"},{"icsId":"1016065","id":"490016065W","lat":51.398775,"lon":-0.040084,"name":"Broomfield Road","parentId":"490G00016065","stationId":"490G00016065","stopLetter":"U","topMostParentId":"490G00016065"},{"icsId":"1006506","id":"490006506G","lat":51.398351,"lon":-0.045968,"name":"Elmers End Green","parentId":"490G00006506","stationId":"490G00006506","stopLetter":"G","topMostParentId":"490G00006506"},{"icsId":"1006505","id":"490006505F","lat":51.396651,"lon":-0.048614,"name":"Elmers End / Tesco","parentId":"490G00006505","stationId":"490G00006505","stopLetter":"F","topMostParentId":"490G00006505"},{"icsId":"1016650","id":"490016650S","lat":51.392565,"lon":-0.05057,"name":"Horton Way","parentId":"490G00016650","stationId":"490G00016650","stopLetter":"->S","topMostParentId":"490G00016650"},{"icsId":"1009980","id":"490009980S","lat":51.390796,"lon":-0.049093,"name":"Fairford Avenue","parentId":"490G00009980","stationId":"490G00009980","stopLetter":"->S","topMostParentId":"490G00009980"},{"icsId":"1012842","id":"490012842S","lat":51.38811,"lon":-0.047123,"name":"Homer Road","parentId":"490G00012842","stationId":"490G00012842","topMostParentId":"490G00012842"},{"icsId":"1005962","id":"490005962S","lat":51.385823,"lon":-0.044274,"name":"Darley Close","parentId":"490G00005962","stationId":"490G00005962","stopLetter":"->S","topMostParentId":"490G00005962"},{"icsId":"1009367","id":"490009367S","lat":51.384462,"lon":-0.043024,"name":"Glade Gardens","parentId":"490G00009367","stationId":"490G00009367","stopLetter":"->S","topMostParentId":"490G00009367"},{"icsId":"1014891","id":"490014891S","lat":51.380741,"lon":-0.042048,"name":"Tower View","parentId":"490G00014891","stationId":"490G00014891","stopLetter":"->S","topMostParentId":"490G00014891"},{"icsId":"1011146","id":"490011146S","lat":51.379489,"lon":-0.04246,"name":"Potters Close","parentId":"490G00011146","stationId":"490G00011146","stopLetter":"->S","topMostParentId":"490G00011146"},{"icsId":"1012097","id":"490012097S","lat":51.376201,"lon":-0.044813,"name":"Peregrine Gardens","parentId":"490G00012097","stationId":"490G00012097","stopLetter":"W","topMostParentId":"490G00012097"},{"icsId":"1012096","id":"490012096W","lat":51.375197,"lon":-0.046624,"name":"Shirley Library","parentId":"490G00012096","stationId":"490G00012096","stopLetter":"K","topMostParentId":"490G00012096"},{"icsId":"1003326","id":"490003326E","lat":51.378584,"lon":-0.051825,"name":"Basil Gardens","parentId":"490G00003326","stationId":"490G00003326","stopLetter":"->E","topMostParentId":"490G00003326"},{"icsId":"1007968","id":"490007968W","lat":51.380758,"lon":-0.051129,"name":"Hazel Close","parentId":"490G00007968","stationId":"490G00007968","stopLetter":"->W","topMostParentId":"490G00007968"},{"icsId":"1011129","id":"490011118N","lat":51.379122,"lon":-0.053383,"name":"Tulip Close","parentId":"490G00011129","stationId":"490G00011129","topMostParentId":"490G00011129"},{"icsId":"1016169","id":"490016169W","lat":51.378018,"lon":-0.058904,"name":"Shirley Ambulance Station","parentId":"490G00016169","stationId":"490G00016169","stopLetter":"->W","topMostParentId":"490G00016169"},{"icsId":"1012098","id":"490012098N","lat":51.378688,"lon":-0.061908,"name":"Shirley Clinic","parentId":"490G00012098","stationId":"490G00012098","stopLetter":"K","topMostParentId":"490G00012098"},{"icsId":"1004007","id":"490004007N","lat":51.380984,"lon":-0.063148,"name":"Bingham Road","parentId":"490G00004007","stationId":"490G00004007","stopLetter":"L","topMostParentId":"490G00004007"},{"icsId":"1003421","id":"490003421N","lat":51.382458,"lon":-0.064206,"name":"Oasis Academy","parentId":"490G00003421","stationId":"490G00003421","stopLetter":"AJ","topMostParentId":"490G00003421"},{"icsId":"1012100","id":"490012100E2","lat":51.383171,"lon":-0.065958,"name":"Brockenhurst Road","parentId":"490G00012100","stationId":"490G00012100","stopLetter":"AK","topMostParentId":"490G00012100"},{"icsId":"1003103","id":"490003103W","lat":51.381868,"lon":-0.06929,"name":"Parkview Road","parentId":"490G00003103","stationId":"490G00003103","stopLetter":"AL","topMostParentId":"490G00003103"},{"icsId":"1002002","id":"490002002A","lat":51.380445,"lon":-0.072454,"name":"Addiscombe Tram Stop","parentId":"490G02002A","stationId":"490G02002A","stopLetter":"AM","topMostParentId":"940GZZCRADD"},{"icsId":"1015131","id":"490015131W1","lat":51.379273,"lon":-0.075046,"name":"Ashburton Road","parentId":"490G00015131","stationId":"490G00015131","stopLetter":"AN","topMostParentId":"490G00015131"},{"icsId":"1007907","id":"490007907W","lat":51.37864,"lon":-0.078105,"name":"Havelock Road","parentId":"490G00007907","stationId":"490G00007907","stopLetter":"AP","topMostParentId":"490G00007907"},{"icsId":"1003102","id":"490003102W","lat":51.379411,"lon":-0.082326,"name":"Canning Road","parentId":"490G00003102","stationId":"490G00003102","stopLetter":"AQ","topMostParentId":"490G00003102"},{"icsId":"1015539","id":"490015539W","lat":51.379998,"lon":-0.085233,"name":"Morland Road","parentId":"490G00015539","stationId":"490G00015539","stopLetter":"->W","topMostParentId":"490G00015539"},{"icsId":"1013446","id":"490013446S","lat":51.37952,"lon":-0.087926,"name":"Leslie Grove","parentId":"490G00013446","stationId":"490G00013446","stopLetter":"->S","topMostParentId":"490G00013446"},{"icsId":"1005813","id":"490005813N1","lat":51.378063,"lon":-0.090674,"name":"Cross Road","parentId":"490G00005813","stationId":"490G00005813","stopLetter":"E0","topMostParentId":"490G00005813"},{"icsId":"1000279","id":"490001089E5","lat":51.376011,"lon":-0.091075,"name":"Addiscombe Road","parentId":"490G00000279","stationId":"490G00000279","stopLetter":"E5","topMostParentId":"490G00000279"},{"icsId":"1001089","id":"490001089E6","lat":51.374669,"lon":-0.092654,"name":"East Croydon Station","parentId":"490G01089E7","stationId":"490G01089E7","stopLetter":"E6","topMostParentId":"HUBECY"},{"icsId":"1006466","id":"490006466E16","lat":51.374711,"lon":-0.097437,"name":"Electric House","parentId":"490G00006466","stationId":"490G00006466","stopLetter":"WY","topMostParentId":"490G00006466"},{"icsId":"1014614","id":"490014614E14","lat":51.376465,"lon":-0.098528,"name":"Whitgift Centre","parentId":"490G00014614","stationId":"490G00014614","stopLetter":"WM","topMostParentId":"490G00014614"},{"icsId":"1014420","id":"490014420B8","lat":51.3787,"lon":-0.10108,"name":"West Croydon Bus Station","parentId":"490G000824","stationId":"490G000824","stopLetter":"B8","topMostParentId":"HUBWCY"}]}]}