{"direction":"inbound","lineId":"372","lineName":"372","mode":"bus","stopPointSequences":[{"stopPoint":[{"icsId":"1015792","id":"1590060103","lat":51.490185,"lon":0.283026,"name":"Lakeside Bus Station","parentId":"159G0060101","stationId":"159G0060101","stopLetter":"C","topMostParentId":"910GCHADHDD"},{"icsId":"1016725","id":"1590012501","lat":51.48983,"lon":0.274437,"name":"Arena Essex","parentId":"159G0012501","stationId":"159G0012501","topMostParentId":"159G0012501"},{"icsId":"1016659","id":"1590701101","lat":51.488524,"lon":0.262948,"name":"The Thurrock Hotel","parentId":"159G0701101","stationId":"159G0701101","topMostParentId":"159G0701101"},{"icsId":"1016451","id":"1590003501","lat":51.495909,"lon":0.253964,"name":"Hall Avenue","parentId":"159G0003501","stationId":"159G0003501","topMostParentId":"159G0003501"},{"icsId":"1016658","id":"1590003301","lat":51.494879,"lon":0.250484,"name":"The Parade","parentId":"159G0003301","stationId":"159G0003301","topMostParentId":"159G0003301"},{"icsId":"1016657","id":"1590003101","lat":51.495427,"lon":0.247226,"name":"Central Avenue","parentId":"159G0003101","stationId":"159G0003101","topMostParentId":"159G0003101"},{"icsId":"1016656","id":"1590002901","lat":51.497618,"lon":0.247392,"name":"Arnhem Avenue","parentId":"159G0002901","stationId":"159G0002901","topMostParentId":"159G0002901"},{"icsId":"1016450","id":"1590004301","lat":51.499275,"lon":0.250557,"name":"Aveley Library","parentId":"159G0004301","stationId":"159G0004301","topMostParentId":"159G0004301"},{"icsId":"1016639","id":"1590004501","lat":51.500934,"lon":0.251272,"name":"Hanford Road","parentId":"159G0004501","stationId":"159G0004501","topMostParentId":"159G0004501"},{"icsId":"1016640","id":"1590004701","lat":51.503481,"lon":0.247868,"name":"St Paul's Close","parentId":"159G0004701","stationId":"159G0004701","topMostParentId":"159G0004701"},{"icsId":"1014392","id":"490014392W","lat":51.506249,"lon":0.224399,"name":"Wennington Hall Farm","parentId":"490G00014392","stationId":"490G00014392","stopLetter":"->W","topMostParentId":"490G00014392"},{"icsId":"1014390","id":"490014390W","lat":51.506499,"lon":0.218835,"name":"Wennington Green","parentId":"490G00014390","stationId":"490G00014390","stopLetter":"->W","topMostParentId":"490G00014390"},{"icsId":"1007671","id":"490007671W","lat":51.507037,"lon":0.212722,"name":"Kent View","parentId":"490G00007671","stationId":"490G00007671","stopLetter":"->W","topMostParentId":"490G00007671"},{"icsId":"1006357","id":"490006357W","lat":51.50894,"lon":0.209571,"name":"East Hall Lane","parentId":"490G00006357","stationId":"490G00006357","topMostParentId":"490G00006357"},{"icsId":"1006386","id":"490006386W","lat":51.511884,"lon":0.205549,"name":"Eastwood Drive","parentId":"490G00006386","stationId":"490G00006386","stopLetter":"->W","topMostParentId":"490G00006386"},{"icsId":"1004484","id":"490004484W","lat":51.515919,"lon":0.199488,"name":"Brookway","parentId":"490G00004484","stationId":"490G00004484","stopLetter":"->W","topMostParentId":"490G00004484"},{"icsId":"1006816","id":"490006816W2","lat":51.516638,"lon":0.195689,"name":"Ferro Road","parentId":"490G00006816","stationId":"490G00006816","stopLetter":"->W","topMostParentId":"490G00006816"},{"icsId":"1001235","id":"490001235A","lat":51.517161,"lon":0.19224,"name":"Rainham Station","parentId":"490G01235A","stationId":"490G01235A","stopLetter":"A","topMostParentId":"910GRNHAME"},{"icsId":"1011396","id":"490011396C","lat":51.518534,"lon":0.189956,"name":"Rainham War Memorial","parentId":"490G00011396","stationId":"490G00011396","stopLetter":"C","topMostParentId":"490G00011396"},{"icsId":"1011394","id":"490011394F","lat":51.519479,"lon":0.190881,"name":"Rainham Tesco","parentId":"490G00011394","stationId":"490G00011394","stopLetter":"F","topMostParentId":"490G00011394"},{"icsId":"1006152","id":"490006152G","lat":51.521746,"lon":0.188438,"name":"Dovers Corner","parentId":"490G00006152","stationId":"490G00006152","stopLetter":"G","topMostParentId":"490G00006152"},{"icsId":"1015718","id":"490015718W","lat":51.522096,"lon":0.185111,"name":"Cherry Tree Lane","parentId":"490G00015718","stationId":"490G00015718","stopLetter":"Q","topMostParentId":"490G00015718"},{"icsId":"1006247","id":"490006247N","lat":51.523438,"lon":0.181614,"name":"Dunedin Road","parentId":"490G00006247","stationId":"490G00006247","stopLetter":"M","topMostParentId":"490G00006247"},{"icsId":"1006446","id":"490006446N","lat":51.524255,"lon":0.182201,"name":"Edmund Road","parentId":"490G00006446","stationId":"490G00006446","stopLetter":"N","topMostParentId":"490G00006446"},{"icsId":"1012560","id":"490012560N","lat":51.526483,"lon":0.186143,"name":"Stanley Road South","parentId":"490G00012560","stationId":"490G00012560","stopLetter":"P","topMostParentId":"490G00012560"},{"icsId":"1011393","id":"490011393N","lat":51.52874,"lon":0.189048,"name":"Rainham Road","parentId":"490G00011393","stationId":"490G00011393","stopLetter":"F","topMostParentId":"490G00011393"},{"icsId":"1003216","id":"490003216N","lat":51.530508,"lon":0.190675,"name":"Alexandra Road","parentId":"490G00003216","stationId":"490G00003216","stopLetter":"G","topMostParentId":"490G00003216"},{"icsId":"1006902","id":"490006902N","lat":51.534042,"lon":0.192143,"name":"Ford Lane","parentId":"490G00006902","stationId":"490G00006902","stopLetter":"H","topMostParentId":"490G00006902"},{"icsId":"1011671","id":"490011671N","lat":51.536775,"lon":0.19748,"name":"Mungo Park Road / South End Road","parentId":"490G00011671","stationId":"490G00011671","stopLetter":"U","topMostParentId":"490G00011671"},{"icsId":"1008731","id":"490008731N","lat":51.538254,"lon":0.194854,"name":"Kingaby Gardens","parentId":"490G00008731","stationId":"490G00008731","stopLetter":"V","topMostParentId":"490G00008731"},{"icsId":"1007004","id":"490007004N","lat":51.541396,"lon":0.193246,"name":"Freeborne Gardens","parentId":"490G00007004","stationId":"490G00007004","stopLetter":"W","topMostParentId":"490G00007004"},{"icsId":"1014872","id":"490014872N","lat":51.543761,"lon":0.194701,"name":"Wood Lane","parentId":"490G00014872","stationId":"490G00014872","stopLetter":"X","topMostParentId":"490G00014872"},{"icsId":"1003185","id":"490003185F","lat":51.545186,"lon":0.195923,"name":"Aldingham Gardens","parentId":"490G00003185","stationId":"490G00003185","stopLetter":"A","topMostParentId":"490G00003185"},{"icsId":"1003291","id":"490003291N","lat":51.547912,"lon":0.199199,"name":"Ambleside Avenue","parentId":"490G00003291","stationId":"490G00003291","stopLetter":"B","topMostParentId":"490G00003291"},{"icsId":"1000074","id":"490000074B","lat":51.550289,"lon":0.199054,"name":"Elm Park Station","parentId":"490G00074A","stationId":"490G00074A","stopLetter":"C","topMostParentId":"940GZZLUEPK","zone":"6"},{"icsId":"1013471","id":"490013471F","lat":51.551424,"lon":0.199931,"name":"Elm Parade","parentId":"490G000788","stationId":"490G000788","stopLetter":"D","topMostParentId":"490G000788"},{"icsId":"1004307","id":"490004307E","lat":51.552343,"lon":0.202673,"name":"Brian Close","parentId":"490G00004307","stationId":"490G00004307","stopLetter":"->E","topMostParentId":"490G00004307"},{"icsId":"1003050","id":"490003050E","lat":51.553622,"lon":0.206413,"name":"Abbs Cross Academy","parentId":"490G00003050","stationId":"490G00003050","stopLetter":"->E","topMostParentId":"490G00003050"},{"icsId":"1013083","id":"490013083N","lat":51.555306,"lon":0.207707,"name":"Suttons Avenue","parentId":"490G00013083","stationId":"490G00013083","stopLetter":"S","topMostParentId":"490G00013083"},{"icsId":"1012555","id":"490012555N","lat":51.55828,"lon":0.208832,"name":"Stanley Road","parentId":"490G00012555","stationId":"490G00012555","stopLetter":"T","topMostParentId":"490G00012555"},{"icsId":"1003049","id":"490003049E","lat":51.56309,"lon":0.214605,"name":"Abbs Cross Lane","parentId":"490G00003049","stationId":"490G00003049","stopLetter":"X","topMostParentId":"490G00003049"},{"icsId":"1004001","id":"490004001A","lat":51.563134,"lon":0.216541,"name":"Billet Lane","parentId":"490G00004001","stationId":"490G00004001","stopLetter":"A","topMostParentId":"490G00004001"},{"icsId":"1015350","id":"490015350F","lat":51.561641,"lon":0.22133,"name":"Hornchurch Town Centre","parentId":"490G00015350","stationId":"490G00015350","stopLetter":"F","topMostParentId":"490G00015350"}]}]}