{"direction":"inbound","lineId":"379","lineName":"379","mode":"bus","stopPointSequences":[{"stopPoint":[{"icsId":"1014988","id":"490014988S","lat":51.646361,"lon":-0.010272,"name":"Yardley Lane Estate","parentId":"490G00014988","stationId":"490G00014988","stopLetter":"->S","topMostParentId":"490G00014988"},{"icsId":"1007926","id":"490007926S","lat":51.641001,"lon":-0.011302,"name":"Hawkwood Crescent","parentId":"490G00007926","stationId":"490G00007926","topMostParentId":"490G00007926"},{"icsId":"1007924","id":"490007924E","lat":51.633887,"lon":-0.009128,"name":"Hawksmouth","parentId":"490G00007924","stationId":"490G00007924","stopLetter":"C","topMostParentId":"490G00007924"},{"icsId":"1011083","id":"490011083E","lat":51.632472,"lon":-0.006256,"name":"Pole Hill Road","parentId":"490G00011083","stationId":"490G00011083","stopLetter":"W","topMostParentId":"490G00011083"},{"icsId":"1005172","id":"490005172M","lat":51.631278,"lon":-5.2e-05,"name":"Chingford Green","parentId":"490G00005172","stationId":"490G00005172","stopLetter":"M","topMostParentId":"490G00005172"},{"icsId":"1012619","id":"490012619L","lat":51.631257,"lon":0.002779,"name":"Station Road / The Green","parentId":"490G00012619","stationId":"490G00012619","stopLetter":"L","topMostParentId":"490G00012619"},{"icsId":"1004663","id":"490004663H","lat":51.632055,"lon":0.005574,"name":"Buxton Road","parentId":"490G00004663","stationId":"490G00004663","stopLetter":"H","topMostParentId":"490G00004663"},{"icsId":"1001063","id":"490001063D","lat":51.633484,"lon":0.009814,"name":"Chingford Station","parentId":"490G01063B","stationId":"490G01063B","stopLetter":"D","topMostParentId":"910GCHINGFD"}]}]}