{"direction":"inbound","lineId":"390","lineName":"390","mode":"bus","stopPointSequences":[{"stopPoint":[{"icsId":"1014050","id":"490014050C","lat":51.496072,"lon":-0.143762,"name":"Victoria Bus Station","parentId":"490G000812","stationId":"490G000812","stopLetter":"C","topMostParentId":"490G000812"},{"icsId":"1007544","id":"490007544Q","lat":51.496919,"lon":-0.145557,"name":"Grosvenor Gardens","parentId":"490G000551","stationId":"490G000551","stopLetter":"Q","topMostParentId":"490G000551"},{"icsId":"1014728","id":"490005138N","lat":51.499381,"lon":-0.148281,"name":"Wilton Street","parentId":"490G00014728","stationId":"490G00014728","stopLetter":"U","topMostParentId":"490G00014728"},{"icsId":"1000119","id":"490000119K","lat":51.501349,"lon":-0.15104,"name":"Hyde Park Corner","parentId":"490G00119F","stationId":"490G00119F","stopLetter":"K","topMostParentId":"940GZZLUHPC","zone":"1"},{"icsId":"1009277","id":"490009277Y","lat":51.505089,"lon":-0.152113,"name":"London Hilton Hotel","parentId":"490G00009277","stationId":"490G00009277","stopLetter":"Y","topMostParentId":"490G00009277"},{"icsId":"1006111","id":"490006111N2","lat":51.508589,"lon":-0.155128,"name":"Dorchester Hotel","parentId":"490G00006111","stationId":"490G00006111","stopLetter":"T","topMostParentId":"490G00006111"},{"icsId":"1000144","id":"490000144W","lat":51.511607,"lon":-0.158349,"name":"Marble Arch","parentId":"490G00144R","stationId":"490G00144R","stopLetter":"W","topMostParentId":"940GZZLUMBA","zone":"1"},{"icsId":"1000144","id":"490000144K","lat":51.513584,"lon":-0.157664,"name":"Marble Arch Station","parentId":"490G00144L","stationId":"490G00144L","stopLetter":"K","topMostParentId":"940GZZLUMBA","zone":"1"},{"icsId":"1011985","id":"490011985BC","lat":51.514211,"lon":-0.151788,"name":"Selfridges","parentId":"490G000738","stationId":"490G000738","stopLetter":"BC","topMostParentId":"490G000738"},{"icsId":"1015204","id":"490015196OF","lat":51.51499,"lon":-0.144751,"name":"Oxford Circus Station  / John Lewis","parentId":"490G00015204","stationId":"490G00015204","stopLetter":"OF","topMostParentId":"490G00015204"},{"icsId":"1010689","id":"490010689OJ","lat":51.515673,"lon":-0.139031,"name":"Great Titchfield St / Oxford Circus Stn","parentId":"490G000691","stationId":"490G000691","stopLetter":"OJ","topMostParentId":"490G000691"},{"icsId":"1000235","id":"490000235V","lat":51.516379,"lon":-0.131954,"name":"Tottenham Court Road Station","parentId":"490G00235V","stationId":"490G00235V","stopLetter":"V","topMostParentId":"940GZZLUTCR","zone":"1"},{"icsId":"1000235","id":"490000235C","lat":51.517676,"lon":-0.131541,"name":"Tottenham Court Road Station","parentId":"490G00235C","stationId":"490G00235C","stopLetter":"C","topMostParentId":"940GZZLUTCR","zone":"1"},{"icsId":"1000089","id":"490000089A","lat":51.521131,"lon":-0.135046,"name":"Goodge Street Station","parentId":"490G00089B","stationId":"490G00089B","stopLetter":"A","topMostParentId":"940GZZLUGDG","zone":"1"},{"icsId":"1000252","id":"490000252X","lat":51.524113,"lon":-0.137649,"name":"Warren Street Station","parentId":"490G00252X","stationId":"490G00252X","stopLetter":"X","topMostParentId":"940GZZLUWRR","zone":"1"},{"icsId":"1000078","id":"490000078Q","lat":51.525602,"lon":-0.136853,"name":"Euston Square Station","parentId":"490G00078P","stationId":"490G00078P","stopLetter":"Q","topMostParentId":"940GZZLUESQ","zone":"1"},{"icsId":"1000077","id":"490000077C","lat":51.527378,"lon":-0.132628,"name":"Euston Station","parentId":"490G00077G","stationId":"490G00077G","stopLetter":"C","topMostParentId":"HUBEUS","zone":"1"},{"icsId":"1009498","id":"490015700C","lat":51.529027,"lon":-0.126607,"name":"British Library","parentId":"490G00009498","stationId":"490G00009498","stopLetter":"C","topMostParentId":"490G00009498"},{"icsId":"1001276","id":"490004722M","lat":51.529804,"lon":-0.124599,"name":"St Pancras International Station","parentId":"490G01276S","stationId":"490G01276S","stopLetter":"M","topMostParentId":"HUBKGX"},{"icsId":"1005916","id":"490001171G","lat":51.531284,"lon":-0.122679,"name":"King's Cross Station   / York Way","parentId":"490G000479","stationId":"490G000479","stopLetter":"G","topMostParentId":"HUBKGX"},{"icsId":"1019520","id":"490019520D","lat":51.534436,"lon":-0.122419,"name":"York Way / Kings Place","parentId":"490G00019520","stationId":"490G00019520","stopLetter":"D","topMostParentId":"490G00019520"},{"icsId":"1015051","id":"490011415N","lat":51.536172,"lon":-0.122406,"name":"Copenhagen Street","parentId":"490G00015051","stationId":"490G00015051","stopLetter":"E","topMostParentId":"490G00015051"},{"icsId":"1020286","id":"490013992F","lat":51.539133,"lon":-0.124274,"name":"Randell's Road","parentId":"490G00020286","stationId":"490G00020286","stopLetter":"F","topMostParentId":"490G00020286"},{"icsId":"1003074","id":"490003074N","lat":51.542711,"lon":-0.1259,"name":"Agar Grove / Maiden Lane","parentId":"490G00003074","stationId":"490G00003074","stopLetter":"Q","topMostParentId":"490G00003074"},{"icsId":"1004306","id":"490004306N","lat":51.54421,"lon":-0.126271,"name":"Brewery Road","parentId":"490G00004306","stationId":"490G00004306","stopLetter":"R","topMostParentId":"490G00004306"},{"icsId":"1012345","id":"490012345W2","lat":51.546348,"lon":-0.127857,"name":"Camden Park Road / Cliff Villas","parentId":"490G00012345","stationId":"490G00012345","stopLetter":"S","topMostParentId":"490G00012345"},{"icsId":"1004718","id":"490004718W","lat":51.547359,"lon":-0.129777,"name":"Camden Road","parentId":"490G00004718","stationId":"490G00004718","stopLetter":"T","topMostParentId":"490G00004718"},{"icsId":"1013716","id":"490013716N2","lat":51.548943,"lon":-0.13212,"name":"Torriano Primary School","parentId":"490G00013716","stationId":"490G00013716","stopLetter":"U","topMostParentId":"490G00013716"},{"icsId":"1004278","id":"490009080E","lat":51.550732,"lon":-0.13098,"name":"Brecknock Road","parentId":"490G00004278","stationId":"490G00004278","stopLetter":"V","topMostParentId":"490G00004278"},{"icsId":"1008213","id":"490008213N","lat":51.551555,"lon":-0.131234,"name":"Hilldrop Road","parentId":"490G00008213","stationId":"490G00008213","stopLetter":"W","topMostParentId":"490G00008213"},{"icsId":"1004787","id":"490010653E","lat":51.553484,"lon":-0.134343,"name":"Carleton Road","parentId":"490G00004787","stationId":"490G00004787","stopLetter":"TE","topMostParentId":"490G00004787"},{"icsId":"1000239","id":"490000239G","lat":51.556458,"lon":-0.13816,"name":"Tufnell Park Station","parentId":"490G00239G","stationId":"490G00239G","stopLetter":"TF","topMostParentId":"940GZZLUTFP","zone":"2"},{"icsId":"1000722","id":"490015053J","lat":51.557937,"lon":-0.138417,"name":"Fulbrook Road","parentId":"490G000132","stationId":"490G000132","stopLetter":"TT","topMostParentId":"490G000132"},{"icsId":"1009985","id":"490009985N","lat":51.559642,"lon":-0.13764,"name":"Monnery Road","parentId":"490G00009985","stationId":"490G00009985","stopLetter":"TU","topMostParentId":"490G00009985"},{"icsId":"1003989","id":"490003989Y","lat":51.561999,"lon":-0.136577,"name":"Pemberton Gardens","parentId":"490G00003989","stationId":"490G00003989","stopLetter":"T","topMostParentId":"490G00003989"},{"icsId":"1000008","id":"490000008U","lat":51.564932,"lon":-0.134957,"name":"Archway Station","parentId":"490G00008O","stationId":"490G00008O","stopLetter":"U","topMostParentId":"940GZZLUACY","zone":"2+3"}]}]}