{"direction":"inbound","lineId":"395","lineName":"395","mode":"bus","stopPointSequences":[{"stopPoint":[{"icsId":"1014524","id":"490014524W","lat":51.54327,"lon":-0.340366,"name":"Westway Cross Retail Park","parentId":"490G00014524","stationId":"490G00014524","stopLetter":"II","topMostParentId":"490G00014524"},{"icsId":"1013518","id":"490000092W2","lat":51.5428,"lon":-0.345301,"name":"Rockware Avenue / Greenford Station","parentId":"490G000791","stationId":"490G000791","stopLetter":"JJ","topMostParentId":"490G000791"},{"icsId":"1013569","id":"490013569N","lat":51.545156,"lon":-0.345244,"name":"Auriol Drive","parentId":"490G00013569","stationId":"490G00013569","topMostParentId":"490G00013569"},{"icsId":"1011725","id":"490011725E1","lat":51.551157,"lon":-0.349974,"name":"Oldfield Circus  Carr Road","parentId":"490G00011725","stationId":"490G00011725","topMostParentId":"490G00011725"},{"icsId":"1000162","id":"490000162B","lat":51.548478,"lon":-0.367407,"name":"Northolt Station","parentId":"490G00162X1","stationId":"490G00162X1","stopLetter":"B","topMostParentId":"940GZZLUNHT","zone":"5"},{"icsId":"1009959","id":"490009959D","lat":51.546467,"lon":-0.370234,"name":"Moat Farm Road","parentId":"490G00009959","stationId":"490G00009959","stopLetter":"D","topMostParentId":"490G00009959"},{"icsId":"1008518","id":"490008518W","lat":51.547204,"lon":-0.373395,"name":"Islip Manor Park","parentId":"490G00008518","stationId":"490G00008518","stopLetter":"N","topMostParentId":"490G00008518"},{"icsId":"1013047","id":"490013047Z","lat":51.551265,"lon":-0.371187,"name":"Sussex Crescent","parentId":"490G00013047","stationId":"490G00013047","stopLetter":"->E","topMostParentId":"490G00013047"},{"icsId":"1008619","id":"490008619Y","lat":51.551479,"lon":-0.367242,"name":"Kempton Avenue","parentId":"490G00008619","stationId":"490G00008619","topMostParentId":"490G00008619"},{"icsId":"1000891","id":"490000891Y","lat":51.551872,"lon":-0.364458,"name":"Cheltenham Close","parentId":"490G000210","stationId":"490G000210","topMostParentId":"490G000210"},{"icsId":"1010239","id":"490010239Y","lat":51.553342,"lon":-0.360872,"name":"Newmarket Avenue","parentId":"490G00010239","stationId":"490G00010239","topMostParentId":"490G00010239"},{"icsId":"1005952","id":"490005952N","lat":51.556024,"lon":-0.361699,"name":"Danemead Grove","parentId":"490G000482","stationId":"490G000482","stopLetter":"NB","topMostParentId":"490G000482"},{"icsId":"1003203","id":"490003203A","lat":51.558837,"lon":-0.36027,"name":"Station Parade","parentId":"490G00003203","stationId":"490G00003203","stopLetter":"NC","topMostParentId":"490G00003203"},{"icsId":"1012689","id":"490012689N","lat":51.560626,"lon":-0.358331,"name":"St Gabriel's Church","parentId":"490G00012689","stationId":"490G00012689","stopLetter":"ND","topMostParentId":"490G00012689"},{"icsId":"1015183","id":"490015183H","lat":51.562467,"lon":-0.356244,"name":"Corbins Lane","parentId":"490G00015183","stationId":"490G00015183","stopLetter":"H","topMostParentId":"490G00015183"},{"icsId":"1000211","id":"490000211F","lat":51.564558,"lon":-0.353976,"name":"South Harrow Station","parentId":"490G00211G","stationId":"490G00211G","stopLetter":"F","topMostParentId":"940GZZLUSHH","zone":"5"},{"icsId":"1012026","id":"490012026N","lat":51.568503,"lon":-0.348062,"name":"Grange Road","parentId":"490G00012026","stationId":"490G00012026","stopLetter":"RD","topMostParentId":"490G00012026"},{"icsId":"1006216","id":"490006216N","lat":51.570683,"lon":-0.346439,"name":"Dudley Gardens","parentId":"490G00006216","stationId":"490G00006216","stopLetter":"RE","topMostParentId":"490G00006216"},{"icsId":"1014517","id":"490014517N","lat":51.573714,"lon":-0.343904,"name":"Whitmore Road","parentId":"490G00014517","stationId":"490G00014517","stopLetter":"RF","topMostParentId":"490G00014517"},{"icsId":"1011745","id":"490011745N","lat":51.576194,"lon":-0.343122,"name":"Roxborough Avenue","parentId":"490G00011745","stationId":"490G00011745","stopLetter":"->N","topMostParentId":"490G00011745"},{"icsId":"1012690","id":"490012690X1","lat":51.581025,"lon":-0.339468,"name":"St Georges Centre","parentId":"490G00012690","stationId":"490G00012690","stopLetter":"X1","topMostParentId":"490G00012690"},{"icsId":"1020278","id":"490020278S","lat":51.580387,"lon":-0.338221,"name":"Kymberley Road","parentId":"490G00020278","stationId":"490G00020278","stopLetter":"->S","topMostParentId":"490G00020278"}]}]}