{"direction":"inbound","lineId":"397","lineName":"397","mode":"bus","stopPointSequences":[{"stopPoint":[{"icsId":"1016793","id":"1500IM1055","lat":51.646934,"lon":0.082205,"name":"The Broadway","parentId":"150G00003600","stationId":"150G00003600","topMostParentId":"150G00003601"},{"icsId":"1018838","id":"1500420021Y0","lat":51.646937,"lon":0.079473,"name":"Epping Forest College","parentId":"150G00003634","stationId":"150G00003634","topMostParentId":"150G00003634"},{"icsId":"1004150","id":"1500IM502B","lat":51.648135,"lon":0.073269,"name":"The Murray Hall","parentId":"150G00000965","stationId":"150G00000965","topMostParentId":"150G00000965"},{"icsId":"1004151","id":"150042012005","lat":51.648171,"lon":0.068168,"name":"Oak View School","parentId":"150G00000969","stationId":"150G00000969","topMostParentId":"150G00000969"},{"icsId":"1013772","id":"150042012004","lat":51.64879,"lon":0.063643,"name":"Church Lane","parentId":"150G00000964","stationId":"150G00000964","topMostParentId":"150G00000964"},{"icsId":"1009383","id":"1500IM2417","lat":51.649265,"lon":0.059169,"name":"Traps Hill Library","parentId":"150G00000963","stationId":"150G00000963","topMostParentId":"150G00000963"},{"icsId":"1009391","id":"150042010008","lat":51.649286,"lon":0.056944,"name":"Traps Hill","parentId":"150G00000903","stationId":"150G00000903","topMostParentId":"150G00000903"},{"icsId":"1009384","id":"150042010006","lat":51.646951,"lon":0.054684,"name":"Forest Road","parentId":"150G00000902","stationId":"150G00000902","topMostParentId":"150G00000902"},{"icsId":"1009382","id":"1500IM504","lat":51.644212,"lon":0.05245,"name":"The Crown","parentId":"150G00000959","stationId":"150G00000959","topMostParentId":"150G00000959"},{"icsId":"1000316","id":"150042015006","lat":51.642155,"lon":0.054872,"name":"Loughton Station","stopLetter":"B","topMostParentId":"150042015006"},{"icsId":"1009386","id":"1500SAINS1","lat":51.643338,"lon":0.053552,"name":"Sainsbury's","topMostParentId":"1500SAINS1"},{"icsId":"1009382","id":"1500LOUGHTON","lat":51.643965,"lon":0.051615,"name":"The Crown","parentId":"150G00000959","stationId":"150G00000959","topMostParentId":"150G00000959"},{"icsId":"1009387","id":"150042010002","lat":51.641535,"lon":0.048152,"name":"The Crescent","topMostParentId":"150042010002"},{"icsId":"1009388","id":"150042011010","lat":51.640351,"lon":0.04489,"name":"Spring Grove","parentId":"150G00000900","stationId":"150G00000900","topMostParentId":"150G00000900"},{"icsId":"1004544","id":"150042011008","lat":51.63753,"lon":0.041093,"name":"North Farm","parentId":"150G00000899","stationId":"150G00000899","topMostParentId":"150G00000899"},{"icsId":"1004549","id":"150042011007","lat":51.631791,"lon":0.036529,"name":"Cricket Ground","parentId":"150G00000898","stationId":"150G00000898","topMostParentId":"150G00000898"},{"icsId":"1004548","id":"150042011005","lat":51.628678,"lon":0.034034,"name":"Russell Road","parentId":"150G00000897","stationId":"150G00000897","topMostParentId":"150G00000897"},{"icsId":"1004543","id":"1500IM2419","lat":51.626011,"lon":0.032282,"name":"Stag Lane","parentId":"150G00000205","stationId":"150G00000205","topMostParentId":"150G00000205"},{"icsId":"1008871","id":"490008871S","lat":51.622588,"lon":0.029991,"name":"Knighton Lane","parentId":"490G00008871","stationId":"490G00008871","stopLetter":"FN","topMostParentId":"490G00008871"},{"icsId":"1003575","id":"490003575W","lat":51.618738,"lon":0.025905,"name":"Bancroft's School","parentId":"490G00003575","stationId":"490G00003575","stopLetter":"FU","topMostParentId":"490G00003575"},{"icsId":"1006930","id":"490006930N","lat":51.62103,"lon":0.023392,"name":"Forest Road","parentId":"490G00006930","stationId":"490G00006930","stopLetter":"FV","topMostParentId":"490G00006930"},{"icsId":"1014587","id":"490014587N","lat":51.624189,"lon":0.022174,"name":"Whitehall Lane","parentId":"490G00014587","stationId":"490G00014587","stopLetter":"FW","topMostParentId":"490G00014587"},{"icsId":"1012012","id":"490012012W","lat":51.626777,"lon":0.019154,"name":"Seymour Court","parentId":"490G00012012","stationId":"490G00012012","stopLetter":"GM","topMostParentId":"490G00012012"},{"icsId":"1020186","id":"490020186W","lat":51.634092,"lon":0.012601,"name":"Bury Road","parentId":"490G00020186","stationId":"490G00020186","stopLetter":"->W","topMostParentId":"490G00020186"},{"icsId":"1012617","id":"490012617E","lat":51.633036,"lon":0.008652,"name":"Station Road / Chingford Station","parentId":"490G000764","stationId":"490G000764","stopLetter":"E","topMostParentId":"490G000764"},{"icsId":"1012558","id":"490012558G","lat":51.631782,"lon":0.005215,"name":"Stanley Road","parentId":"490G00012558","stationId":"490G00012558","stopLetter":"G","topMostParentId":"490G00012558"},{"icsId":"1012619","id":"490012619K","lat":51.630813,"lon":0.001907,"name":"Station Road / The Green","parentId":"490G00012619","stationId":"490G00012619","stopLetter":"K","topMostParentId":"490G00012619"},{"icsId":"1005183","id":"490005183E","lat":51.628806,"lon":0.003076,"name":"Balgonie Road","parentId":"490G00005183","stationId":"490G00005183","stopLetter":"GA","topMostParentId":"490G00005183"},{"icsId":"1014591","id":"490014591S","lat":51.626436,"lon":0.00758,"name":"Whitehall Road","parentId":"490G00014591","stationId":"490G00014591","stopLetter":"GV","topMostParentId":"490G00014591"},{"icsId":"1003270","id":"490003270B","lat":51.620244,"lon":-0.017006,"name":"Alpha Road","parentId":"490G00003270","stationId":"490G00003270","stopLetter":"B","topMostParentId":"490G00003270"},{"icsId":"1007676","id":"490007676J","lat":51.616635,"lon":-0.017351,"name":"Hall Lane","parentId":"490G000561","stationId":"490G000561","stopLetter":"J","topMostParentId":"490G000561"},{"icsId":"1008981","id":"490008981S","lat":51.613543,"lon":-0.017413,"name":"Larkswood Road","parentId":"490G00008981","stationId":"490G00008981","stopLetter":"U","topMostParentId":"490G00008981"},{"icsId":"1003124","id":"490003124S","lat":51.612192,"lon":-0.017848,"name":"Ainslie Wood Road","parentId":"490G00003124","stationId":"490G00003124","stopLetter":"V","topMostParentId":"490G00003124"},{"icsId":"1009091","id":"490009091S","lat":51.609614,"lon":-0.017469,"name":"Leonard Road","parentId":"490G00009091","stationId":"490G00009091","stopLetter":"->S","topMostParentId":"490G00009091"},{"icsId":"1008132","id":"490008132S","lat":51.60738,"lon":-0.016686,"name":"Higham Station Avenue","parentId":"490G00008132","stationId":"490G00008132","stopLetter":"->S","topMostParentId":"490G00008132"},{"icsId":"1011741","id":"490011741S","lat":51.605207,"lon":-0.016347,"name":"Rowden Park Gardens","parentId":"490G00011741","stationId":"490G00011741","stopLetter":"CC","topMostParentId":"490G00011741"},{"icsId":"1014170","id":"490014170S","lat":51.60366,"lon":-0.016342,"name":"Walthamstow Stadium","parentId":"490G00014170","stationId":"490G00014170","stopLetter":"CD","topMostParentId":"490G00014170"},{"icsId":"1011866","id":"490011866N2","lat":51.603688,"lon":-0.020673,"name":"Salisbury Hall Sainsbury's","parentId":"490G00011866","stationId":"490G00011866","stopLetter":"CB","topMostParentId":"490G00011866"}]}]}