{"direction":"inbound","lineId":"398","lineName":"398","mode":"bus","stopPointSequences":[{"stopPoint":[{"icsId":"1018843","id":"490018843E","lat":51.554693,"lon":-0.346283,"name":"Hemery Road","parentId":"490G00018843","stationId":"490G00018843","topMostParentId":"490G00018843"},{"icsId":"1018842","id":"490018842W","lat":51.555446,"lon":-0.348708,"name":"Mary Peters Drive","parentId":"490G00018842","stationId":"490G00018842","topMostParentId":"490G00018842"},{"icsId":"1018841","id":"490018841S","lat":51.55435,"lon":-0.353854,"name":"Reading Road","parentId":"490G00018841","stationId":"490G00018841","stopLetter":"NY","topMostParentId":"490G00018841"},{"icsId":"1015483","id":"490015483W","lat":51.553971,"lon":-0.356969,"name":"Wood End Lane","parentId":"490G00015483","stationId":"490G00015483","stopLetter":"NV","topMostParentId":"490G00015483"},{"icsId":"1005952","id":"490005952N","lat":51.556024,"lon":-0.361699,"name":"Danemead Grove","parentId":"490G000482","stationId":"490G000482","stopLetter":"NB","topMostParentId":"490G000482"},{"icsId":"1003203","id":"490003203A","lat":51.558837,"lon":-0.36027,"name":"Station Parade","parentId":"490G00003203","stationId":"490G00003203","stopLetter":"NC","topMostParentId":"490G00003203"},{"icsId":"1012689","id":"490012689N","lat":51.560626,"lon":-0.358331,"name":"St Gabriel's Church","parentId":"490G00012689","stationId":"490G00012689","stopLetter":"ND","topMostParentId":"490G00012689"},{"icsId":"1015183","id":"490015183H","lat":51.562467,"lon":-0.356244,"name":"Corbins Lane","parentId":"490G00015183","stationId":"490G00015183","stopLetter":"H","topMostParentId":"490G00015183"},{"icsId":"1000211","id":"490000211F","lat":51.564558,"lon":-0.353976,"name":"South Harrow Station","parentId":"490G00211G","stationId":"490G00211G","stopLetter":"F","topMostParentId":"940GZZLUSHH","zone":"5"},{"icsId":"1000211","id":"490000211D","lat":51.564644,"lon":-0.353064,"name":"South Harrow Station","parentId":"490G00211G","stationId":"490G00211G","stopLetter":"D","topMostParentId":"940GZZLUSHH","zone":"5"},{"icsId":"1005604","id":"490005604W","lat":51.564956,"lon":-0.359964,"name":"Corbins Lane","parentId":"490G00005604","stationId":"490G00005604","stopLetter":"L","topMostParentId":"490G00005604"},{"icsId":"1013683","id":"490013683W","lat":51.564175,"lon":-0.364522,"name":"Alexandra Avenue","parentId":"490G00013683","stationId":"490G00013683","stopLetter":"M","topMostParentId":"490G00013683"},{"icsId":"1006330","id":"490006330N","lat":51.564695,"lon":-0.366393,"name":"Eastcote Lane","parentId":"490G00006330","stationId":"490G00006330","stopLetter":"X","topMostParentId":"490G00006330"},{"icsId":"1003220","id":"490003220N","lat":51.567463,"lon":-0.368848,"name":"Alexandra Avenue Health Centre","parentId":"490G00003220","stationId":"490G00003220","stopLetter":"Y","topMostParentId":"490G00003220"},{"icsId":"1010702","id":"490010702N","lat":51.571658,"lon":-0.371786,"name":"Oxleay Road","parentId":"490G00010702","stationId":"490G00010702","stopLetter":"Z","topMostParentId":"490G00010702"},{"icsId":"1014212","id":"490014212D","lat":51.573249,"lon":-0.371744,"name":"Warden Avenue","parentId":"490G00014212","stationId":"490G00014212","stopLetter":"D","topMostParentId":"490G00014212"},{"icsId":"1000189","id":"490000189A","lat":51.575766,"lon":-0.371004,"name":"Rayners Lane Station","parentId":"490G00189S","stationId":"490G00189S","stopLetter":"A","topMostParentId":"940GZZLURYL","zone":"5"},{"icsId":"1014083","id":"490014083Q","lat":51.577088,"lon":-0.371693,"name":"Village Way / Rayners Lane","parentId":"490G00014083","stationId":"490G00014083","stopLetter":"Q","topMostParentId":"490G00014083"},{"icsId":"1013373","id":"490013373W","lat":51.577192,"lon":-0.378544,"name":"The Glen","parentId":"490G00013373","stationId":"490G00013373","stopLetter":"->W","topMostParentId":"490G00013373"},{"icsId":"1011399","id":"490011399W","lat":51.577462,"lon":-0.385073,"name":"Raleigh Close","parentId":"490G00011399","stationId":"490G00011399","stopLetter":"->W","topMostParentId":"490G00011399"},{"icsId":"1004979","id":"490004979W","lat":51.577693,"lon":-0.391429,"name":"Chandos Road","parentId":"490G00004979","stationId":"490G00004979","stopLetter":"->W","topMostParentId":"490G00004979"},{"icsId":"1015492","id":"490015492D","lat":51.577404,"lon":-0.397255,"name":"The Close","parentId":"490G000902","stationId":"490G000902","stopLetter":"J","topMostParentId":"490G000902"},{"icsId":"1000066","id":"490000066K","lat":51.576163,"lon":-0.39727,"name":"Eastcote Station","parentId":"490G00066A","stationId":"490G00066A","stopLetter":"K","topMostParentId":"940GZZLUEAE","zone":"5"},{"icsId":"1005568","id":"490005568W","lat":51.573483,"lon":-0.399211,"name":"Hoylake Gardens","parentId":"490G00005568","stationId":"490G00005568","stopLetter":"N","topMostParentId":"490G00005568"},{"icsId":"1019123","id":"490019123W","lat":51.572968,"lon":-0.401654,"name":"Oak Grove","parentId":"490G00019123","stationId":"490G00019123","stopLetter":"->W","topMostParentId":"490G00019123"},{"icsId":"1009608","id":"490009608W","lat":51.572426,"lon":-0.404155,"name":"Mansfield Avenue","parentId":"490G00009608","stationId":"490G00009608","stopLetter":"->W","topMostParentId":"490G00009608"},{"icsId":"1016302","id":"490016302W","lat":51.571237,"lon":-0.408569,"name":"Dulverton Road","parentId":"490G00016302","stationId":"490G00016302","stopLetter":"J","topMostParentId":"490G00016302"},{"icsId":"1005616","id":"490005616E","lat":51.571098,"lon":-0.411647,"name":"Cornwall Road","parentId":"490G00005616","stationId":"490G00005616","stopLetter":"E","topMostParentId":"490G00005616"},{"icsId":"1000199","id":"490000199B","lat":51.573168,"lon":-0.41309,"name":"Ruislip Manor Station","parentId":"490G00199S","stationId":"490G00199S","stopLetter":"B","topMostParentId":"940GZZLURSM","zone":"6"},{"icsId":"1000197","id":"490000197A","lat":51.572023,"lon":-0.421499,"name":"Ruislip Station","parentId":"490G00197Z2","stationId":"490G00197Z2","stopLetter":"A","topMostParentId":"940GZZLURSP","zone":"6"}]}]}