{"direction":"inbound","lineId":"399","lineName":"399","mode":"bus","stopPointSequences":[{"stopPoint":[{"icsId":"1001130","id":"490001130W","lat":51.668199,"lon":-0.176098,"name":"Hadley Wood Station","parentId":"490G01130W","stationId":"490G01130W","stopLetter":"A","topMostParentId":"910GHADLYWD"},{"icsId":"1005750","id":"490005750S","lat":51.665884,"lon":-0.17875,"name":"Crescent West","parentId":"490G00005750","stationId":"490G00005750","stopLetter":"->S","topMostParentId":"490G00005750"},{"icsId":"1023075","id":"490023075W","lat":51.664808,"lon":-0.180688,"name":"Broadgates Avenue","parentId":"490G00023075","stationId":"490G00023075","stopLetter":"->W","topMostParentId":"490G00023075"},{"icsId":"1019552","id":"490019552W","lat":51.663857,"lon":-0.183733,"name":"Pagitts Grove","parentId":"490G00019552","stationId":"490G00019552","stopLetter":"->W","topMostParentId":"490G00019552"},{"icsId":"1020374","id":"490020374W","lat":51.662406,"lon":-0.18878,"name":"Monken Hadley C of E School","parentId":"490G00020374","stationId":"490G00020374","stopLetter":"->W","topMostParentId":"490G00020374"},{"icsId":"1009971","id":"490009971W","lat":51.661553,"lon":-0.194699,"name":"Monken Hadley Church","parentId":"490G00009971","stationId":"490G00009971","stopLetter":"->W","topMostParentId":"490G00009971"},{"icsId":"1020373","id":"490020373W","lat":51.662155,"lon":-0.197566,"name":"Convent Close","parentId":"490G00020373","stationId":"490G00020373","stopLetter":"->W","topMostParentId":"490G00020373"},{"icsId":"1006280","id":"490006280S","lat":51.662734,"lon":-0.198989,"name":"Dury Road","parentId":"490G00006280","stationId":"490G00006280","stopLetter":"->S","topMostParentId":"490G00006280"},{"icsId":"1007631","id":"490007631S","lat":51.658472,"lon":-0.200763,"name":"Hadley Green","parentId":"490G00007631","stationId":"490G00007631","stopLetter":"->S","topMostParentId":"490G00007631"},{"icsId":"1013559","id":"490013559S","lat":51.656453,"lon":-0.203966,"name":"The Spires","parentId":"490G00013559","stationId":"490G00013559","stopLetter":"S","topMostParentId":"490G00013559"}]}]}