{"direction":"inbound","lineId":"399","lineName":"399","mode":"bus","stopPointSequences":[{"stopPoint":[{"icsId":"1001130","id":"490001130W","lat":51.668199,"lon":-0.176098,"name":"Hadley Wood Station","parentId":"490G01130W","stationId":"490G01130W","stopLetter":"A","topMostParentId":"910GHADLYWD"},{"icsId":"1005750","id":"490005750S","lat":51.665884,"lon":-0.17875,"name":"Crescent West","parentId":"490G00005750","stationId":"490G00005750","stopLetter":"->S","topMostParentId":"490G00005750"},{"icsId":"1020381","id":"490005750E1","lat":51.666204,"lon":-0.174471,"name":"Parkgate Avenue","parentId":"490G00020381","stationId":"490G00020381","stopLetter":"->E","topMostParentId":"490G00020381"},{"icsId":"1018566","id":"490018566E","lat":51.666226,"lon":-0.174124,"name":"Camlet Way  Beech Hill Avenue","parentId":"490G00018566","stationId":"490G00018566","topMostParentId":"490G00018566"},{"icsId":"1020376","id":"490020376E","lat":51.666868,"lon":-0.164568,"name":"Hadley Wood Golf Club","parentId":"490G00020376","stationId":"490G00020376","stopLetter":"->E","topMostParentId":"490G00020376"},{"icsId":"1007431","id":"490007431S","lat":51.668572,"lon":-0.196169,"name":"Greenacre Close","parentId":"490G00007431","stationId":"490G00007431","stopLetter":"->S","topMostParentId":"490G00007431"},{"icsId":"1007632","id":"490007632S","lat":51.664454,"lon":-0.199109,"name":"Hadley Highstone","parentId":"490G00007632","stationId":"490G00007632","stopLetter":"->S","topMostParentId":"490G00007632"},{"icsId":"1006280","id":"490006280S","lat":51.662734,"lon":-0.198989,"name":"Dury Road","parentId":"490G00006280","stationId":"490G00006280","stopLetter":"->S","topMostParentId":"490G00006280"},{"icsId":"1007631","id":"490007631S","lat":51.658472,"lon":-0.200763,"name":"Hadley Green","parentId":"490G00007631","stationId":"490G00007631","stopLetter":"->S","topMostParentId":"490G00007631"},{"icsId":"1013559","id":"490013559S","lat":51.656453,"lon":-0.203966,"name":"The Spires","parentId":"490G00013559","stationId":"490G00013559","stopLetter":"S","topMostParentId":"490G00013559"}]}]}