{"direction":"inbound","lineId":"4","lineName":"4","mode":"bus","stopPointSequences":[{"stopPoint":[{"icsId":"1000023","id":"490000023BA","lat":51.512214,"lon":-0.102753,"name":"Blackfriars Station","parentId":"490G00023BB","stationId":"490G00023BB","stopLetter":"A","topMostParentId":"HUBBFR","zone":"1"},{"icsId":"1016494","id":"490016494E","lat":51.512019,"lon":-0.099591,"name":"Millennium Bridge","parentId":"490G00016494","stationId":"490G00016494","stopLetter":"SG","topMostParentId":"490G00016494"},{"icsId":"1010199","id":"490010199D","lat":51.513823,"lon":-0.096575,"name":"New Change / Cannon Street","parentId":"490G000672","stationId":"490G000672","stopLetter":"SL","topMostParentId":"490G000672"},{"icsId":"1000225","id":"490000225U","lat":51.515197,"lon":-0.098147,"name":"St Paul's Station","parentId":"490G00225S","stationId":"490G00225S","stopLetter":"SP","topMostParentId":"940GZZLUSPU","zone":"1"},{"icsId":"1008743","id":"49008743N1","lat":51.517615,"lon":-0.098075,"name":"Little Britain","parentId":"490G00008743","stationId":"490G00008743","stopLetter":"SV","topMostParentId":"490G00008743"},{"icsId":"1019953","id":"490010130N","lat":51.518229,"lon":-0.097112,"name":"Museum Of London","parentId":"490G00019953","stationId":"490G00019953","stopLetter":"BC","topMostParentId":"490G00019953"},{"icsId":"1000014","id":"490000014A","lat":51.520306,"lon":-0.097703,"name":"Barbican Station","parentId":"490G00014W","stationId":"490G00014W","stopLetter":"BA","topMostParentId":"940GZZLUBBN","zone":"1"},{"icsId":"1019002","id":"490003573N","lat":51.522848,"lon":-0.098044,"name":"Clerkenwell Road / Old Street","parentId":"490G00019002","stationId":"490G00019002","stopLetter":"BQ","topMostParentId":"490G00019002"},{"icsId":"1019863","id":"490015105N","lat":51.524072,"lon":-0.099219,"name":"Goswell Road / Great Sutton Street","parentId":"490G00019863","stationId":"490G00019863","stopLetter":"BT","topMostParentId":"490G00019863"},{"icsId":"1009099","id":"490010935N","lat":51.526072,"lon":-0.100015,"name":"Percival Street","parentId":"490G00009099","stationId":"490G00009099","stopLetter":"UQ","topMostParentId":"490G00009099"},{"icsId":"1015107","id":"490015107N","lat":51.528002,"lon":-0.1009,"name":"City University","parentId":"490G00015107","stationId":"490G00015107","stopLetter":"US","topMostParentId":"490G00015107"},{"icsId":"1003327","id":"490003327K","lat":51.531268,"lon":-0.104931,"name":"Angel Islington","parentId":"490G000390","stationId":"490G000390","stopLetter":"UT","topMostParentId":"490G000390"},{"icsId":"1000007","id":"490000007Y","lat":51.53432,"lon":-0.105655,"name":"Angel Station","parentId":"490G00007G","stationId":"490G00007G","stopLetter":"Y","topMostParentId":"940GZZLUAGL","zone":"1"},{"icsId":"1013261","id":"490013261Z","lat":51.537127,"lon":-0.10352,"name":"Theberton Street","parentId":"490G00013261","stationId":"490G00013261","stopLetter":"Z","topMostParentId":"490G00013261"},{"icsId":"1008514","id":"490008514N2","lat":51.539277,"lon":-0.102493,"name":"St Mary's Church","parentId":"490G00008514","stationId":"490G00008514","stopLetter":"P","topMostParentId":"490G00008514"},{"icsId":"1008517","id":"490008517N1","lat":51.542211,"lon":-0.103164,"name":"Islington Town Hall","parentId":"490G00008517","stationId":"490G00008517","stopLetter":"R","topMostParentId":"490G00008517"},{"icsId":"1008143","id":"490000108F","lat":51.544984,"lon":-0.103395,"name":"Highbury Corner","parentId":"490G00008143","stationId":"490G00008143","stopLetter":"F","topMostParentId":"490G00008143"},{"icsId":"1008149","id":"490008143C","lat":51.546292,"lon":-0.100874,"name":"St Paul's Road / Highbury Corner","parentId":"490G00008149","stationId":"490G00008149","stopLetter":"C","topMostParentId":"490G00008149"},{"icsId":"1019898","id":"490015544N","lat":51.548865,"lon":-0.098142,"name":"Highbury Grove School / Baalbec Road","parentId":"490G00019898","stationId":"490G00019898","stopLetter":"CW","topMostParentId":"490G00019898"},{"icsId":"1003053","id":"490003053N","lat":51.550437,"lon":-0.098596,"name":"Aberdeen Park","parentId":"490G00003053","stationId":"490G00003053","stopLetter":"CX","topMostParentId":"490G00003053"},{"icsId":"1000333","id":"490008616N","lat":51.554172,"lon":-0.098238,"name":"Highbury Barn","parentId":"490G00000333","stationId":"490G00000333","stopLetter":"EH","topMostParentId":"490G00000333"},{"icsId":"1015699","id":"490015699N","lat":51.556446,"lon":-0.098143,"name":"St Joan Of Arc School","parentId":"490G00015699","stationId":"490G00015699","stopLetter":"EJ","topMostParentId":"490G00015699"},{"icsId":"1011601","id":"490011601Z","lat":51.557946,"lon":-0.0986,"name":"Riversdale Road","parentId":"490G00011601","stationId":"490G00011601","stopLetter":"EK","topMostParentId":"490G00011601"},{"icsId":"1009986","id":"490009986V","lat":51.561331,"lon":-0.099411,"name":"Monsell Road","parentId":"490G00009986","stationId":"490G00009986","stopLetter":"EL","topMostParentId":"490G00009986"},{"icsId":"1011623","id":"490011623P","lat":51.563846,"lon":-0.104226,"name":"Rock Street","parentId":"490G00011623","stationId":"490G00011623","stopLetter":"P","topMostParentId":"490G00011623"},{"icsId":"1000083","id":"490000083S","lat":51.563746,"lon":-0.10638,"name":"Finsbury Park Station","parentId":"490G00083S","stationId":"490G00083S","stopLetter":"S","topMostParentId":"HUBFPK","zone":"2"},{"icsId":"1006889","id":"490006889W","lat":51.56233,"lon":-0.107781,"name":"Isledon Road","parentId":"490G000519","stationId":"490G000519","stopLetter":"W","topMostParentId":"490G000519"},{"icsId":"1003929","id":"490003929S","lat":51.559618,"lon":-0.110274,"name":"Berriman Road","parentId":"490G00003929","stationId":"490G00003929","stopLetter":"NM","topMostParentId":"490G00003929"},{"icsId":"1013695","id":"490008368S","lat":51.557998,"lon":-0.111856,"name":"Sobell Centre","parentId":"490G00013695","stationId":"490G00013695","stopLetter":"NN","topMostParentId":"490G00013695"},{"icsId":"1019904","id":"490008296N","lat":51.556847,"lon":-0.11525,"name":"Holloway Road / Camden Road","parentId":"490G00019904","stationId":"490G00019904","stopLetter":"N","topMostParentId":"490G00019904"},{"icsId":"1008296","id":"490008296L","lat":51.556317,"lon":-0.117522,"name":"Holloway / Nags Head","parentId":"490G00008296","stationId":"490G00008296","stopLetter":"L","topMostParentId":"490G00008296"},{"icsId":"1013837","id":"490013837D","lat":51.558211,"lon":-0.121787,"name":"Tufnell Park Road / Odeon Cinema","parentId":"490G00013837","stationId":"490G00013837","stopLetter":"D","topMostParentId":"490G00013837"},{"icsId":"1004788","id":"490004788W","lat":51.557856,"lon":-0.126547,"name":"Carleton Road","parentId":"490G00004788","stationId":"490G00004788","stopLetter":"->W","topMostParentId":"490G00004788"},{"icsId":"1005939","id":"490005939W","lat":51.557469,"lon":-0.131035,"name":"Dalmeny Road","parentId":"490G00005939","stationId":"490G00005939","stopLetter":"TY","topMostParentId":"490G00005939"},{"icsId":"1000239","id":"490000239A","lat":51.556886,"lon":-0.137378,"name":"Tufnell Park Station","parentId":"490G00239A","stationId":"490G00239A","stopLetter":"TZ","topMostParentId":"940GZZLUTFP","zone":"2"},{"icsId":"1008592","id":"490008592E","lat":51.557342,"lon":-0.138888,"name":"Acland Burghley School","parentId":"490G000615","stationId":"490G000615","stopLetter":"TH","topMostParentId":"490G000615"},{"icsId":"1016618","id":"490016618N","lat":51.559024,"lon":-0.14006,"name":"Spencer Rise","parentId":"490G00016618","stationId":"490G00016618","stopLetter":"TJ","topMostParentId":"490G00016618"},{"icsId":"1005973","id":"490005975E","lat":51.561082,"lon":-0.141116,"name":"Dartmouth Park Road","parentId":"490G000483","stationId":"490G000483","stopLetter":"TK","topMostParentId":"490G000483"},{"icsId":"1015267","id":"490015267E1","lat":51.56337,"lon":-0.140821,"name":"Chester Road","parentId":"490G00015267","stationId":"490G00015267","stopLetter":"HL","topMostParentId":"490G00015267"},{"icsId":"1011872","id":"490011872E","lat":51.565582,"lon":-0.140197,"name":"Magdala Avenue / Dartmouth Park Hill","parentId":"490G00011872","stationId":"490G00011872","stopLetter":"HQ","topMostParentId":"490G00011872"},{"icsId":"1014625","id":"490014625E","lat":51.566428,"lon":-0.137406,"name":"Whittington Hospital","parentId":"490G00014625","stationId":"490G00014625","stopLetter":"F","topMostParentId":"490G00014625"},{"icsId":"1000008","id":"490000008C","lat":51.566438,"lon":-0.136338,"name":"Archway Station","parentId":"490G00008O","stationId":"490G00008O","stopLetter":"C","topMostParentId":"940GZZLUACY","zone":"2+3"}]}]}