{"direction":"inbound","lineId":"40","lineName":"40","mode":"bus","stopPointSequences":[{"stopPoint":[{"icsId":"1019038","id":"490000003B","lat":51.514956,"lon":-0.07514,"name":"St Botolph Street","parentId":"490G00019038","stationId":"490G00019038","stopLetter":"B","topMostParentId":"490G00019038"},{"icsId":"1000003","id":"490000003R","lat":51.514081,"lon":-0.074932,"name":"Aldgate Station","parentId":"490G00003N","stationId":"490G00003N","stopLetter":"R","topMostParentId":"940GZZLUALD","zone":"1"},{"icsId":"1001108","id":"490001108W","lat":51.51208,"lon":-0.080161,"name":"Fenchurch Street Station","parentId":"490G01108W","stationId":"490G01108W","stopLetter":"T","topMostParentId":"910GFENCHRS"},{"icsId":"1011049","id":"490011049W","lat":51.511619,"lon":-0.082184,"name":"Rood Lane","parentId":"490G00011049","stationId":"490G00011049","stopLetter":"Y","topMostParentId":"490G00011049"},{"icsId":"1019174","id":"490000148U","lat":51.511348,"lon":-0.085423,"name":"Fenchurch Street","parentId":"490G000934","stationId":"490G000934","stopLetter":"U","topMostParentId":"490G000934"},{"icsId":"1000148","id":"490009267E","lat":51.509504,"lon":-0.087028,"name":"Monument Station","parentId":"490G09267E","stationId":"490G09267E","stopLetter":"P","topMostParentId":"940GZZLUMMT","zone":"1"},{"icsId":"1018542","id":"490000139Y","lat":51.506581,"lon":-0.088116,"name":"London Bridge","parentId":"490G000922","stationId":"490G000922","stopLetter":"Y","topMostParentId":"HUBLBG"},{"icsId":"1019864","id":"490013910S","lat":51.504037,"lon":-0.09096,"name":"Southwark Street","parentId":"490G00019864","stationId":"490G00019864","topMostParentId":"490G00019864"},{"icsId":"1013910","id":"490013910H","lat":51.502403,"lon":-0.092224,"name":"Union Street","parentId":"490G00013910","stationId":"490G00013910","stopLetter":"H","topMostParentId":"490G00013910"},{"icsId":"1000026","id":"490000026A","lat":51.500641,"lon":-0.093926,"name":"Borough Station","parentId":"490G00026B","stationId":"490G00026B","stopLetter":"A","topMostParentId":"940GZZLUBOR","zone":"1"},{"icsId":"1003548","id":"490003548B","lat":51.498402,"lon":-0.097794,"name":"Inner London Crown Court","parentId":"490G00003548","stationId":"490G00003548","stopLetter":"B","topMostParentId":"490G00003548"},{"icsId":"1009297","id":"490000073G","lat":51.496934,"lon":-0.099325,"name":"Elephant & Castle / Newington Causeway","parentId":"490G000644","stationId":"490G000644","stopLetter":"G","topMostParentId":"490G000644"},{"icsId":"1000073","id":"490000073R","lat":51.493256,"lon":-0.099305,"name":"Elephant & Castle Station","parentId":"490G00073G","stationId":"490G00073G","stopLetter":"R","topMostParentId":"HUBEPH","zone":"1+2"},{"icsId":"1008975","id":"490008975S","lat":51.490448,"lon":-0.096959,"name":"Larcom Street","parentId":"490G00008975","stationId":"490G00008975","stopLetter":"B","topMostParentId":"490G00008975"},{"icsId":"1006380","id":"490006380E","lat":51.487054,"lon":-0.095083,"name":"East Street","parentId":"490G00006380","stationId":"490G00006380","stopLetter":"E","topMostParentId":"490G00006380"},{"icsId":"1014501","id":"490014501K","lat":51.484964,"lon":-0.093701,"name":"Westmoreland Road","parentId":"490G00014501","stationId":"490G00014501","stopLetter":"K","topMostParentId":"490G00014501"},{"icsId":"1003138","id":"490003138N","lat":51.481422,"lon":-0.094353,"name":"Camberwell Road / Albany Road","parentId":"490G00003138","stationId":"490G00003138","stopLetter":"N","topMostParentId":"490G00003138"},{"icsId":"1004221","id":"490004221S","lat":51.479774,"lon":-0.094191,"name":"Bowyer Place","parentId":"490G00004221","stationId":"490G00004221","stopLetter":"N","topMostParentId":"490G00004221"},{"icsId":"1009784","id":"490009784B","lat":51.476926,"lon":-0.093821,"name":"Medlar Street","parentId":"490G00009784","stationId":"490G00009784","stopLetter":"B","topMostParentId":"490G00009784"},{"icsId":"1004687","id":"490004687P","lat":51.473603,"lon":-0.092965,"name":"Denmark Hill / Camberwell Green","parentId":"490G00004687","stationId":"490G00004687","stopLetter":"P","topMostParentId":"490G00004687"},{"icsId":"1005464","id":"490005464V","lat":51.470561,"lon":-0.092833,"name":"Coldharbour Lane","parentId":"490G00005464","stationId":"490G00005464","stopLetter":"V","topMostParentId":"490G00005464"},{"icsId":"1008764","id":"490008764H3","lat":51.467798,"lon":-0.091019,"name":"King's College Hospital","parentId":"490G00008764","stationId":"490G00008764","stopLetter":"B","topMostParentId":"490G00008764"},{"icsId":"1001083","id":"490001083H7","lat":51.468073,"lon":-0.08915,"name":"Denmark Hill Station","parentId":"490G01083H7","stationId":"490G01083H7","stopLetter":"C","topMostParentId":"910GDENMRKH"},{"icsId":"1015829","id":"490015829S","lat":51.467919,"lon":-0.086277,"name":"Grove Lane / Champion Park","parentId":"490G00015829","stationId":"490G00015829","stopLetter":"D","topMostParentId":"490G00015829"},{"icsId":"1004972","id":"490004972S","lat":51.466239,"lon":-0.085296,"name":"Champion Grove","parentId":"490G00004972","stationId":"490G00004972","stopLetter":"E","topMostParentId":"490G00004972"},{"icsId":"1006094","id":"490006094S","lat":51.464736,"lon":-0.083589,"name":"Champion Hill","parentId":"490G00006094","stationId":"490G00006094","stopLetter":"F","topMostParentId":"490G00006094"},{"icsId":"1015847","id":"490015830S","lat":51.462767,"lon":-0.081411,"name":"Quorn Road","parentId":"490G00015847","stationId":"490G00015847","stopLetter":"L","topMostParentId":"490G00015847"},{"icsId":"1001090","id":"490001090S","lat":51.461587,"lon":-0.079646,"name":"East Dulwich Station","parentId":"490G01090S","stationId":"490G01090S","stopLetter":"E","topMostParentId":"910GEDULWCH"},{"icsId":"1010595","id":"490010595F","lat":51.46143,"lon":-0.076112,"name":"Ondine Road","parentId":"490G00010595","stationId":"490G00010595","stopLetter":"F","topMostParentId":"490G00010595"},{"icsId":"1012417","id":"490005723K","lat":51.459326,"lon":-0.074991,"name":"Goose Green","parentId":"490G00012417","stationId":"490G00012417","stopLetter":"K","topMostParentId":"490G00012417"},{"icsId":"1010346","id":"490010346S","lat":51.457466,"lon":-0.075098,"name":"North Cross Road","parentId":"490G00010346","stationId":"490G00010346","stopLetter":"S","topMostParentId":"490G00010346"},{"icsId":"1006335","id":"490006335S","lat":51.455102,"lon":-0.07681,"name":"Melbourne Grove","parentId":"490G00006335","stationId":"490G00006335","stopLetter":"DU","topMostParentId":"490G00006335"},{"icsId":"1008041","id":"490008041S","lat":51.452995,"lon":-0.077215,"name":"Heber Road","parentId":"490G00008041","stationId":"490G00008041","stopLetter":"DV","topMostParentId":"490G00008041"},{"icsId":"1005874","id":"490005874S","lat":51.450798,"lon":-0.075954,"name":"Crystal Palace Road","parentId":"490G00005874","stationId":"490G00005874","stopLetter":"DW","topMostParentId":"490G00005874"},{"icsId":"1006232","id":"490006232S","lat":51.448698,"lon":-0.073466,"name":"Dulwich Library","parentId":"490G00006232","stationId":"490G00006232","stopLetter":"DE","topMostParentId":"490G00006232"}]}]}