{"direction":"inbound","lineId":"403","lineName":"403","mode":"bus","stopPointSequences":[{"stopPoint":[{"icsId":"1014420","id":"490014420W","lat":51.379062,"lon":-0.101237,"name":"West Croydon Bus Station","parentId":"490G000824","stationId":"490G000824","stopLetter":"B2","topMostParentId":"HUBWCY"},{"icsId":"1014614","id":"490014614E11","lat":51.376969,"lon":-0.098594,"name":"Whitgift Centre","parentId":"490G00014614","stationId":"490G00014614","stopLetter":"WJ","topMostParentId":"490G00014614"},{"icsId":"1006707","id":"490006706C13","lat":51.372689,"lon":-0.096386,"name":"Park Lane / Fairfield Halls","parentId":"490G00006707","stationId":"490G00006707","stopLetter":"KA","topMostParentId":"490G00006707"},{"icsId":"1015290","id":"490015290S","lat":51.368037,"lon":-0.096248,"name":"Coombe Road","parentId":"490G00015290","stationId":"490G00015290","stopLetter":"R","topMostParentId":"490G00015290"},{"icsId":"1013100","id":"490015548P","lat":51.364379,"lon":-0.098555,"name":"Swan & Sugar Loaf","parentId":"490G00013100","stationId":"490G00013100","stopLetter":"P","topMostParentId":"490G00013100"},{"icsId":"1018698","id":"490001258F","lat":51.363109,"lon":-0.097329,"name":"Ruskin Parade / South Croydon Station","parentId":"490G00018698","stationId":"490G00018698","stopLetter":"F","topMostParentId":"490G00018698"},{"icsId":"1013051","id":"490013051E","lat":51.35957,"lon":-0.093727,"name":"Sussex Road","parentId":"490G00013051","stationId":"490G00013051","stopLetter":"GP","topMostParentId":"490G00013051"},{"icsId":"1004802","id":"490004802S2","lat":51.355317,"lon":-0.092094,"name":"Carlton Road","parentId":"490G00004802","stationId":"490G00004802","stopLetter":"->S","topMostParentId":"490G00004802"},{"icsId":"1004236","id":"490004236S","lat":51.351103,"lon":-0.091766,"name":"Brambledown Road","parentId":"490G00004236","stationId":"490G00004236","stopLetter":"->S","topMostParentId":"490G00004236"},{"icsId":"1001244","id":"490001244B","lat":51.34852,"lon":-0.092218,"name":"Sanderstead Station","parentId":"490G01244B","stationId":"490G01244B","stopLetter":"GT","topMostParentId":"910GSDSD"},{"icsId":"1011900","id":"490011900S","lat":51.345715,"lon":-0.09222,"name":"Beechwood Road","parentId":"490G00011900","stationId":"490G00011900","stopLetter":"GU","topMostParentId":"490G00011900"},{"icsId":"1003939","id":"490003939S","lat":51.343206,"lon":-0.089466,"name":"The Red House","parentId":"490G00003939","stationId":"490G00003939","stopLetter":"->S","topMostParentId":"490G00003939"},{"icsId":"1011273","id":"490011273S","lat":51.340188,"lon":-0.085285,"name":"Sanderstead United Reformed Church","parentId":"490G00011273","stationId":"490G00011273","stopLetter":"->S","topMostParentId":"490G00011273"},{"icsId":"1011261","id":"490011261S","lat":51.337987,"lon":-0.08216,"name":"Purley Downs Road","parentId":"490G00011261","stationId":"490G00011261","stopLetter":"->S","topMostParentId":"490G00011261"},{"icsId":"1011894","id":"490015423S","lat":51.334992,"lon":-0.077203,"name":"Sanderstead / All Saints Church","parentId":"490G00011894","stationId":"490G00011894","stopLetter":"->S","topMostParentId":"490G00011894"},{"icsId":"1011899","id":"490011899S","lat":51.331761,"lon":-0.0754,"name":"Sanderstead Recreation Ground","parentId":"490G00011899","stationId":"490G00011899","stopLetter":"->S","topMostParentId":"490G00011899"},{"icsId":"1011897","id":"490011897S","lat":51.32923,"lon":-0.073468,"name":"Sanderstead Methodist Church","parentId":"490G00011897","stationId":"490G00011897","stopLetter":"->S","topMostParentId":"490G00011897"},{"icsId":"1008244","id":"490008244S","lat":51.327149,"lon":-0.070541,"name":"Hillsmead Way","parentId":"490G00008244","stationId":"490G00008244","topMostParentId":"490G00008244"},{"icsId":"1014394","id":"490014394S","lat":51.325094,"lon":-0.068632,"name":"Wentworth Way","parentId":"490G00014394","stationId":"490G00014394","stopLetter":"->S","topMostParentId":"490G00014394"},{"icsId":"1008251","id":"490008251S","lat":51.323213,"lon":-0.06742,"name":"Hilton Way","parentId":"490G00008251","stationId":"490G00008251","stopLetter":"->S","topMostParentId":"490G00008251"},{"icsId":"1007791","id":"490007791S","lat":51.320251,"lon":-0.065076,"name":"Harewood Gardens","parentId":"490G00007791","stationId":"490G00007791","stopLetter":"->S","topMostParentId":"490G00007791"},{"icsId":"1018559","id":"40004410164B","lat":51.318429,"lon":-0.063617,"name":"Hamsey Green","topMostParentId":"40004410164B"},{"icsId":"1014027","id":"40004410163B","lat":51.31546,"lon":-0.061403,"name":"Verdayne Gardens","parentId":"400G4410163B","stationId":"400G4410163B","topMostParentId":"400G4410163B"},{"icsId":"1014223","id":"40004410162B","lat":51.311099,"lon":-0.057641,"name":"Church Road","parentId":"400G4410162A","stationId":"400G4410162A","topMostParentId":"400G4410162A"},{"icsId":"1014222","id":"40004410161A","lat":51.309909,"lon":-0.05584,"name":"Warlingham Green","parentId":"400G4410161A","stationId":"400G4410161A","topMostParentId":"400G4410161A"},{"icsId":"1009672","id":"40004410153A","lat":51.307711,"lon":-0.048013,"name":"Marks Road","parentId":"400G4410153A","stationId":"400G4410153A","topMostParentId":"400G4410153A"},{"icsId":"1014225","id":"40004410152A","lat":51.307112,"lon":-0.043375,"name":"Warlingham / Sainsbury's","parentId":"400G4410152A","stationId":"400G4410152A","topMostParentId":"400G4410152A"}]}]}