{"direction":"inbound","lineId":"405","lineName":"405","mode":"bus","stopPointSequences":[{"stopPoint":[{"icsId":"1014420","id":"490014420W","lat":51.379062,"lon":-0.101237,"name":"West Croydon Bus Station","parentId":"490G000824","stationId":"490G000824","stopLetter":"B2","topMostParentId":"HUBWCY"},{"icsId":"1014614","id":"490014614E10","lat":51.376832,"lon":-0.098441,"name":"Whitgift Centre","parentId":"490G00014614","stationId":"490G00014614","stopLetter":"WK","topMostParentId":"490G00014614"},{"icsId":"1010839","id":"490010839C3","lat":51.373487,"lon":-0.097933,"name":"Park Street","parentId":"490G00010839","stationId":"490G00010839","stopLetter":"KH","topMostParentId":"490G00010839"},{"icsId":"1005855","id":"490005855C15","lat":51.371178,"lon":-0.100285,"name":"Croydon Flyover","parentId":"490G00005855","stationId":"490G00005855","stopLetter":"KP","topMostParentId":"490G00005855"},{"icsId":"1005574","id":"490005574S","lat":51.368211,"lon":-0.099201,"name":"Coombe Road","parentId":"490G00005574","stationId":"490G00005574","stopLetter":"W","topMostParentId":"490G00005574"},{"icsId":"1013269","id":"490013269S","lat":51.365896,"lon":-0.098966,"name":"Aberdeen Road","parentId":"490G00013269","stationId":"490G00013269","stopLetter":"S","topMostParentId":"490G00013269"},{"icsId":"1013101","id":"490013100L","lat":51.363546,"lon":-0.099336,"name":"Warham Road / Brighton Road","parentId":"490G00013101","stationId":"490G00013101","stopLetter":"L","topMostParentId":"490G00013101"},{"icsId":"1005853","id":"490005853W","lat":51.362485,"lon":-0.103201,"name":"Croydon Bowling Club","parentId":"490G00005853","stationId":"490G00005853","stopLetter":"->W","topMostParentId":"490G00005853"},{"icsId":"1004239","id":"490004239W","lat":51.362359,"lon":-0.105433,"name":"Bramley Hill","parentId":"490G00004239","stationId":"490G00004239","stopLetter":"->W","topMostParentId":"490G00004239"},{"icsId":"1007682","id":"490007669S","lat":51.358973,"lon":-0.106248,"name":"Heath Close","parentId":"490G00007682","stationId":"490G00007682","stopLetter":"GY","topMostParentId":"490G00007682"},{"icsId":"1012576","id":"490012576S","lat":51.356436,"lon":-0.105074,"name":"St Giles School","parentId":"490G00012576","stationId":"490G00012576","stopLetter":"GZ","topMostParentId":"490G00012576"},{"icsId":"1011517","id":"490011517S","lat":51.354558,"lon":-0.105726,"name":"Regina Coeli School","parentId":"490G00011517","stationId":"490G00011517","stopLetter":"->S","topMostParentId":"490G00011517"},{"icsId":"1020296","id":"490020296S","lat":51.352311,"lon":-0.10635,"name":"Netherheys Drive","parentId":"490G00020296","stationId":"490G00020296","stopLetter":"->S","topMostParentId":"490G00020296"},{"icsId":"1004062","id":"490004062S","lat":51.349647,"lon":-0.10735,"name":"Blackford Close","parentId":"490G00004062","stationId":"490G00004062","stopLetter":"->S","topMostParentId":"490G00004062"},{"icsId":"1009479","id":"490009479S","lat":51.347827,"lon":-0.109364,"name":"Lynscott Way","parentId":"490G00009479","stationId":"490G00009479","topMostParentId":"490G00009479"},{"icsId":"1014983","id":"490014983S","lat":51.344238,"lon":-0.110991,"name":"Wyvern Road","parentId":"490G00014983","stationId":"490G00014983","stopLetter":"PC","topMostParentId":"490G00014983"},{"icsId":"1011271","id":"490011271S","lat":51.34136,"lon":-0.114842,"name":"Purley Hospital","parentId":"490G00011271","stationId":"490G00011271","stopLetter":"PD","topMostParentId":"490G00011271"},{"icsId":"1011258","id":"490011258C","lat":51.339274,"lon":-0.117124,"name":"Purley Cross","parentId":"490G00011258","stationId":"490G00011258","stopLetter":"C","topMostParentId":"490G00011258"},{"icsId":"1011274","id":"490011274U","lat":51.336787,"lon":-0.118461,"name":"Purley Tesco","parentId":"490G000716","stationId":"490G000716","stopLetter":"U","topMostParentId":"490G000716"},{"icsId":"1007560","id":"490007560S","lat":51.334184,"lon":-0.121611,"name":"Grovelands Road","parentId":"490G00007560","stationId":"490G00007560","stopLetter":"RE","topMostParentId":"490G00007560"},{"icsId":"1010565","id":"490010565D","lat":51.332093,"lon":-0.124122,"name":"Brighton Road / Old Lodge Lane","parentId":"490G000687","stationId":"490G000687","stopLetter":"RF","topMostParentId":"490G000687"},{"icsId":"1014421","id":"490014421S","lat":51.329753,"lon":-0.126256,"name":"Musgrove Close","parentId":"490G00014421","stationId":"490G00014421","stopLetter":"RH","topMostParentId":"490G00014421"},{"icsId":"1015438","id":"490015438S","lat":51.32773,"lon":-0.127975,"name":"Smitham Downs Road","parentId":"490G00015438","stationId":"490G00015438","stopLetter":"RJ","topMostParentId":"490G00015438"},{"icsId":"1014704","id":"490014704S","lat":51.324558,"lon":-0.133171,"name":"Willow Court","parentId":"490G00014704","stationId":"490G00014704","stopLetter":"RK","topMostParentId":"490G00014704"},{"icsId":"1001253","id":"490001253B","lat":51.322287,"lon":-0.136263,"name":"Coulsdon Town Station","parentId":"490G01253A","stationId":"490G01253A","stopLetter":"B","topMostParentId":"910GCOLSTWN"},{"icsId":"1005640","id":"490005637C","lat":51.320373,"lon":-0.138622,"name":"Coulsdon Library","parentId":"490G00005640","stationId":"490G00005640","stopLetter":"C","topMostParentId":"490G00005640"},{"icsId":"1009202","id":"490009202D","lat":51.318201,"lon":-0.138854,"name":"Lion Green Road","parentId":"490G00009202","stationId":"490G00009202","stopLetter":"D","topMostParentId":"490G00009202"},{"icsId":"1001072","id":"490001072E","lat":51.315051,"lon":-0.138694,"name":"Coulsdon South Station","parentId":"490G01072M","stationId":"490G01072M","stopLetter":"E","topMostParentId":"910GCOLSDNS"},{"icsId":"1007887","id":"490007887S","lat":51.310013,"lon":-0.144838,"name":"Harwoods Garage","parentId":"490G00007887","stationId":"490G00007887","stopLetter":"->S","topMostParentId":"490G00007887"},{"icsId":"1014892","id":"490014892S","lat":51.307293,"lon":-0.146282,"name":"Woodplace Lane","parentId":"490G00014892","stationId":"490G00014892","stopLetter":"->S","topMostParentId":"490G00014892"},{"icsId":"1014843","id":"490014843S","lat":51.304335,"lon":-0.148022,"name":"Woodfield Hill","parentId":"490G00014843","stationId":"490G00014843","stopLetter":"->S","topMostParentId":"490G00014843"},{"icsId":"1011179","id":"40004409201B","lat":51.296483,"lon":-0.152469,"name":"Netherne Drive","parentId":"400G4409201A","stationId":"400G4409201A","topMostParentId":"400G4409201A"},{"icsId":"1008342","id":"40004409200B","lat":51.29408,"lon":-0.153498,"name":"Hooley / Star Lane","parentId":"400G4409200A","stationId":"400G4409200A","topMostParentId":"400G4409200A"},{"icsId":"1005273","id":"40004409199B","lat":51.288845,"lon":-0.155142,"name":"Church Lane","parentId":"400G4409199A","stationId":"400G4409199A","topMostParentId":"400G4409199A"},{"icsId":"1006001","id":"40004409198A","lat":51.285254,"lon":-0.154942,"name":"Dean Lane","topMostParentId":"40004409198A"},{"icsId":"1007833","id":"40004409197B","lat":51.276587,"lon":-0.157368,"name":"Harps Oak Lane","parentId":"400G4409197A","stationId":"400G4409197A","topMostParentId":"400G4409197A"},{"icsId":"1012070","id":"40004409196B","lat":51.27242,"lon":-0.151471,"name":"London Road North / Shepherds Hill","parentId":"400G4409196A","stationId":"400G4409196A","topMostParentId":"400G4409196A"},{"icsId":"1005264","id":"40004409195B","lat":51.267967,"lon":-0.150761,"name":"Church Hill","parentId":"400G4409195A","stationId":"400G4409195A","topMostParentId":"400G4409195A"},{"icsId":"1009828","id":"40004409194B","lat":51.263842,"lon":-0.152087,"name":"Merstham Station","parentId":"400G4409194A","stationId":"400G4409194A","stopLetter":"B","topMostParentId":"910GMERSTHM"},{"icsId":"1009829","id":"40004409193B","lat":51.259879,"lon":-0.155113,"name":"Merstham / The Grove","parentId":"400G4409193A","stationId":"400G4409193A","topMostParentId":"400G4409193A"},{"icsId":"1011625","id":"40004409192B","lat":51.256104,"lon":-0.159277,"name":"Rocky Lane","parentId":"400G4409192B","stationId":"400G4409192B","topMostParentId":"400G4409192B"},{"icsId":"1007143","id":"40004409191B","lat":51.252702,"lon":-0.164786,"name":"Gatton Point / East Surrey College","parentId":"400G4409191A","stationId":"400G4409191A","stopLetter":"C4","topMostParentId":"400G4409191A"},{"icsId":"1015963","id":"40004409334B","lat":51.250866,"lon":-0.165289,"name":"Victoria Almshouses","parentId":"400G4409334A","stationId":"400G4409334A","topMostParentId":"400G4409334A"},{"icsId":"1009987","id":"40004409188B","lat":51.248869,"lon":-0.165842,"name":"Monson Road","parentId":"400G4409188B","stationId":"400G4409188B","topMostParentId":"400G4409188B"},{"icsId":"1007014","id":"40004409175B","lat":51.245815,"lon":-0.166637,"name":"Linkfield Lane","parentId":"400G4409175B","stationId":"400G4409175B","topMostParentId":"400G4409175B"},{"icsId":"1011482","id":"40004409222D","lat":51.240823,"lon":-0.166534,"name":"Redhill Bus Station","parentId":"400G4409222A","stationId":"400G4409222A","stopLetter":"1","topMostParentId":"910GREDHILL"}]}]}