{"direction":"inbound","lineId":"407","lineName":"407","mode":"bus","stopPointSequences":[{"stopPoint":[{"icsId":"1004861","id":"40004410084C","lat":51.28269,"lon":-0.077739,"name":"Caterham Valley","parentId":"400G4410084C","stationId":"400G4410084C","topMostParentId":"910GCATERHM"},{"icsId":"1013360","id":"40004410108A","lat":51.28501,"lon":-0.079392,"name":"Bourne Court","parentId":"400G4410108A","stationId":"400G4410108A","topMostParentId":"400G4410108A"},{"icsId":"1006763","id":"40004410109A","lat":51.288076,"lon":-0.077715,"name":"Farningham Road","parentId":"400G4410109A","stationId":"400G4410109A","topMostParentId":"400G4410109A"},{"icsId":"1003826","id":"40004410110A","lat":51.290961,"lon":-0.075415,"name":"Beechwood Gardens","parentId":"400G4410110A","stationId":"400G4410110A","topMostParentId":"400G4410110A"},{"icsId":"1008154","id":"40004410111A","lat":51.292814,"lon":-0.073257,"name":"Highfield Road","parentId":"400G4410111A","stationId":"400G4410111A","topMostParentId":"400G4410111A"},{"icsId":"1009640","id":"40004410112A","lat":51.296217,"lon":-0.071279,"name":"Marden Lodge School","parentId":"400G4410112A","stationId":"400G4410112A","topMostParentId":"400G4410112A"},{"icsId":"1005650","id":"40004410113A","lat":51.301303,"lon":-0.074882,"name":"Well Farm Road","topMostParentId":"40004410113A"},{"icsId":"1014645","id":"40004410114A","lat":51.303498,"lon":-0.076569,"name":"Whyteleafe South Station","parentId":"400G4410114A","stationId":"400G4410114A","topMostParentId":"910GWHYTLFS"},{"icsId":"1008240","id":"40004410115A","lat":51.30588,"lon":-0.078119,"name":"Hillside Road","parentId":"400G4410115A","stationId":"400G4410115A","topMostParentId":"400G4410115A"},{"icsId":"1014646","id":"40004410116A","lat":51.308978,"lon":-0.08007,"name":"Whyteleafe & Upper Warlingham Stns","parentId":"400G4410116A","stationId":"400G4410116A","stopLetter":"D","topMostParentId":"400G4410116A"},{"icsId":"1009628","id":"40004410118A","lat":51.313587,"lon":-0.082532,"name":"Maple Road","parentId":"400G4410118A","stationId":"400G4410118A","topMostParentId":"400G4410118A"},{"icsId":"1010523","id":"40004410119A","lat":51.315709,"lon":-0.083621,"name":"Old Barn Lane","parentId":"400G4410119B","stationId":"400G4410119B","stopLetter":"J","topMostParentId":"400G4410119B"},{"icsId":"1006064","id":"490006064N","lat":51.318577,"lon":-0.086342,"name":"Devon Close","parentId":"490G00006064","stationId":"490G00006064","stopLetter":"K","topMostParentId":"490G00006064"},{"icsId":"1007129","id":"490007129N","lat":51.321133,"lon":-0.090283,"name":"Garston Lane","parentId":"490G00007129","stationId":"490G00007129","stopLetter":"L","topMostParentId":"490G00007129"},{"icsId":"1008633","id":"490008633N","lat":51.324316,"lon":-0.096883,"name":"Kenley Treatment Works","parentId":"490G00008633","stationId":"490G00008633","stopLetter":"M","topMostParentId":"490G00008633"},{"icsId":"1013437","id":"490013437W","lat":51.3256,"lon":-0.100088,"name":"The Kenley Hotel / Kenley Station","parentId":"490G000787","stationId":"490G000787","stopLetter":"N","topMostParentId":"490G000787"},{"icsId":"1009074","id":"490009074N","lat":51.32832,"lon":-0.106492,"name":"Legion House","parentId":"490G00009074","stationId":"490G00009074","stopLetter":"P","topMostParentId":"490G00009074"},{"icsId":"1012726","id":"490012726N","lat":51.330555,"lon":-0.108998,"name":"St James Road","parentId":"490G00012726","stationId":"490G00012726","stopLetter":"R","topMostParentId":"490G00012726"},{"icsId":"1013020","id":"490013020N","lat":51.333135,"lon":-0.11116,"name":"Sunnydene Road","parentId":"490G00013020","stationId":"490G00013020","stopLetter":"->N","topMostParentId":"490G00013020"},{"icsId":"1006975","id":"490006975NB","lat":51.335487,"lon":-0.113159,"name":"Foxley Hill Road","parentId":"490G00006975","stationId":"490G00006975","stopLetter":"Q","topMostParentId":"490G00006975"},{"icsId":"1011270","id":"490011274P","lat":51.337357,"lon":-0.116485,"name":"Purley High Street / Purley Station","parentId":"490G000715","stationId":"490G000715","stopLetter":"P","topMostParentId":"490G000715"},{"icsId":"1011259","id":"490011259D","lat":51.339168,"lon":-0.116109,"name":"Purley / Downlands Precinct","parentId":"490G00011259","stationId":"490G00011259","stopLetter":"D","topMostParentId":"490G00011259"},{"icsId":"1005236","id":"490005236N","lat":51.34067,"lon":-0.113363,"name":"Christchurch Road / Purley Hospital","parentId":"490G00005236","stationId":"490G00005236","stopLetter":"E","topMostParentId":"490G00005236"},{"icsId":"1010002","id":"490010002N","lat":51.342984,"lon":-0.109032,"name":"Montpelier Road","parentId":"490G00010002","stationId":"490G00010002","stopLetter":"F","topMostParentId":"490G00010002"},{"icsId":"1013543","id":"490013543N","lat":51.344433,"lon":-0.106316,"name":"Brighton Road / Purley Downs Road","parentId":"490G00013543","stationId":"490G00013543","stopLetter":"J","topMostParentId":"490G00013543"},{"icsId":"1003117","id":"490003117A","lat":51.347117,"lon":-0.10273,"name":"Biddulph Road","parentId":"490G00003117","stationId":"490G00003117","stopLetter":"GA","topMostParentId":"490G00003117"},{"icsId":"1013603","id":"490013603N","lat":51.348714,"lon":-0.101358,"name":"Purley Oaks Station","parentId":"490G00013603","stationId":"490G00013603","stopLetter":"GB","topMostParentId":"490G00013603"},{"icsId":"1011481","id":"490011481N","lat":51.352533,"lon":-0.098399,"name":"Sanderstead Road","parentId":"490G00011481","stationId":"490G00011481","stopLetter":"GC","topMostParentId":"490G00011481"},{"icsId":"1012272","id":"490012272N","lat":51.355222,"lon":-0.097857,"name":"South Croydon Bus Garage","parentId":"490G00012272","stationId":"490G00012272","stopLetter":"GD","topMostParentId":"490G00012272"},{"icsId":"1007670","id":"490007670N","lat":51.358504,"lon":-0.097865,"name":"Haling Park Road","parentId":"490G00007670","stationId":"490G00007670","stopLetter":"GE","topMostParentId":"490G00007670"},{"icsId":"1013920","id":"490013920N","lat":51.360567,"lon":-0.098095,"name":"Upland Road","parentId":"490G00013920","stationId":"490G00013920","stopLetter":"GF","topMostParentId":"490G00013920"},{"icsId":"1013100","id":"490013100G","lat":51.363236,"lon":-0.098545,"name":"Swan & Sugar Loaf","parentId":"490G00013100","stationId":"490G00013100","stopLetter":"G","topMostParentId":"490G00013100"},{"icsId":"1005574","id":"490005574V","lat":51.367247,"lon":-0.099083,"name":"Coombe Road","parentId":"490G00005574","stationId":"490G00005574","stopLetter":"V","topMostParentId":"490G00005574"},{"icsId":"1005855","id":"490005855C1","lat":51.370005,"lon":-0.100046,"name":"Croydon Flyover","parentId":"490G00005855","stationId":"490G00005855","stopLetter":"KS","topMostParentId":"490G00005855"},{"icsId":"1005858","id":"490005858C5","lat":51.372467,"lon":-0.099887,"name":"Croydon Library","parentId":"490G00005858","stationId":"490G00005858","stopLetter":"KK","topMostParentId":"490G00005858"},{"icsId":"1006706","id":"490006706C9","lat":51.373317,"lon":-0.096863,"name":"Fairfield Halls","parentId":"490G00006706","stationId":"490G00006706","stopLetter":"KD","topMostParentId":"490G00006706"},{"icsId":"1014614","id":"490014614E14","lat":51.376465,"lon":-0.098528,"name":"Whitgift Centre","parentId":"490G00014614","stationId":"490G00014614","stopLetter":"WM","topMostParentId":"490G00014614"},{"icsId":"1014420","id":"490014420X","lat":51.378915,"lon":-0.101559,"name":"West Croydon Bus Station","parentId":"490G000824","stationId":"490G000824","stopLetter":"B3","topMostParentId":"HUBWCY"},{"icsId":"1011806","id":"490011806W11","lat":51.376852,"lon":-0.103039,"name":"Ruskin Road","parentId":"490G00011806","stationId":"490G00011806","stopLetter":"CJ","topMostParentId":"490G00011806"},{"icsId":"1002023","id":"490002023W13","lat":51.374271,"lon":-0.104654,"name":"Church Street Tram Stop","parentId":"490G02023W13","stationId":"490G02023W13","stopLetter":"CL","topMostParentId":"940GZZCRCHR"},{"icsId":"1009410","id":"490009410W","lat":51.374548,"lon":-0.107875,"name":"Rectory Grove","parentId":"490G00009410","stationId":"490G00009410","topMostParentId":"490G00009410"},{"icsId":"1014111","id":"490014111S","lat":51.372253,"lon":-0.110025,"name":"Waddon New Road / Waddon Road","parentId":"490G00014111","stationId":"490G00014111","stopLetter":"D","topMostParentId":"490G00014111"},{"icsId":"1014043","id":"490014043A","lat":51.371608,"lon":-0.113543,"name":"Vicarage Rd / Wandle Park Tram Stop","parentId":"490G000811","stationId":"490G000811","stopLetter":"A","topMostParentId":"490G000811"},{"icsId":"1014110","id":"490014110S","lat":51.370604,"lon":-0.117061,"name":"Purley Way / Waddon Road","parentId":"490G00014110","stationId":"490G00014110","stopLetter":"SV","topMostParentId":"490G00014110"},{"icsId":"1011275","id":"490011275C","lat":51.36762,"lon":-0.119941,"name":"Purley Way / Waddon Station","parentId":"490G000717","stationId":"490G000717","stopLetter":"WQ","topMostParentId":"490G000717"},{"icsId":"1009010","id":"490009010W","lat":51.367583,"lon":-0.126077,"name":"Lavington Road","parentId":"490G00009010","stationId":"490G00009010","stopLetter":"K","topMostParentId":"490G00009010"},{"icsId":"1003769","id":"490003769W","lat":51.367595,"lon":-0.131349,"name":"Croydon Road / Plough Lane","parentId":"490G00003769","stationId":"490G00003769","stopLetter":"L","topMostParentId":"490G00003769"},{"icsId":"1005289","id":"490005289W","lat":51.369818,"lon":-0.141646,"name":"Church Road","parentId":"490G00005289","stationId":"490G00005289","stopLetter":"GT","topMostParentId":"490G00005289"},{"icsId":"1013422","id":"490013422W","lat":51.369555,"lon":-0.144343,"name":"The Holt","parentId":"490G00013422","stationId":"490G00013422","stopLetter":"GU","topMostParentId":"490G00013422"},{"icsId":"1014136","id":"490014136W","lat":51.368782,"lon":-0.14834,"name":"Wallington County Grammar School","parentId":"490G00014136","stationId":"490G00014136","stopLetter":"GV","topMostParentId":"490G00014136"},{"icsId":"1014137","id":"490014137W","lat":51.367528,"lon":-0.152614,"name":"Croydon Road / Wallington Green","parentId":"490G00014137","stationId":"490G00014137","stopLetter":"GW","topMostParentId":"490G00014137"},{"icsId":"1004821","id":"490004821E","lat":51.365587,"lon":-0.159559,"name":"Carshalton High Street","parentId":"490G00004821","stationId":"490G00004821","stopLetter":"E","topMostParentId":"490G00004821"},{"icsId":"1011153","id":"490011153W","lat":51.364111,"lon":-0.16637,"name":"Pound Street","parentId":"490G00011153","stationId":"490G00011153","stopLetter":"->W","topMostParentId":"490G00011153"},{"icsId":"1004708","id":"490004708W","lat":51.363063,"lon":-0.173551,"name":"Oxford Road","parentId":"490G000280","stationId":"490G000280","stopLetter":"->W","topMostParentId":"490G000280"},{"icsId":"1011585","id":"490011585W","lat":51.362855,"lon":-0.177495,"name":"Carshalton Road / Ringstead Road","parentId":"490G00011585","stationId":"490G00011585","stopLetter":"->W","topMostParentId":"490G00011585"},{"icsId":"1009180","id":"490009180W1","lat":51.362397,"lon":-0.186275,"name":"Lind Road","parentId":"490G00009180","stationId":"490G00009180","stopLetter":"->W","topMostParentId":"490G00009180"},{"icsId":"1015833","id":"490015833S","lat":51.36127,"lon":-0.189538,"name":"Chalk Pit Way","parentId":"490G00015833","stationId":"490G00015833","stopLetter":"AA","topMostParentId":"490G00015833"},{"icsId":"1013082","id":"490013082R","lat":51.360058,"lon":-0.192602,"name":"Sutton Post Office","parentId":"490G00013082","stationId":"490G00013082","stopLetter":"R","topMostParentId":"490G00013082"},{"icsId":"1013064","id":"490013064V","lat":51.361913,"lon":-0.194497,"name":"Sutton Civic Centre","parentId":"490G00013064","stationId":"490G00013064","stopLetter":"V","topMostParentId":"490G00013064"},{"icsId":"1011856","id":"490011856W","lat":51.365479,"lon":-0.195405,"name":"St Nicholas Centre","parentId":"490G00011856","stationId":"490G00011856","stopLetter":"W","topMostParentId":"490G00011856"},{"icsId":"1013061","id":"490013061D","lat":51.367812,"lon":-0.193891,"name":"Sutton / Marshall's Road","parentId":"490G00013061","stationId":"490G00013061","stopLetter":"D","topMostParentId":"490G00013061"}]}]}