{"direction":"inbound","lineId":"414","lineName":"414","mode":"bus","stopPointSequences":[{"stopPoint":[{"icsId":"1005188","id":"490013297E","lat":51.527456,"lon":-0.196231,"name":"Chippenham Road","parentId":"490G00005188","stationId":"490G00005188","stopLetter":"ME","topMostParentId":"490G00005188"},{"icsId":"1006471","id":"490006471E","lat":51.526308,"lon":-0.192888,"name":"Elgin Avenue","parentId":"490G00006471","stationId":"490G00006471","stopLetter":"MF","topMostParentId":"490G00006471"},{"icsId":"1004990","id":"490004990E","lat":51.523996,"lon":-0.188165,"name":"Charfield Court","parentId":"490G00004990","stationId":"490G00004990","stopLetter":"MH","topMostParentId":"490G00004990"},{"icsId":"1000253","id":"490000253K","lat":51.523691,"lon":-0.183579,"name":"Warwick Avenue Station","parentId":"490G00253H","stationId":"490G00253H","stopLetter":"K","topMostParentId":"940GZZLUWKA","zone":"2"},{"icsId":"1005427","id":"490005427E","lat":51.525858,"lon":-0.178894,"name":"Clifton Road","parentId":"490G00005427","stationId":"490G00005427","stopLetter":"M","topMostParentId":"490G00005427"},{"icsId":"1010621","id":"490010621S","lat":51.523422,"lon":-0.174926,"name":"Orchardson Street","parentId":"490G00010621","stationId":"490G00010621","stopLetter":"EA","topMostParentId":"490G00010621"},{"icsId":"1015285","id":"490015285S","lat":51.5224,"lon":-0.173381,"name":"Church Street Market","parentId":"490G00015285","stationId":"490G00015285","stopLetter":"EB","topMostParentId":"490G00015285"},{"icsId":"1000071","id":"490006428D","lat":51.520625,"lon":-0.170872,"name":"Edgware Road Station","parentId":"490G00071E","stationId":"490G00071E","stopLetter":"EC","topMostParentId":"940GZZLUERB","zone":"1"},{"icsId":"1013046","id":"490013046M","lat":51.518951,"lon":-0.168489,"name":"Edgware Road / Praed Street","parentId":"490G000776","stationId":"490G000776","stopLetter":"ED","topMostParentId":"490G000776"},{"icsId":"1007167","id":"490007167V","lat":51.51631,"lon":-0.164645,"name":"George Street","parentId":"490G00007167","stationId":"490G00007167","stopLetter":"EH","topMostParentId":"490G00007167"},{"icsId":"1008450","id":"490000144H","lat":51.513517,"lon":-0.16029,"name":"Marble Arch Station  / Edgware Road","parentId":"490G00008450","stationId":"490G00008450","stopLetter":"H","topMostParentId":"490G00008450"},{"icsId":"1000399","id":"490000144R","lat":51.512308,"lon":-0.157744,"name":"Marble Arch Station  / Park Lane","parentId":"490G00000399","stationId":"490G00000399","stopLetter":"R","topMostParentId":"490G00000399"},{"icsId":"1006111","id":"490006111S1","lat":51.50842,"lon":-0.154097,"name":"Dorchester Hotel","parentId":"490G00006111","stationId":"490G00006111","stopLetter":"S","topMostParentId":"490G00006111"},{"icsId":"1009277","id":"490009277S","lat":51.50574,"lon":-0.151237,"name":"London Hilton Hotel","parentId":"490G00009277","stationId":"490G00009277","stopLetter":"A","topMostParentId":"490G00009277"},{"icsId":"1000119","id":"490000119N","lat":51.502709,"lon":-0.153449,"name":"Hyde Park Corner Station","parentId":"490G00119A","stationId":"490G00119A","stopLetter":"N","topMostParentId":"940GZZLUHPC","zone":"1"},{"icsId":"1007853","id":"490000130KC","lat":51.500358,"lon":-0.16239,"name":"Knightsbridge Station  / Harrods","parentId":"490G000575","stationId":"490G000575","stopLetter":"KC","topMostParentId":"490G000575"},{"icsId":"1004437","id":"490004437W","lat":51.497435,"lon":-0.167493,"name":"Brompton Square","parentId":"490G00004437","stationId":"490G00004437","stopLetter":"KU","topMostParentId":"490G00004437"},{"icsId":"1004436","id":"490004436F","lat":51.496347,"lon":-0.169841,"name":"Victoria and Albert Museum","parentId":"490G00004436","stationId":"490G00004436","stopLetter":"N","topMostParentId":"490G00004436"},{"icsId":"1000212","id":"490000212S1","lat":51.494425,"lon":-0.174586,"name":"South Kensington Station","parentId":"490G00212G","stationId":"490G00212G","stopLetter":"T","topMostParentId":"940GZZLUSKS","zone":"1"},{"icsId":"1010603","id":"490010603S","lat":51.492409,"lon":-0.172203,"name":"Onslow Square","parentId":"490G00010603","stationId":"490G00010603","stopLetter":"HV","topMostParentId":"490G00010603"},{"icsId":"1015421","id":"490015421S","lat":51.49037,"lon":-0.174056,"name":"Royal Brompton Hosp / Royal Marsden Hosp","parentId":"490G00015421","stationId":"490G00015421","stopLetter":"HP","topMostParentId":"490G00015421"},{"icsId":"1006514","id":"490006514S","lat":51.488699,"lon":-0.176486,"name":"Old Church Street","parentId":"490G00006514","stationId":"490G00006514","stopLetter":"HQ","topMostParentId":"490G00006514"},{"icsId":"1003726","id":"490003726W2","lat":51.487286,"lon":-0.178702,"name":"Fulham Road / Beaufort Street","parentId":"490G00003726","stationId":"490G00003726","stopLetter":"HR","topMostParentId":"490G00003726"},{"icsId":"1005062","id":"490005062HA","lat":51.485383,"lon":-0.181817,"name":"Chelsea and Westminster Hospital","parentId":"490G00005062","stationId":"490G00005062","stopLetter":"HA","topMostParentId":"490G00005062"},{"icsId":"1006437","id":"490006437HB","lat":51.484378,"lon":-0.183715,"name":"Edith Grove","parentId":"490G00006437","stationId":"490G00006437","stopLetter":"HB","topMostParentId":"490G00006437"},{"icsId":"1008380","id":"490008380HC","lat":51.482506,"lon":-0.186512,"name":"Hortensia Road","parentId":"490G00008380","stationId":"490G00008380","stopLetter":"HC","topMostParentId":"490G00008380"},{"icsId":"1005069","id":"490005069W","lat":51.480068,"lon":-0.18995,"name":"Chelsea Football Club","parentId":"490G00005069","stationId":"490G00005069","stopLetter":"W","topMostParentId":"490G00005069"},{"icsId":"1000084","id":"490000084M","lat":51.480025,"lon":-0.194704,"name":"Fulham Broadway Station","parentId":"490G00084L","stationId":"490G00084L","stopLetter":"M","topMostParentId":"940GZZLUFBY","zone":"2"},{"icsId":"1000352","id":"490008547F","lat":51.480385,"lon":-0.197656,"name":"Fulham Broadway","parentId":"490G00000352","stationId":"490G00000352","stopLetter":"F","topMostParentId":"490G00000352"},{"icsId":"1010861","id":"490010861V","lat":51.477011,"lon":-0.202268,"name":"Parsons Green Lane / Fulham Library","parentId":"490G000699","stationId":"490G000699","stopLetter":"V","topMostParentId":"490G000699"},{"icsId":"1011385","id":"490011385W","lat":51.475853,"lon":-0.205337,"name":"Radipole Road","parentId":"490G00011385","stationId":"490G00011385","topMostParentId":"490G00011385"},{"icsId":"1010123","id":"490010123W2","lat":51.473675,"lon":-0.207568,"name":"Munster Road","parentId":"490G00010123","stationId":"490G00010123","stopLetter":"FS","topMostParentId":"490G00010123"},{"icsId":"1007054","id":"490007054W","lat":51.472114,"lon":-0.210135,"name":"Fulham Palace Road","parentId":"490G00007054","stationId":"490G00007054","stopLetter":"FT","topMostParentId":"490G00007054"},{"icsId":"1007051","id":"490007051S","lat":51.470229,"lon":-0.210396,"name":"Fulham High Street / New Kings Road","parentId":"490G00007051","stationId":"490G00007051","stopLetter":"FU","topMostParentId":"490G00007051"},{"icsId":"1000184","id":"490007281E","lat":51.468455,"lon":-0.210782,"name":"Putney Bridge Station","parentId":"490G07281E","stationId":"490G07281E","stopLetter":"AP","topMostParentId":"940GZZLUPYB","zone":"2"}]}]}