{"direction":"inbound","lineId":"425","lineName":"425","mode":"bus","stopPointSequences":[{"stopPoint":[{"icsId":"1010280","id":"490010280N","lat":51.558713,"lon":-0.059804,"name":"Nightingale Road","parentId":"490G00010280","stationId":"490G00010280","stopLetter":"N","topMostParentId":"490G00010280"},{"icsId":"1009035","id":"490004459B","lat":51.559336,"lon":-0.056127,"name":"Lea Bridge Roundabout","parentId":"490G00009035","stationId":"490G00009035","stopLetter":"B","topMostParentId":"490G00009035"},{"icsId":"1005340","id":"490009035E","lat":51.556802,"lon":-0.055687,"name":"Clapton Pond","parentId":"490G00005340","stationId":"490G00005340","stopLetter":"E","topMostParentId":"490G00005340"},{"icsId":"1009896","id":"490009896G","lat":51.554975,"lon":-0.05451,"name":"Millfields Road","parentId":"490G00009896","stationId":"490G00009896","stopLetter":"G","topMostParentId":"490G00009896"},{"icsId":"1009195","id":"490009195S","lat":51.553289,"lon":-0.053154,"name":"Clapton Girls' Academy","parentId":"490G00009195","stationId":"490G00009195","stopLetter":"M","topMostParentId":"490G00009195"},{"icsId":"1009418","id":"490009411X","lat":51.550097,"lon":-0.051026,"name":"Jack Dunning Estate","parentId":"490G00009418","stationId":"490G00009418","stopLetter":"X","topMostParentId":"490G00009418"},{"icsId":"1008501","id":"490008501P","lat":51.549156,"lon":-0.050662,"name":"The City Academy","parentId":"490G00008501","stationId":"490G00008501","stopLetter":"P","topMostParentId":"490G00008501"},{"icsId":"1006795","id":"490006795C","lat":51.54837,"lon":-0.047205,"name":"Fenn Street","parentId":"490G00006795","stationId":"490G00006795","stopLetter":"C","topMostParentId":"490G00006795"},{"icsId":"1019143","id":"490008327D","lat":51.549313,"lon":-0.047122,"name":"Homerton Hospital / Homerton Row","parentId":"490G00019143","stationId":"490G00019143","stopLetter":"D","topMostParentId":"490G00019143"},{"icsId":"1016762","id":"490008327E","lat":51.549828,"lon":-0.044604,"name":"Homerton Hospital / Wardle Street","parentId":"490G00016762","stationId":"490G00016762","stopLetter":"E","topMostParentId":"490G00016762"},{"icsId":"1003044","id":"490003044B","lat":51.547956,"lon":-0.046632,"name":"Homerton High Street","parentId":"490G00003044","stationId":"490G00003044","stopLetter":"B","topMostParentId":"490G00003044"},{"icsId":"1010039","id":"490010039S","lat":51.546602,"lon":-0.046921,"name":"Ponsford Street","parentId":"490G00010039","stationId":"490G00010039","stopLetter":"A","topMostParentId":"490G00010039"},{"icsId":"1013987","id":"490013987W","lat":51.543562,"lon":-0.046849,"name":"Valentine Road","parentId":"490G00013987","stationId":"490G00013987","stopLetter":"M","topMostParentId":"490G00013987"},{"icsId":"1014374","id":"490013198N","lat":51.54153,"lon":-0.047412,"name":"Terrace Road","parentId":"490G00014374","stationId":"490G00014374","stopLetter":"T","topMostParentId":"490G00014374"},{"icsId":"1007535","id":"490007535S","lat":51.540976,"lon":-0.046022,"name":"Church Crescent","parentId":"490G00007535","stationId":"490G00007535","stopLetter":"X","topMostParentId":"490G00007535"},{"icsId":"1012259","id":"490012255S","lat":51.539095,"lon":-0.045382,"name":"Penshurst Road","parentId":"490G00012259","stationId":"490G00012259","stopLetter":"W","topMostParentId":"490G00012259"},{"icsId":"1011823","id":"490011823S","lat":51.537139,"lon":-0.044557,"name":"Victoria Park Road","parentId":"490G00011823","stationId":"490G00011823","stopLetter":"V","topMostParentId":"490G00011823"},{"icsId":"1006025","id":"490010554S1","lat":51.533739,"lon":-0.041848,"name":"Victoria Park","parentId":"490G00006025","stationId":"490G00006025","stopLetter":"W","topMostParentId":"490G00006025"},{"icsId":"1011653","id":"490011653S","lat":51.531415,"lon":-0.040491,"name":"Roman Road","parentId":"490G00011653","stationId":"490G00011653","stopLetter":"X","topMostParentId":"490G00011653"},{"icsId":"1012633","id":"490012633S","lat":51.530285,"lon":-0.039632,"name":"St Barnabas Church","parentId":"490G00012633","stationId":"490G00012633","stopLetter":"Y","topMostParentId":"490G00012633"},{"icsId":"1003352","id":"490003352S","lat":51.528823,"lon":-0.038224,"name":"Arbery Road","parentId":"490G00003352","stationId":"490G00003352","stopLetter":"Z","topMostParentId":"490G00003352"},{"icsId":"1013517","id":"490013517S","lat":51.527147,"lon":-0.036422,"name":"Lichfield Road","parentId":"490G00013517","stationId":"490G00013517","stopLetter":"->S","topMostParentId":"490G00013517"},{"icsId":"1015151","id":"490015151H","lat":51.525876,"lon":-0.035136,"name":"Mile End Station / Bow Road","parentId":"490G000862","stationId":"490G000862","stopLetter":"H","topMostParentId":"490G000862"},{"icsId":"1000146","id":"490000146D","lat":51.52537,"lon":-0.033918,"name":"Mile End Station","parentId":"490G00146C","stationId":"490G00146C","stopLetter":"D","topMostParentId":"940GZZLUMED","zone":"2"},{"icsId":"1012648","id":"490012648L","lat":51.526388,"lon":-0.029203,"name":"Coborn Road","parentId":"490G00012648","stationId":"490G00012648","stopLetter":"L","topMostParentId":"490G00012648"},{"icsId":"1000029","id":"490000029Q","lat":51.527018,"lon":-0.026033,"name":"Bow Road Station","parentId":"490G00029Q","stationId":"490G00029Q","stopLetter":"Y","topMostParentId":"940GZZLUBWR","zone":"2"},{"icsId":"1002019","id":"490002019A","lat":51.528149,"lon":-0.020621,"name":"Bow Church Station","parentId":"490G02019A","stationId":"490G02019A","stopLetter":"A","topMostParentId":"940GZZDLBOW","zone":"2"},{"icsId":"1004206","id":"490004215M","lat":51.52895,"lon":-0.016881,"name":"Bow Church","parentId":"490G000421","stationId":"490G000421","stopLetter":"M","topMostParentId":"490G000421"},{"icsId":"1009695","id":"490009695MA","lat":51.531281,"lon":-0.0112,"name":"Marshgate Lane","parentId":"490G000661","stationId":"490G000661","stopLetter":"W","topMostParentId":"490G000661"},{"icsId":"1014249","id":"490003025E","lat":51.534656,"lon":-0.006554,"name":"Warton Road","parentId":"490G00014249","stationId":"490G00014249","stopLetter":"M","topMostParentId":"490G00014249"},{"icsId":"1014215","id":"490014215N","lat":51.536891,"lon":-0.003659,"name":"Stratford High St Stn  / Carpenters Rd","parentId":"490G00014215","stationId":"490G00014215","stopLetter":"N","topMostParentId":"490G00014215"},{"icsId":"1012904","id":"490012904B","lat":51.540954,"lon":-0.001981,"name":"Stratford Bus Station","parentId":"490G000773","stationId":"490G000773","stopLetter":"B","topMostParentId":"HUBSRA"},{"icsId":"1012906","id":"490015114G","lat":51.540793,"lon":0.001098,"name":"Stratford Centre","parentId":"490G00012906","stationId":"490G00012906","stopLetter":"G","topMostParentId":"490G00012906"},{"icsId":"1013480","id":"490013480E","lat":51.542337,"lon":0.004987,"name":"Litchfield Avenue","parentId":"490G00013480","stationId":"490G00013480","stopLetter":"MJ","topMostParentId":"490G00013480"},{"icsId":"1014269","id":"490014269E","lat":51.542661,"lon":0.008607,"name":"Water Lane / University Of East London","parentId":"490G00014269","stationId":"490G00014269","stopLetter":"MK","topMostParentId":"490G00014269"},{"icsId":"1003468","id":"490003468E","lat":51.544428,"lon":0.015189,"name":"Atherton Leisure Centre","parentId":"490G00003468","stationId":"490G00003468","stopLetter":"->E","topMostParentId":"490G00003468"},{"icsId":"1006936","id":"490009563E","lat":51.545845,"lon":0.020631,"name":"Margery Park Road","parentId":"490G00006936","stationId":"490G00006936","stopLetter":"N","topMostParentId":"490G00006936"},{"icsId":"1006919","id":"490006917F","lat":51.546463,"lon":0.024409,"name":"Woodgrange Road","parentId":"490G00006919","stationId":"490G00006919","stopLetter":"F","topMostParentId":"490G00006919"},{"icsId":"1007497","id":"490007497E","lat":51.547098,"lon":0.031908,"name":"Green Street","parentId":"490G00007497","stationId":"490G00007497","stopLetter":"P","topMostParentId":"490G00007497"},{"icsId":"1008603","id":"490008603E","lat":51.547772,"lon":0.036582,"name":"Katherine Road","parentId":"490G00008603","stationId":"490G00008603","stopLetter":"->E","topMostParentId":"490G00008603"},{"icsId":"1012131","id":"490012131E","lat":51.548364,"lon":0.039811,"name":"Shrewsbury Road","parentId":"490G00012131","stationId":"490G00012131","stopLetter":"->E","topMostParentId":"490G00012131"},{"icsId":"1001341","id":"490001341H","lat":51.549195,"lon":0.04318,"name":"Woodgrange Park Station","parentId":"490G01341G","stationId":"490G01341G","stopLetter":"H","topMostParentId":"910GWDGRNPK"},{"icsId":"1008189","id":"490008189E","lat":51.55042,"lon":0.046711,"name":"High Street North","parentId":"490G000596","stationId":"490G000596","stopLetter":"E","topMostParentId":"490G000596"},{"icsId":"1006856","id":"490006856E","lat":51.55188,"lon":0.050657,"name":"First Avenue","parentId":"490G00006856","stationId":"490G00006856","stopLetter":"K","topMostParentId":"490G00006856"},{"icsId":"1009570","id":"490009570E","lat":51.552571,"lon":0.052808,"name":"Rabbits Road","parentId":"490G00009570","stationId":"490G00009570","stopLetter":"L","topMostParentId":"490G00009570"},{"icsId":"1012005","id":"490012005E","lat":51.553636,"lon":0.055655,"name":"Seventh Avenue","parentId":"490G00012005","stationId":"490G00012005","stopLetter":"M","topMostParentId":"490G00012005"},{"icsId":"1009219","id":"490009219E","lat":51.555088,"lon":0.060524,"name":"Little Ilford Lane","parentId":"490G00009219","stationId":"490G00009219","stopLetter":"N","topMostParentId":"490G00009219"},{"icsId":"1010328","id":"490010328E","lat":51.55601,"lon":0.063826,"name":"North Circular Road","parentId":"490G00010328","stationId":"490G00010328","stopLetter":"P","topMostParentId":"490G00010328"},{"icsId":"1008467","id":"490008467F","lat":51.55816,"lon":0.068915,"name":"Ilford Hill","parentId":"490G000605","stationId":"490G000605","stopLetter":"F","topMostParentId":"490G000605"},{"icsId":"1004985","id":"490004986P","lat":51.557696,"lon":0.070235,"name":"Chapel Road","parentId":"490G00004985","stationId":"490G00004985","stopLetter":"P","topMostParentId":"490G00004985"},{"icsId":"1008466","id":"490008466R","lat":51.558154,"lon":0.074353,"name":"Redbridge Central Library","parentId":"490G00008466","stationId":"490G00008466","stopLetter":"R","topMostParentId":"490G00008466"},{"icsId":"1007657","id":"490007657S","lat":51.559592,"lon":0.07589,"name":"Hainault Street","parentId":"490G00007657","stationId":"490G00007657","stopLetter":"S","topMostParentId":"490G00007657"}]}]}