{"direction":"inbound","lineId":"432","lineName":"432","mode":"bus","stopPointSequences":[{"stopPoint":[{"icsId":"1001007","id":"490001007AD","lat":51.412022,"lon":-0.065561,"name":"Anerley Station","parentId":"490G01007E","stationId":"490G01007E","stopLetter":"F","topMostParentId":"910GANERLEY"},{"icsId":"1018975","id":"490001007AB","lat":51.41189,"lon":-0.066832,"name":"Anerley Road / Anerley Station","parentId":"490G00018975","stationId":"490G00018975","stopLetter":"H","topMostParentId":"490G00018975"},{"icsId":"1003319","id":"490003319N","lat":51.413253,"lon":-0.068773,"name":"Anerley Park","parentId":"490G00003319","stationId":"490G00003319","stopLetter":"J","topMostParentId":"490G00003319"},{"icsId":"1013610","id":"490013610N1","lat":51.414375,"lon":-0.070293,"name":"Thicket Road","parentId":"490G00013610","stationId":"490G00013610","stopLetter":"K","topMostParentId":"490G00013610"},{"icsId":"1001078","id":"490001078P","lat":51.41729,"lon":-0.073665,"name":"Crystal Palace Station","parentId":"490G01078M","stationId":"490G01078M","stopLetter":"P","topMostParentId":"HUBCYP"},{"icsId":"1005870","id":"490005870F","lat":51.419774,"lon":-0.077588,"name":"Anerley Hill / Crystal Palace","parentId":"490G00005870","stationId":"490G00005870","stopLetter":"F","topMostParentId":"490G00005870"},{"icsId":"1014510","id":"490014510G","lat":51.419021,"lon":-0.079389,"name":"Westow Hill","parentId":"490G00014510","stationId":"490G00014510","stopLetter":"G","topMostParentId":"490G00014510"},{"icsId":"1015491","id":"490015491H","lat":51.417843,"lon":-0.082171,"name":"Westow Street","parentId":"490G00015491","stationId":"490G00015491","stopLetter":"H","topMostParentId":"490G00015491"},{"icsId":"1007191","id":"490007191L","lat":51.419385,"lon":-0.084594,"name":"Gipsy Hill Police Station","parentId":"490G00007191","stationId":"490G00007191","stopLetter":"L","topMostParentId":"490G00007191"},{"icsId":"1015346","id":"490015346N","lat":51.420309,"lon":-0.088871,"name":"Rockmount Road","parentId":"490G00015346","stationId":"490G00015346","stopLetter":"->N","topMostParentId":"490G00015346"},{"icsId":"1015338","id":"490015338N","lat":51.421645,"lon":-0.091389,"name":"Hermitage Road","parentId":"490G00015338","stationId":"490G00015338","stopLetter":"H","topMostParentId":"490G00015338"},{"icsId":"1011876","id":"490011876W","lat":51.422758,"lon":-0.094608,"name":"Salter's Hill","parentId":"490G00011876","stationId":"490G00011876","stopLetter":"J","topMostParentId":"490G00011876"},{"icsId":"1010449","id":"490010449N","lat":51.424063,"lon":-0.097963,"name":"Norwood Park","parentId":"490G00010449","stationId":"490G00010449","stopLetter":"K","topMostParentId":"490G00010449"},{"icsId":"1007193","id":"490007193N","lat":51.427296,"lon":-0.099958,"name":"Gipsy Road","parentId":"490G00007193","stationId":"490G00007193","stopLetter":"L","topMostParentId":"490G00007193"},{"icsId":"1010444","id":"490010444W","lat":51.429522,"lon":-0.103548,"name":"Norwood Bus Garage","parentId":"490G00010444","stationId":"490G00010444","stopLetter":"U","topMostParentId":"490G00010444"},{"icsId":"1012754","id":"490012754N","lat":51.430156,"lon":-0.104414,"name":"St Julian's Farm Road","parentId":"490G00012754","stationId":"490G00012754","stopLetter":"Y","topMostParentId":"490G00012754"},{"icsId":"1001331","id":"490001331W","lat":51.432222,"lon":-0.104227,"name":"West Norwood Station","parentId":"490G01331T","stationId":"490G01331T","stopLetter":"W","topMostParentId":"910GWNORWOD"},{"icsId":"1013670","id":"490013655N","lat":51.434077,"lon":-0.103849,"name":"Norwood Road / Robson Road","parentId":"490G00013670","stationId":"490G00013670","stopLetter":"N","topMostParentId":"490G00013670"},{"icsId":"1008927","id":"490008927K","lat":51.436591,"lon":-0.105255,"name":"Lancaster Avenue","parentId":"490G00008927","stationId":"490G00008927","stopLetter":"K","topMostParentId":"490G00008927"},{"icsId":"1001298","id":"490001298E","lat":51.440181,"lon":-0.107639,"name":"Tulse Hill Station","parentId":"490G01298G","stationId":"490G01298G","stopLetter":"E","topMostParentId":"910GTULSEH"},{"icsId":"1007778","id":"490007778D","lat":51.441266,"lon":-0.108558,"name":"Hardel Rise","parentId":"490G000571","stationId":"490G000571","stopLetter":"D","topMostParentId":"490G000571"},{"icsId":"1008194","id":"490008194N","lat":51.44297,"lon":-0.109927,"name":"High Trees","parentId":"490G00008194","stationId":"490G00008194","stopLetter":"H","topMostParentId":"490G00008194"},{"icsId":"1013950","id":"490013950N","lat":51.445342,"lon":-0.112045,"name":"Upper Tulse Hill","parentId":"490G00013950","stationId":"490G00013950","stopLetter":"J","topMostParentId":"490G00013950"},{"icsId":"1005366","id":"490006080N","lat":51.448975,"lon":-0.113133,"name":"Craignair Road","parentId":"490G00005366","stationId":"490G00005366","stopLetter":"K","topMostParentId":"490G00005366"},{"icsId":"1004401","id":"490004401N","lat":51.451333,"lon":-0.113237,"name":"Jubilee Primary School","parentId":"490G00004401","stationId":"490G00004401","stopLetter":"L","topMostParentId":"490G00004401"},{"icsId":"1015275","id":"490015275N2","lat":51.454583,"lon":-0.113506,"name":"Brixton Water Lane","parentId":"490G00015275","stationId":"490G00015275","stopLetter":"M","topMostParentId":"490G00015275"},{"icsId":"1005847","id":"490005847N","lat":51.456612,"lon":-0.114401,"name":"Morval Road","parentId":"490G00005847","stationId":"490G00005847","stopLetter":"N","topMostParentId":"490G00005847"},{"icsId":"1012810","id":"490012810N","lat":51.458349,"lon":-0.115078,"name":"St Matthews Estate","parentId":"490G00012810","stationId":"490G00012810","stopLetter":"P","topMostParentId":"490G00012810"},{"icsId":"1008919","id":"490008919W","lat":51.460335,"lon":-0.116638,"name":"Lambeth Town Hall","parentId":"490G000627","stationId":"490G000627","stopLetter":"W","topMostParentId":"490G000627"},{"icsId":"1000031","id":"490000031T","lat":51.461969,"lon":-0.115375,"name":"Brixton Station","parentId":"490G00031N","stationId":"490G00031N","stopLetter":"T","topMostParentId":"HUBBRX","zone":"2"}]}]}