{"direction":"inbound","lineId":"440","lineName":"440","mode":"bus","stopPointSequences":[{"stopPoint":[{"icsId":"1000224","id":"490000224A","lat":51.544029,"lon":-0.27511,"name":"Stonebridge Park Station","parentId":"490G00224L","stationId":"490G00224L","stopLetter":"A","topMostParentId":"HUBSBP","zone":"3"},{"icsId":"1003914","id":"490003914S","lat":51.540669,"lon":-0.277819,"name":"Beresford Avenue","parentId":"490G00003914","stationId":"490G00003914","stopLetter":"S","topMostParentId":"490G00003914"},{"icsId":"1013831","id":"490013831S","lat":51.536576,"lon":-0.275277,"name":"Tudor Estate","parentId":"490G00013831","stationId":"490G00013831","stopLetter":"->S","topMostParentId":"490G00013831"},{"icsId":"1003031","id":"490003031S","lat":51.534115,"lon":-0.274808,"name":"Commercial Way","parentId":"490G00003031","stationId":"490G00003031","stopLetter":"->S","topMostParentId":"490G00003031"},{"icsId":"1014571","id":"490014571S","lat":51.532988,"lon":-0.274619,"name":"Whitby Avenue","parentId":"490G00014571","stationId":"490G00014571","topMostParentId":"490G00014571"},{"icsId":"1005896","id":"490005896S","lat":51.531451,"lon":-0.271621,"name":"Cumberland Avenue","parentId":"490G00005896","stationId":"490G00005896","stopLetter":"P","topMostParentId":"490G00005896"},{"icsId":"1004925","id":"490004925C","lat":51.530666,"lon":-0.268421,"name":"Central Middlesex Hospital","parentId":"490G00004925","stationId":"490G00004925","stopLetter":"C","topMostParentId":"490G00004925"},{"icsId":"1015414","id":"490015414F1","lat":51.528237,"lon":-0.269523,"name":"Park Royal Asda / Western Road","parentId":"490G00015414","stationId":"490G00015414","stopLetter":"K","topMostParentId":"490G00015414"},{"icsId":"1009938","id":"490009938E","lat":51.529276,"lon":-0.263817,"name":"Minerva Road","parentId":"490G00009938","stationId":"490G00009938","stopLetter":"X","topMostParentId":"490G00009938"},{"icsId":"1005905","id":"490005905S","lat":51.529121,"lon":-0.259426,"name":"Cunard Road","parentId":"490G00005905","stationId":"490G00005905","stopLetter":"PC","topMostParentId":"490G00005905"},{"icsId":"1013003","id":"490013003S","lat":51.526589,"lon":-0.259652,"name":"Sunbeam Road","parentId":"490G00013003","stationId":"490G00013003","stopLetter":"PD","topMostParentId":"490G00013003"},{"icsId":"1000157","id":"490000157V","lat":51.522869,"lon":-0.259261,"name":"North Acton Station","parentId":"490G00157V","stationId":"490G00157V","stopLetter":"Z","topMostParentId":"940GZZLUNAN","zone":"2+3"},{"icsId":"1015032","id":"490014130C","lat":51.521201,"lon":-0.260161,"name":"Wales Farm Road","parentId":"490G000847","stationId":"490G000847","stopLetter":"C","topMostParentId":"490G000847"},{"icsId":"1007188","id":"490015319D","lat":51.519622,"lon":-0.263421,"name":"Gypsy Corner","parentId":"490G00007188","stationId":"490G00007188","stopLetter":"D","topMostParentId":"490G00007188"},{"icsId":"1012688","id":"490012688M","lat":51.519514,"lon":-0.2671,"name":"St Gabriel's Church","parentId":"490G00012688","stationId":"490G00012688","stopLetter":"M","topMostParentId":"490G00012688"},{"icsId":"1005443","id":"490005443N","lat":51.520242,"lon":-0.268889,"name":"Cloister Road","parentId":"490G00005443","stationId":"490G00005443","stopLetter":"->N","topMostParentId":"490G00005443"},{"icsId":"1005676","id":"490005676N","lat":51.522095,"lon":-0.269554,"name":"Court Way","parentId":"490G00005676","stationId":"490G00005676","topMostParentId":"490G00005676"},{"icsId":"1010368","id":"490010368S","lat":51.522368,"lon":-0.271605,"name":"Northfields Road","parentId":"490G00010368","stationId":"490G00010368","stopLetter":"->W","topMostParentId":"490G00010368"},{"icsId":"1014179","id":"490014179S","lat":51.52064,"lon":-0.272722,"name":"Walton Way","parentId":"490G00014179","stationId":"490G00014179","topMostParentId":"490G00014179"},{"icsId":"1010292","id":"490010292S","lat":51.519992,"lon":-0.272689,"name":"Noel Road","parentId":"490G00010292","stationId":"490G00010292","stopLetter":"->S","topMostParentId":"490G00010292"},{"icsId":"1015800","id":"490010292W","lat":51.518766,"lon":-0.273053,"name":"Norman Way","parentId":"490G00015800","stationId":"490G00015800","stopLetter":"->W","topMostParentId":"490G00015800"},{"icsId":"1000258","id":"490000258B","lat":51.516952,"lon":-0.281221,"name":"West Acton Station","parentId":"490G00258B","stationId":"490G00258B","stopLetter":"EB","topMostParentId":"940GZZLUWTA","zone":"3"},{"icsId":"1009481","id":"490009481S","lat":51.514208,"lon":-0.282305,"name":"Lynton Road","parentId":"490G00009481","stationId":"490G00009481","stopLetter":"EC","topMostParentId":"490G00009481"},{"icsId":"1009031","id":"490009031S","lat":51.511555,"lon":-0.281698,"name":"Layer Gardens","parentId":"490G00009031","stationId":"490G00009031","stopLetter":"EZ","topMostParentId":"490G00009031"},{"icsId":"1013882","id":"490013882S","lat":51.509154,"lon":-0.281097,"name":"Twyford Crescent","parentId":"490G00013882","stationId":"490G00013882","stopLetter":"EG","topMostParentId":"490G00013882"},{"icsId":"1003089","id":"490003089B","lat":51.508434,"lon":-0.277348,"name":"Denehurst Gardens","parentId":"490G00003089","stationId":"490G00003089","stopLetter":"B","topMostParentId":"490G00003089"},{"icsId":"1008835","id":"490008835D","lat":51.507895,"lon":-0.273103,"name":"King Street","parentId":"490G00008835","stationId":"490G00008835","stopLetter":"D","topMostParentId":"490G00008835"},{"icsId":"1003083","id":"490003083F","lat":51.506747,"lon":-0.267253,"name":"Acton Old Town Hall","parentId":"490G00003083","stationId":"490G00003083","stopLetter":"F","topMostParentId":"490G00003083"},{"icsId":"1010972","id":"490010968V","lat":51.503988,"lon":-0.266738,"name":"Petersfield Road","parentId":"490G00010972","stationId":"490G00010972","stopLetter":"V","topMostParentId":"490G00010972"},{"icsId":"1003267","id":"490003267W","lat":51.502037,"lon":-0.269161,"name":"Newton Avenue","parentId":"490G00003267","stationId":"490G00003267","stopLetter":"J","topMostParentId":"490G00003267"},{"icsId":"1010741","id":"490010741W","lat":51.501323,"lon":-0.273193,"name":"Stanley Road","parentId":"490G00010741","stationId":"490G00010741","stopLetter":"K","topMostParentId":"490G00010741"},{"icsId":"1015591","id":"490015591W","lat":51.500743,"lon":-0.276615,"name":"Hanbury Road","parentId":"490G00015591","stationId":"490G00015591","stopLetter":"L","topMostParentId":"490G00015591"},{"icsId":"1011708","id":"490011708S","lat":51.499344,"lon":-0.276222,"name":"Roslin Road","parentId":"490G00011708","stationId":"490G00011708","stopLetter":"M","topMostParentId":"490G00011708"},{"icsId":"1015590","id":"490015590S","lat":51.498743,"lon":-0.275077,"name":"Colville Road","parentId":"490G00015590","stationId":"490G00015590","stopLetter":"N","topMostParentId":"490G00015590"},{"icsId":"1015579","id":"490015579S","lat":51.498152,"lon":-0.273472,"name":"Stanhope Way / Acton Works","parentId":"490G00015579","stationId":"490G00015579","stopLetter":"P","topMostParentId":"490G00015579"},{"icsId":"1020107","id":"490020107S","lat":51.49613,"lon":-0.272943,"name":"Chiswick Business Park","parentId":"490G00020107","stationId":"490G00020107","stopLetter":"->S","topMostParentId":"490G00020107"},{"icsId":"1010687","id":"490010687F","lat":51.491738,"lon":-0.278194,"name":"Oxford Road North","parentId":"490G00010687","stationId":"490G00010687","stopLetter":"F","topMostParentId":"490G00010687"},{"icsId":"1015030","id":"490015030E","lat":51.490502,"lon":-0.27729,"name":"Oxford Court","parentId":"490G00015030","stationId":"490G00015030","stopLetter":"E","topMostParentId":"490G00015030"},{"icsId":"1000094","id":"490000094C","lat":51.490592,"lon":-0.274261,"name":"Gunnersbury Station","parentId":"490G00094C","stationId":"490G00094C","stopLetter":"C","topMostParentId":"HUBGUN","zone":"3"},{"icsId":"1013077","id":"490013077E","lat":51.490885,"lon":-0.270318,"name":"Marlborough Road","parentId":"490G00013077","stationId":"490G00013077","stopLetter":"W","topMostParentId":"490G00013077"},{"icsId":"1013848","id":"490013848TT","lat":51.492361,"lon":-0.264298,"name":"Turnham Green Church","parentId":"490G000807","stationId":"490G000807","stopLetter":"TT","topMostParentId":"490G000807"}]}]}