{"direction":"inbound","lineId":"444","lineName":"444","mode":"bus","stopPointSequences":[{"stopPoint":[{"icsId":"1001063","id":"490001063B","lat":51.633453,"lon":0.010549,"name":"Chingford Station","parentId":"490G01063B","stationId":"490G01063B","stopLetter":"B","topMostParentId":"910GCHINGFD"},{"icsId":"1012617","id":"490012617E","lat":51.633036,"lon":0.008652,"name":"Station Road / Chingford Station","parentId":"490G000764","stationId":"490G000764","stopLetter":"E","topMostParentId":"490G000764"},{"icsId":"1012558","id":"490012558G","lat":51.631782,"lon":0.005215,"name":"Stanley Road","parentId":"490G00012558","stationId":"490G00012558","stopLetter":"G","topMostParentId":"490G00012558"},{"icsId":"1012619","id":"490012619K","lat":51.630813,"lon":0.001907,"name":"Station Road / The Green","parentId":"490G00012619","stationId":"490G00012619","stopLetter":"K","topMostParentId":"490G00012619"},{"icsId":"1005183","id":"490005183E","lat":51.628806,"lon":0.003076,"name":"Balgonie Road","parentId":"490G00005183","stationId":"490G00005183","stopLetter":"GA","topMostParentId":"490G00005183"},{"icsId":"1006569","id":"490006569S","lat":51.623284,"lon":0.001518,"name":"Endlebury Road","parentId":"490G00006569","stationId":"490G00006569","stopLetter":"HD","topMostParentId":"490G00006569"},{"icsId":"1005514","id":"490005514S","lat":51.621162,"lon":0.000457,"name":"Colvin Gardens","parentId":"490G00005514","stationId":"490G00005514","stopLetter":"HE","topMostParentId":"490G00005514"},{"icsId":"1009632","id":"490009632W","lat":51.618291,"lon":-0.002053,"name":"Mapleton Road","parentId":"490G00009632","stationId":"490G00009632","stopLetter":"HW","topMostParentId":"490G00009632"},{"icsId":"1007574","id":"490007574W","lat":51.617623,"lon":-0.007716,"name":"Grove Road","parentId":"490G00007574","stationId":"490G00007574","stopLetter":"N","topMostParentId":"490G00007574"},{"icsId":"1008982","id":"490008982W","lat":51.617128,"lon":-0.012461,"name":"Larkswood School","parentId":"490G00008982","stationId":"490G00008982","stopLetter":"M","topMostParentId":"490G00008982"},{"icsId":"1005178","id":"490005178K","lat":51.616739,"lon":-0.016595,"name":"Brook Crescent","parentId":"490G000451","stationId":"490G000451","stopLetter":"K","topMostParentId":"490G000451"},{"icsId":"1005180","id":"490005178G","lat":51.616923,"lon":-0.018956,"name":"Chingford Mount","parentId":"490G000452","stationId":"490G000452","stopLetter":"G","topMostParentId":"490G000452"},{"icsId":"1005036","id":"490005036W","lat":51.616835,"lon":-0.023308,"name":"Chase Lane School","parentId":"490G00005036","stationId":"490G00005036","stopLetter":"T","topMostParentId":"490G00005036"},{"icsId":"1014183","id":"490014171W","lat":51.617126,"lon":-0.026199,"name":"Hall Lane / Waltham Way","parentId":"490G00014183","stationId":"490G00014183","stopLetter":"->W","topMostParentId":"490G00014183"},{"icsId":"1009415","id":"490009415S","lat":51.615548,"lon":-0.028593,"name":"Lower Hall Lane","parentId":"490G00009415","stationId":"490G00009415","stopLetter":"->S","topMostParentId":"490G00009415"},{"icsId":"1005612","id":"490005612S","lat":51.613326,"lon":-0.029657,"name":"Cork Tree Retail Park","parentId":"490G00005612","stationId":"490G00005612","stopLetter":"->S","topMostParentId":"490G00005612"},{"icsId":"1007773","id":"490007773W","lat":51.612852,"lon":-0.03895,"name":"Harbet Road / Cooks Ferry","parentId":"490G00007773","stationId":"490G00007773","topMostParentId":"490G00007773"},{"icsId":"1011444","id":"490011444W","lat":51.611258,"lon":-0.045244,"name":"Ravenside Trading Estate","parentId":"490G00011444","stationId":"490G00011444","stopLetter":"J","topMostParentId":"490G00011444"},{"icsId":"1009992","id":"490010024A","lat":51.613235,"lon":-0.054389,"name":"Montagu Road","parentId":"490G00009992","stationId":"490G00009992","stopLetter":"A","topMostParentId":"490G00009992"},{"icsId":"1007211","id":"490015015W","lat":51.613872,"lon":-0.0592,"name":"York Road","parentId":"490G00007211","stationId":"490G00007211","stopLetter":"->W","topMostParentId":"490G00007211"},{"icsId":"1003322","id":"490003322C","lat":51.614357,"lon":-0.063499,"name":"Angel Corner","parentId":"490G00003322","stationId":"490G00003322","stopLetter":"C","topMostParentId":"490G00003322"},{"icsId":"1003324","id":"490003324A","lat":51.61458,"lon":-0.065555,"name":"Angel Corner / Silver Street Station","parentId":"490G000389","stationId":"490G000389","stopLetter":"A","topMostParentId":"490G000389"},{"icsId":"1015839","id":"490015839U","lat":51.614078,"lon":-0.070025,"name":"Somerset Road / North Middlesex Hospital","parentId":"490G00015839","stationId":"490G00015839","stopLetter":"U","topMostParentId":"490G00015839"},{"icsId":"1015838","id":"490015838Y","lat":51.611922,"lon":-0.070174,"name":"Hawthorn Road","parentId":"490G00015838","stationId":"490G00015838","stopLetter":"Y","topMostParentId":"490G00015838"},{"icsId":"1015837","id":"490015837Z","lat":51.611904,"lon":-0.075649,"name":"Bull Lane / North Middlesex Hospital","parentId":"490G00015837","stationId":"490G00015837","stopLetter":"Z","topMostParentId":"490G00015837"},{"icsId":"1015836","id":"490015836W","lat":51.61179,"lon":-0.078008,"name":"Wigston Close","parentId":"490G00015836","stationId":"490G00015836","stopLetter":"->W","topMostParentId":"490G00015836"},{"icsId":"1015835","id":"490015835W","lat":51.612871,"lon":-0.083624,"name":"Plowman Close / Wilbury Primary School","parentId":"490G00015835","stationId":"490G00015835","stopLetter":"WP","topMostParentId":"490G00015835"},{"icsId":"1010864","id":"490010864S","lat":51.612394,"lon":-0.08636,"name":"Pasteur Gardens","parentId":"490G00010864","stationId":"490G00010864","stopLetter":"SJ","topMostParentId":"490G00010864"},{"icsId":"1006564","id":"490006564S","lat":51.609105,"lon":-0.085415,"name":"Empire Parade","parentId":"490G00006564","stationId":"490G00006564","stopLetter":"SK","topMostParentId":"490G00006564"},{"icsId":"1014597","id":"490014597S","lat":51.604906,"lon":-0.085952,"name":"White Hart Lane","parentId":"490G00014597","stationId":"490G00014597","stopLetter":"RK","topMostParentId":"490G00014597"},{"icsId":"1005666","id":"490005666W","lat":51.602665,"lon":-0.088068,"name":"Courtman Road","parentId":"490G00005666","stationId":"490G00005666","stopLetter":"RL","topMostParentId":"490G00005666"},{"icsId":"1007323","id":"490007323W","lat":51.601737,"lon":-0.090692,"name":"Gospatrick Road","parentId":"490G00007323","stationId":"490G00007323","stopLetter":"RM","topMostParentId":"490G00007323"},{"icsId":"1007377","id":"490007377W","lat":51.599461,"lon":-0.091798,"name":"Granville Road","parentId":"490G00007377","stationId":"490G00007377","stopLetter":"RN","topMostParentId":"490G00007377"},{"icsId":"1004186","id":"490004186W","lat":51.59687,"lon":-0.093914,"name":"Boundary Road","parentId":"490G00004186","stationId":"490G00004186","stopLetter":"NV","topMostParentId":"490G00004186"},{"icsId":"1008909","id":"490008909W","lat":51.593528,"lon":-0.097995,"name":"Westbury Avenue Baptist Church","parentId":"490G00008909","stationId":"490G00008909","stopLetter":"->W","topMostParentId":"490G00008909"},{"icsId":"1000241","id":"490000241P","lat":51.590913,"lon":-0.102551,"name":"Turnpike Lane Station","parentId":"490G00241M","stationId":"490G00241M","stopLetter":"P","topMostParentId":"940GZZLUTPN","zone":"3"},{"icsId":"1013852","id":"490013852N","lat":51.589946,"lon":-0.102259,"name":"Turnpike Lane Bus Station","parentId":"490G000808","stationId":"490G000808","stopLetter":"AP1","topMostParentId":"490G000808"}]}]}