{"direction":"inbound","lineId":"45","lineName":"45","mode":"bus","stopPointSequences":[{"stopPoint":[{"icsId":"1008755","id":"490008755V","lat":51.448165,"lon":-0.132768,"name":"Poynders Road / Kings Avenue","parentId":"490G00008755","stationId":"490G00008755","stopLetter":"V","topMostParentId":"490G00008755"},{"icsId":"1010243","id":"490010243E","lat":51.447162,"lon":-0.129052,"name":"Atkins Road / New Park Road","parentId":"490G00010243","stationId":"490G00010243","stopLetter":"E","topMostParentId":"490G00010243"},{"icsId":"1012931","id":"490012931E","lat":51.446092,"lon":-0.126261,"name":"Streatham Place","parentId":"490G00012931","stationId":"490G00012931","stopLetter":"BQ","topMostParentId":"490G00012931"},{"icsId":"1008310","id":"490008310N","lat":51.446923,"lon":-0.124788,"name":"Holmewood Road","parentId":"490G00008310","stationId":"490G00008310","stopLetter":"BT","topMostParentId":"490G00008310"},{"icsId":"1015218","id":"490015218N","lat":51.448859,"lon":-0.123845,"name":"New Park Road","parentId":"490G00015218","stationId":"490G00015218","stopLetter":"BU","topMostParentId":"490G00015218"},{"icsId":"1008544","id":"490008544N","lat":51.45108,"lon":-0.122142,"name":"Jebb Avenue / Brixton Prison","parentId":"490G00008544","stationId":"490G00008544","stopLetter":"BV","topMostParentId":"490G00008544"},{"icsId":"1004101","id":"490004101N","lat":51.453341,"lon":-0.120682,"name":"Blenheim Gardens","parentId":"490G00004101","stationId":"490G00004101","stopLetter":"BW","topMostParentId":"490G00004101"},{"icsId":"1011793","id":"490011793N","lat":51.457677,"lon":-0.117985,"name":"Rush Common","parentId":"490G00011793","stationId":"490G00011793","stopLetter":"BY","topMostParentId":"490G00011793"},{"icsId":"1008919","id":"490008919Y","lat":51.459626,"lon":-0.116739,"name":"Lambeth Town Hall","parentId":"490G000627","stationId":"490G000627","stopLetter":"Y","topMostParentId":"490G000627"},{"icsId":"1000031","id":"490000031T","lat":51.461969,"lon":-0.115375,"name":"Brixton Station","parentId":"490G00031N","stationId":"490G00031N","stopLetter":"T","topMostParentId":"HUBBRX","zone":"2"},{"icsId":"1004361","id":"490004361H","lat":51.46502,"lon":-0.113292,"name":"Gresham Road / Brixton Police Station","parentId":"490G000426","stationId":"490G000426","stopLetter":"H","topMostParentId":"490G000426"},{"icsId":"1014447","id":"490014447E","lat":51.464904,"lon":-0.110518,"name":"Western Road","parentId":"490G00014447","stationId":"490G00014447","stopLetter":"S","topMostParentId":"490G00014447"},{"icsId":"1014794","id":"490015389E","lat":51.463392,"lon":-0.108263,"name":"Brixton Station Road","parentId":"490G00014794","stationId":"490G00014794","stopLetter":"T","topMostParentId":"490G00014794"},{"icsId":"1012036","id":"490012036E","lat":51.464432,"lon":-0.104145,"name":"Shakespeare Road","parentId":"490G00012036","stationId":"490G00012036","stopLetter":"U","topMostParentId":"490G00012036"},{"icsId":"1001184","id":"490001184A","lat":51.465828,"lon":-0.102633,"name":"Loughborough Junction Station","parentId":"490G01184A","stationId":"490G01184A","stopLetter":"A","topMostParentId":"910GLBGHJN"},{"icsId":"1011090","id":"490011090E","lat":51.466757,"lon":-0.100536,"name":"Pomfret Road","parentId":"490G000707","stationId":"490G000707","stopLetter":"F","topMostParentId":"490G000707"},{"icsId":"1009153","id":"490009153E","lat":51.468734,"lon":-0.09828,"name":"Lilford Road","parentId":"490G00009153","stationId":"490G00009153","stopLetter":"G","topMostParentId":"490G00009153"},{"icsId":"1004676","id":"490009431H7","lat":51.470222,"lon":-0.095223,"name":"Caldecot Road","parentId":"490G00004676","stationId":"490G00004676","stopLetter":"Z","topMostParentId":"490G00004676"},{"icsId":"1014004","id":"490014004Y","lat":51.471531,"lon":-0.093815,"name":"Valmar Road","parentId":"490G00014004","stationId":"490G00014004","stopLetter":"Y","topMostParentId":"490G00014004"},{"icsId":"1004687","id":"490004687R","lat":51.473489,"lon":-0.093143,"name":"Denmark Hill / Camberwell Green","parentId":"490G00004687","stationId":"490G00004687","stopLetter":"R","topMostParentId":"490G00004687"},{"icsId":"1015298","id":"490015298E","lat":51.47521,"lon":-0.09333,"name":"Camberwell Green","parentId":"490G00015298","stationId":"490G00015298","stopLetter":"E","topMostParentId":"490G00015298"},{"icsId":"1009784","id":"490009784C","lat":51.476624,"lon":-0.09402,"name":"Medlar Street","parentId":"490G00009784","stationId":"490G00009784","stopLetter":"C","topMostParentId":"490G00009784"},{"icsId":"1014979","id":"490014979N2","lat":51.478639,"lon":-0.094066,"name":"Wyndham Road","parentId":"490G00014979","stationId":"490G00014979","stopLetter":"U","topMostParentId":"490G00014979"},{"icsId":"1004221","id":"490004221N","lat":51.480561,"lon":-0.094461,"name":"Bowyer Place","parentId":"490G00004221","stationId":"490G00004221","stopLetter":"Z","topMostParentId":"490G00004221"},{"icsId":"1003138","id":"490003138N2","lat":51.481677,"lon":-0.094544,"name":"Camberwell Road / Albany Road","parentId":"490G00003138","stationId":"490G00003138","stopLetter":"X","topMostParentId":"490G00003138"},{"icsId":"1014501","id":"490014501L","lat":51.484221,"lon":-0.093963,"name":"Westmoreland Road","parentId":"490G00014501","stationId":"490G00014501","stopLetter":"L","topMostParentId":"490G00014501"},{"icsId":"1006380","id":"490006380G","lat":51.487267,"lon":-0.09542,"name":"East Street","parentId":"490G00006380","stationId":"490G00006380","stopLetter":"G","topMostParentId":"490G00006380"},{"icsId":"1008975","id":"490008975N","lat":51.490434,"lon":-0.097218,"name":"Larcom Street","parentId":"490G00008975","stationId":"490G00008975","stopLetter":"D","topMostParentId":"490G00008975"},{"icsId":"1007739","id":"490007739N","lat":51.492234,"lon":-0.098411,"name":"Hampton Street","parentId":"490G00007739","stationId":"490G00007739","stopLetter":"->N","topMostParentId":"490G00007739"},{"icsId":"1000073","id":"490000073T","lat":51.494214,"lon":-0.100749,"name":"Elephant & Castle Station","parentId":"490G00073G","stationId":"490G00073G","stopLetter":"T","topMostParentId":"HUBEPH","zone":"1+2"},{"icsId":"1009297","id":"490000073F","lat":51.496432,"lon":-0.09998,"name":"Elephant & Castle / Newington Causeway","parentId":"490G000644","stationId":"490G000644","stopLetter":"F","topMostParentId":"490G000644"}]}]}