{"direction":"inbound","lineId":"46","lineName":"46","mode":"bus","stopPointSequences":[{"stopPoint":[{"icsId":"1012637","id":"490012637S","lat":51.517531,"lon":-0.101221,"name":"St Bartholomew's Hospital","parentId":"490G00012637","stationId":"490G00012637","stopLetter":"HQ","topMostParentId":"490G00012637"},{"icsId":"1001067","id":"490001067R","lat":51.516479,"lon":-0.102907,"name":"City Thameslink Station","parentId":"490G01067Q","stationId":"490G01067Q","stopLetter":"HK","topMostParentId":"910GCTMSLNK"},{"icsId":"1015096","id":"490015096L","lat":51.517535,"lon":-0.10651,"name":"Holborn Circus","parentId":"490G00015096","stationId":"490G00015096","stopLetter":"L","topMostParentId":"490G00015096"},{"icsId":"1008275","id":"490008275H","lat":51.517805,"lon":-0.109281,"name":"Holborn Circus / Fetter Lane","parentId":"490G00008275","stationId":"490G00008275","stopLetter":"H","topMostParentId":"490G00008275"},{"icsId":"1019194","id":"490008165B","lat":51.519415,"lon":-0.112097,"name":"Gray's Inn Road","parentId":"490G00019194","stationId":"490G00019194","stopLetter":"B","topMostParentId":"490G00019194"},{"icsId":"1013476","id":"490013476N1","lat":51.521059,"lon":-0.113124,"name":"Theobald's Road / Clerkenwell Road","parentId":"490G00013476","stationId":"490G00013476","stopLetter":"CQ","topMostParentId":"490G00013476"},{"icsId":"1015447","id":"490015447N","lat":51.522096,"lon":-0.11386,"name":"Gray's Inn Road / Rosebery Avenue","parentId":"490G00015447","stationId":"490G00015447","stopLetter":"CB","topMostParentId":"490G00015447"},{"icsId":"1007598","id":"490007598N","lat":51.523977,"lon":-0.115599,"name":"Guilford Street","parentId":"490G00007598","stationId":"490G00007598","stopLetter":"HD","topMostParentId":"490G00007598"},{"icsId":"1006368","id":"490006368N","lat":51.525779,"lon":-0.117514,"name":"Eastman Dental Hospital","parentId":"490G00006368","stationId":"490G00006368","stopLetter":"HE","topMostParentId":"490G00006368"},{"icsId":"1003087","id":"490012149N","lat":51.527661,"lon":-0.118834,"name":"Acton Street","parentId":"490G00003087","stationId":"490G00003087","stopLetter":"HF","topMostParentId":"490G00003087"},{"icsId":"1013117","id":"490004354N","lat":51.529247,"lon":-0.120124,"name":"Swinton Street","parentId":"490G00013117","stationId":"490G00013117","stopLetter":"N","topMostParentId":"490G00013117"},{"icsId":"1012553","id":"490012553B","lat":51.530552,"lon":-0.124713,"name":"St Pancras Intern'L & King's X Stns","parentId":"490G000760","stationId":"490G000760","stopLetter":"T","topMostParentId":"HUBKGX"},{"icsId":"1016573","id":"490016573N","lat":51.53402,"lon":-0.129545,"name":"Chenies Place","parentId":"490G00016573","stationId":"490G00016573","stopLetter":"->N","topMostParentId":"490G00016573"},{"icsId":"1011756","id":"490005493N","lat":51.536656,"lon":-0.134137,"name":"Royal Veterinary College","parentId":"490G00011756","stationId":"490G00011756","stopLetter":"P","topMostParentId":"490G00011756"},{"icsId":"1019168","id":"490015382N2","lat":51.538752,"lon":-0.135941,"name":"Pratt Street","parentId":"490G00019168","stationId":"490G00019168","stopLetter":"Q","topMostParentId":"490G00019168"},{"icsId":"1001045","id":"490011419H","lat":51.541258,"lon":-0.138016,"name":"Camden Road Station","parentId":"490G01045G","stationId":"490G01045G","stopLetter":"H","topMostParentId":"910GCMDNRD"},{"icsId":"1019171","id":"490001045E","lat":51.54257,"lon":-0.139087,"name":"Royal College Street / Ivor Street","parentId":"490G00019171","stationId":"490G00019171","stopLetter":"B","topMostParentId":"490G00019171"},{"icsId":"1015246","id":"490008663W","lat":51.544517,"lon":-0.14107,"name":"Kentish Town Road","parentId":"490G00015246","stationId":"490G00015246","stopLetter":"KK","topMostParentId":"490G00015246"},{"icsId":"1019924","id":"490011199R","lat":51.546032,"lon":-0.141903,"name":"Prince Of Wales Road","parentId":"490G00019924","stationId":"490G00019924","stopLetter":"KM","topMostParentId":"490G00019924"},{"icsId":"1001165","id":"490001165W","lat":51.546487,"lon":-0.145648,"name":"Kentish Town West Station","parentId":"490G01165C","stationId":"490G01165C","stopLetter":"KN","topMostParentId":"910GKNTSHTW"},{"icsId":"1007824","id":"490007824W","lat":51.545941,"lon":-0.14867,"name":"Harmood Street","parentId":"490G00007824","stationId":"490G00007824","stopLetter":"KQ","topMostParentId":"490G00007824"},{"icsId":"1012765","id":"490012765N","lat":51.546531,"lon":-0.151286,"name":"Malden Road","parentId":"490G00012765","stationId":"490G00012765","stopLetter":"KT","topMostParentId":"490G00012765"},{"icsId":"1011330","id":"490011330N","lat":51.548514,"lon":-0.152705,"name":"Queen's Crescent","parentId":"490G00011330","stationId":"490G00011330","stopLetter":"KZ","topMostParentId":"490G00011330"},{"icsId":"1012651","id":"490012651N","lat":51.550755,"lon":-0.156278,"name":"St Dominic's Priory","parentId":"490G00012651","stationId":"490G00012651","stopLetter":"GD","topMostParentId":"490G00012651"},{"icsId":"1009204","id":"490009616N","lat":51.552343,"lon":-0.157743,"name":"Mansfield Road","parentId":"490G00009204","stationId":"490G00009204","stopLetter":"GT","topMostParentId":"490G00009204"},{"icsId":"1009017","id":"490009017N","lat":51.553274,"lon":-0.160908,"name":"Lawn Road","parentId":"490G00009017","stationId":"490G00009017","stopLetter":"GU","topMostParentId":"490G00009017"},{"icsId":"1011760","id":"490011760D","lat":51.553948,"lon":-0.165511,"name":"Royal Free Hospital","parentId":"490G000732","stationId":"490G000732","stopLetter":"D","topMostParentId":"490G000732"},{"icsId":"1011714","id":"490011714E","lat":51.553443,"lon":-0.168286,"name":"Rosslyn Hill","parentId":"490G00011714","stationId":"490G00011714","stopLetter":"E","topMostParentId":"490G00011714"},{"icsId":"1011000","id":"490011000N","lat":51.55467,"lon":-0.172565,"name":"Pilgrim's Lane","parentId":"490G00011000","stationId":"490G00011000","stopLetter":"A","topMostParentId":"490G00011000"},{"icsId":"1000098","id":"490000098B","lat":51.555961,"lon":-0.177504,"name":"Hampstead Station","parentId":"490G00098S","stationId":"490G00098S","stopLetter":"B","topMostParentId":"940GZZLUHTD","zone":"2+3"},{"icsId":"1006484","id":"490006484S","lat":51.554906,"lon":-0.177936,"name":"Fitzjohn's Avenue","parentId":"490G000501","stationId":"490G000501","stopLetter":"C","topMostParentId":"490G000501"},{"icsId":"1012408","id":"490012408S","lat":51.55294,"lon":-0.175851,"name":"Lyndhurst Road / Akenside Road","parentId":"490G00012408","stationId":"490G00012408","stopLetter":"G","topMostParentId":"490G00012408"},{"icsId":"1012806","id":"490009471S","lat":51.551195,"lon":-0.175791,"name":"St Mary's School","parentId":"490G00012806","stationId":"490G00012806","stopLetter":"H","topMostParentId":"490G00012806"},{"icsId":"1010466","id":"490010466S","lat":51.548416,"lon":-0.175743,"name":"Nutley Terrace","parentId":"490G00010466","stationId":"490G00010466","stopLetter":"S","topMostParentId":"490G00010466"},{"icsId":"1009643","id":"490009643S","lat":51.546671,"lon":-0.175755,"name":"Belsize Lane","parentId":"490G00009643","stationId":"490G00009643","stopLetter":"T","topMostParentId":"490G00009643"},{"icsId":"1005486","id":"490005486S","lat":51.544327,"lon":-0.174782,"name":"College Crescent","parentId":"490G00005486","stationId":"490G00005486","stopLetter":"G","topMostParentId":"490G00005486"},{"icsId":"1000230","id":"490000230D","lat":51.542997,"lon":-0.174272,"name":"Swiss Cottage Station / Avenue Road","parentId":"490G00230N","stationId":"490G00230N","stopLetter":"D","topMostParentId":"940GZZLUSWC","zone":"2"},{"icsId":"1004185","id":"490004185S","lat":51.539332,"lon":-0.175688,"name":"Boundary Road","parentId":"490G00004185","stationId":"490G00004185","stopLetter":"V","topMostParentId":"490G00004185"},{"icsId":"1011336","id":"490011336S","lat":51.536785,"lon":-0.176136,"name":"Queen's Grove","parentId":"490G00011336","stationId":"490G00011336","stopLetter":"U","topMostParentId":"490G00011336"},{"icsId":"1000222","id":"490005318C","lat":51.53398,"lon":-0.173811,"name":"St John's Wood Station","parentId":"490G00222A","stationId":"490G00222A","stopLetter":"C","topMostParentId":"940GZZLUSJW","zone":"2"},{"icsId":"1004883","id":"490004883E","lat":51.532394,"lon":-0.174221,"name":"Cavendish Avenue","parentId":"490G00004883","stationId":"490G00004883","stopLetter":"E","topMostParentId":"490G00004883"},{"icsId":"1007557","id":"490007557W","lat":51.530162,"lon":-0.17754,"name":"Grove End Road","parentId":"490G00007557","stationId":"490G00007557","stopLetter":"T","topMostParentId":"490G00007557"},{"icsId":"1007679","id":"490015574D","lat":51.528759,"lon":-0.180421,"name":"Hall Road / Maida Vale","parentId":"490G00007679","stationId":"490G00007679","stopLetter":"D","topMostParentId":"490G00007679"},{"icsId":"1008926","id":"490007679R","lat":51.527973,"lon":-0.180756,"name":"Sutherland Avenue","parentId":"490G00008926","stationId":"490G00008926","stopLetter":"R","topMostParentId":"490G00008926"},{"icsId":"1005427","id":"490005427W2","lat":51.525471,"lon":-0.179471,"name":"Clifton Road / Maida Vale","parentId":"490G00005427","stationId":"490G00005427","stopLetter":"G","topMostParentId":"490G00005427"},{"icsId":"1000253","id":"490000253H","lat":51.523617,"lon":-0.183423,"name":"Warwick Avenue Station","parentId":"490G00253H","stationId":"490G00253H","stopLetter":"H","topMostParentId":"940GZZLUWKA","zone":"2"},{"icsId":"1014250","id":"490014250E","lat":51.520423,"lon":-0.179283,"name":"Bishops Bridge Road / Little Venice","parentId":"490G00014250","stationId":"490G00014250","stopLetter":"R","topMostParentId":"490G00014250"},{"icsId":"1004040","id":"49004039W1","lat":51.518517,"lon":-0.179273,"name":"Bishops Bridge / Paddington Station","parentId":"490G00004040","stationId":"490G00004040","stopLetter":"J","topMostParentId":"490G00004040"},{"icsId":"1018253","id":"490018253W","lat":51.514688,"lon":-0.17712,"name":"Craven Road","parentId":"490G00018253","stationId":"490G00018253","stopLetter":"B","topMostParentId":"490G00018253"},{"icsId":"1000133","id":"490000133N","lat":51.512592,"lon":-0.175906,"name":"Lancaster Gate Station","parentId":"490G00133B","stationId":"490G00133B","stopLetter":"LH","topMostParentId":"940GZZLULGT","zone":"1"}]}]}