{"direction":"inbound","lineId":"464","lineName":"464","mode":"bus","stopPointSequences":[{"stopPoint":[{"icsId":"1002062","id":"490010848S","lat":51.343004,"lon":-0.017294,"name":"New Addington Tram Stop","parentId":"490G02062B","stationId":"490G02062B","stopLetter":"D","topMostParentId":"940GZZCRNWA"},{"icsId":"1004928","id":"490004928Z","lat":51.340468,"lon":-0.014072,"name":"Central Parade","parentId":"490G00004928","stationId":"490G00004928","topMostParentId":"490G00004928"},{"icsId":"1012660","id":"490012660E","lat":51.339903,"lon":-0.012043,"name":"St Edward's Church","parentId":"490G00012660","stationId":"490G00012660","stopLetter":"H","topMostParentId":"490G00012660"},{"icsId":"1009926","id":"490009926E","lat":51.339265,"lon":-0.008927,"name":"New Addington Baptist Church","parentId":"490G00009926","stationId":"490G00009926","topMostParentId":"490G00009926"},{"icsId":"1004680","id":"490004680E","lat":51.338793,"lon":-0.004941,"name":"Calley Down Crescent","parentId":"490G00004680","stationId":"490G00004680","stopLetter":"->E","topMostParentId":"490G00004680"},{"icsId":"1000388","id":"490000388Z","lat":51.338209,"lon":-0.002339,"name":"Warbank Crescent","parentId":"490G000037","stationId":"490G000037","stopLetter":"->S","topMostParentId":"490G000037"},{"icsId":"1003093","id":"490003093S","lat":51.336347,"lon":-0.001272,"name":"King Henry's Drive / Homestead Way","parentId":"490G00003093","stationId":"490G00003093","topMostParentId":"490G00003093"},{"icsId":"1020380","id":"490006699S","lat":51.335479,"lon":-0.001022,"name":"Meridian High School","parentId":"490G00020380","stationId":"490G00020380","stopLetter":"->S","topMostParentId":"490G00020380"},{"icsId":"1011874","id":"490011874S","lat":51.325376,"lon":0.023843,"name":"Main Road / Saltbox Hill","parentId":"490G00011874","stationId":"490G00011874","stopLetter":"N","topMostParentId":"490G00011874"},{"icsId":"1013017","id":"490013017S","lat":51.322044,"lon":0.02773,"name":"Main Road / Sunningvale Avenue","parentId":"490G00013017","stationId":"490G00013017","stopLetter":"P","topMostParentId":"490G00013017"},{"icsId":"1008533","id":"490008533S","lat":51.316304,"lon":0.033087,"name":"Biggin Hill / Black Horse","parentId":"490G00008533","stationId":"490G00008533","stopLetter":"Q","topMostParentId":"490G00008533"},{"icsId":"1003994","id":"490003994S","lat":51.31156,"lon":0.034887,"name":"Lebanon Gardens","parentId":"490G00003994","stationId":"490G00003994","stopLetter":"N","topMostParentId":"490G00003994"},{"icsId":"1012824","id":"490012824S","lat":51.312305,"lon":0.028735,"name":"Stock Hill","parentId":"490G00012824","stationId":"490G00012824","stopLetter":"D","topMostParentId":"490G00012824"},{"icsId":"1011693","id":"490011693S","lat":51.309319,"lon":0.027742,"name":"Rosehill Road","parentId":"490G00011693","stationId":"490G00011693","stopLetter":"E","topMostParentId":"490G00011693"},{"icsId":"1013114","id":"490013114E","lat":51.308542,"lon":0.030047,"name":"Swievelands Road","parentId":"490G00013114","stationId":"490G00013114","stopLetter":"F","topMostParentId":"490G00013114"},{"icsId":"1013164","id":"40004410805F","lat":51.295063,"lon":0.036179,"name":"Cudham Hill","parentId":"400G4410805C","stationId":"400G4410805C","topMostParentId":"400G4410805C"},{"icsId":"1013166","id":"40004410134A","lat":51.291201,"lon":0.032265,"name":"Ricketts Hill Road / Manor House","parentId":"400G4410134A","stationId":"400G4410134A","topMostParentId":"400G4410134A"},{"icsId":"1018164","id":"40004410805G","lat":51.290868,"lon":0.029138,"name":"Tatsfield Green","parentId":"400G4410805B","stationId":"400G4410805B","topMostParentId":"400G4410805B"},{"icsId":"1010287","id":"40004410805H","lat":51.292132,"lon":0.025766,"name":"Ship Hill / Borough Road","parentId":"400G4410805A","stationId":"400G4410805A","topMostParentId":"400G4410805A"},{"icsId":"1013167","id":"40004410135A","lat":51.292856,"lon":0.025468,"name":"Tatsfield Village / Old Ship","topMostParentId":"40004410135A"}]}]}