{"direction":"inbound","lineId":"470","lineName":"470","mode":"bus","stopPointSequences":[{"stopPoint":[{"icsId":"1006600","id":"40004406038C","lat":51.333193,"lon":-0.269153,"name":"Epsom Clock Tower","parentId":"400G4406038A","stationId":"400G4406038A","stopLetter":"C","topMostParentId":"910GEPSM"},{"icsId":"1006610","id":"40004406039A","lat":51.333991,"lon":-0.265347,"name":"Epsom High Street","parentId":"400G4406039A","stationId":"400G4406039A","stopLetter":"G","topMostParentId":"910GEPSM"},{"icsId":"1015601","id":"40004406040A","lat":51.336319,"lon":-0.260996,"name":"Rainbow Leisure Centre","parentId":"400G4406040A","stationId":"400G4406040A","topMostParentId":"400G4406040A"},{"icsId":"1008717","id":"40004406117A","lat":51.338032,"lon":-0.258304,"name":"Kiln Lane","parentId":"400G4406117A","stationId":"400G4406117A","topMostParentId":"400G4406117A"},{"icsId":"1015600","id":"40004406041A","lat":51.339588,"lon":-0.25589,"name":"Windmill Lane","parentId":"400G4406041A","stationId":"400G4406041A","topMostParentId":"400G4406041A"},{"icsId":"1008111","id":"40004406043A","lat":51.342954,"lon":-0.25246,"name":"Hessle Grove","parentId":"400G4406043A","stationId":"400G4406043A","topMostParentId":"400G4406043A"},{"icsId":"1015599","id":"40004406044A","lat":51.344965,"lon":-0.251637,"name":"Mongers Lane","parentId":"400G4406044A","stationId":"400G4406044A","topMostParentId":"400G4406044A"},{"icsId":"1006676","id":"40004406045A","lat":51.346867,"lon":-0.250731,"name":"Reigate Road / Green Man","parentId":"400G4406045A","stationId":"400G4406045A","topMostParentId":"400G4406045A"},{"icsId":"1006677","id":"40004406167B","lat":51.345987,"lon":-0.249013,"name":"Hazel Mead","parentId":"400G4406167A","stationId":"400G4406167A","topMostParentId":"400G4406167A"},{"icsId":"1001534","id":"40004406046B","lat":51.346264,"lon":-0.242282,"name":"Ewell East Station","parentId":"400G4406046A","stationId":"400G4406046A","topMostParentId":"910GEWELLE"},{"icsId":"1015597","id":"40004406103B","lat":51.34512,"lon":-0.233797,"name":"Springfield Road","parentId":"400G4406103A","stationId":"400G4406103A","topMostParentId":"400G4406103A"},{"icsId":"1010361","id":"40004406047A","lat":51.345724,"lon":-0.227915,"name":"Albury Avenue","parentId":"400G4406047A","stationId":"400G4406047A","topMostParentId":"400G4406047A"},{"icsId":"1016167","id":"40004406048A","lat":51.348456,"lon":-0.22422,"name":"Bramley Road","parentId":"400G4406048A","stationId":"400G4406048A","topMostParentId":"400G4406048A"},{"icsId":"1016166","id":"40004406149A","lat":51.350074,"lon":-0.223037,"name":"West Drive","parentId":"400G4406102A","stationId":"400G4406102A","topMostParentId":"400G4406102A"},{"icsId":"1010294","id":"490010294L","lat":51.357345,"lon":-0.221564,"name":"Nonsuch Park","parentId":"490G00010294","stationId":"490G00010294","stopLetter":"L","topMostParentId":"490G00010294"},{"icsId":"1005056","id":"490005056A","lat":51.357634,"lon":-0.217473,"name":"Cheam Broadway","parentId":"490G00005056","stationId":"490G00005056","stopLetter":"A","topMostParentId":"490G00005056"},{"icsId":"1001059","id":"490005058E","lat":51.356327,"lon":-0.216145,"name":"Cheam Station","parentId":"490G05058E","stationId":"490G05058E","stopLetter":"E","topMostParentId":"910GCHEAM"},{"icsId":"1006066","id":"490006066S","lat":51.349448,"lon":-0.214345,"name":"Sandy Lane Cheam","parentId":"490G00006066","stationId":"490G00006066","stopLetter":"->S","topMostParentId":"490G00006066"},{"icsId":"1012275","id":"490012275S","lat":51.347499,"lon":-0.214506,"name":"South Drive","parentId":"490G00012275","stationId":"490G00012275","stopLetter":"->S","topMostParentId":"490G00012275"},{"icsId":"1019546","id":"490019546E","lat":51.347076,"lon":-0.209827,"name":"Northey Avenue","parentId":"490G00019546","stationId":"490G00019546","stopLetter":"->E","topMostParentId":"490G00019546"},{"icsId":"1001973","id":"490001973Y","lat":51.347841,"lon":-0.204556,"name":"York Road","parentId":"490G000297","stationId":"490G000297","topMostParentId":"490G000297"},{"icsId":"1019544","id":"490019544N","lat":51.353026,"lon":-0.20431,"name":"York Road (SM2)","parentId":"490G00019544","stationId":"490G00019544","topMostParentId":"490G00019544"},{"icsId":"1019541","id":"490019541E","lat":51.356706,"lon":-0.19506,"name":"Worcester Road","parentId":"490G00019541","stationId":"490G00019541","stopLetter":"->E","topMostParentId":"490G00019541"},{"icsId":"1001286","id":"490001286Z","lat":51.359324,"lon":-0.19164,"name":"Sutton Station","parentId":"490G01286N","stationId":"490G01286N","stopLetter":"AC","topMostParentId":"910GSUTTON"},{"icsId":"1013082","id":"490013082R","lat":51.360058,"lon":-0.192602,"name":"Sutton Post Office","parentId":"490G00013082","stationId":"490G00013082","stopLetter":"R","topMostParentId":"490G00013082"},{"icsId":"1013064","id":"490013064V","lat":51.361913,"lon":-0.194497,"name":"Sutton Civic Centre","parentId":"490G00013064","stationId":"490G00013064","stopLetter":"V","topMostParentId":"490G00013064"},{"icsId":"1011856","id":"490011856W","lat":51.365479,"lon":-0.195405,"name":"St Nicholas Centre","parentId":"490G00011856","stationId":"490G00011856","stopLetter":"W","topMostParentId":"490G00011856"},{"icsId":"1005844","id":"490005844Y","lat":51.368305,"lon":-0.196113,"name":"Crown Road","parentId":"490G00005844","stationId":"490G00005844","stopLetter":"Y","topMostParentId":"490G00005844"},{"icsId":"1013072","id":"490013072A","lat":51.371207,"lon":-0.194778,"name":"Sutton Green","parentId":"490G00013072","stationId":"490G00013072","stopLetter":"A","topMostParentId":"490G00013072"},{"icsId":"1020131","id":"490020131W","lat":51.373769,"lon":-0.19472,"name":"Angel Hill","parentId":"490G00020131","stationId":"490G00020131","stopLetter":"->W","topMostParentId":"490G00020131"},{"icsId":"1019461","id":"490019461N","lat":51.374902,"lon":-0.19706,"name":"Sutton Common Station","parentId":"490G19461B","stationId":"490G19461B","stopLetter":"X","topMostParentId":"490G19461B"},{"icsId":"1013069","id":"490004494W","lat":51.376713,"lon":-0.199044,"name":"Broomloan Lane","parentId":"490G00013069","stationId":"490G00013069","stopLetter":"->W","topMostParentId":"490G00013069"},{"icsId":"1013065","id":"490013065N","lat":51.379922,"lon":-0.201878,"name":"Glenthorne High School","parentId":"490G00013065","stationId":"490G00013065","stopLetter":"SE","topMostParentId":"490G00013065"},{"icsId":"1006935","id":"490006935W1","lat":51.383978,"lon":-0.201935,"name":"Forest Road  Sutton","parentId":"490G00006935","stationId":"490G00006935","topMostParentId":"490G00006935"},{"icsId":"1012440","id":"490012440E","lat":51.38677,"lon":-0.196925,"name":"Love Lane St Helier","parentId":"490G00012440","stationId":"490G00012440","stopLetter":"->E","topMostParentId":"490G00012440"},{"icsId":"1010026","id":"490010026N1","lat":51.395454,"lon":-0.193234,"name":"Abbotsbury Road","parentId":"490G00010026","stationId":"490G00010026","stopLetter":"A","topMostParentId":"490G00010026"},{"icsId":"1009839","id":"490009839N2","lat":51.396287,"lon":-0.191275,"name":"The Willows","parentId":"490G00009839","stationId":"490G00009839","stopLetter":"B","topMostParentId":"490G00009839"},{"icsId":"1004931","id":"490004931N","lat":51.399717,"lon":-0.188609,"name":"Morden Hall Road / Central Road","parentId":"490G00004931","stationId":"490G00004931","stopLetter":"R","topMostParentId":"490G00004931"},{"icsId":"1010060","id":"490010060W","lat":51.401463,"lon":-0.191042,"name":"Aberconway Road","parentId":"490G00010060","stationId":"490G00010060","stopLetter":"S","topMostParentId":"490G00010060"},{"icsId":"1000151","id":"490000151A","lat":51.402078,"lon":-0.19477,"name":"Morden Station","parentId":"490G00151H","stationId":"490G00151H","stopLetter":"A","topMostParentId":"940GZZLUMDN","zone":"4"},{"icsId":"1006133","id":"490006133N","lat":51.407211,"lon":-0.192296,"name":"Dorset Road","parentId":"490G000486","stationId":"490G000486","topMostParentId":"490G000486"},{"icsId":"1002060","id":"490002060A","lat":51.409417,"lon":-0.192482,"name":"Morden Road Tram Stop","parentId":"490G02060A","stationId":"490G02060A","stopLetter":"SL","topMostParentId":"940GZZCRMDN"},{"icsId":"1016304","id":"490016304E","lat":51.414371,"lon":-0.180221,"name":"Merton Abbey","parentId":"490G00016304","stationId":"490G00016304","stopLetter":"Q","topMostParentId":"490G00016304"},{"icsId":"1000055","id":"490005223N","lat":51.417135,"lon":-0.178098,"name":"Colliers Wood Station","parentId":"490G00055A","stationId":"490G00055A","stopLetter":"->N","topMostParentId":"940GZZLUCSD","zone":"3"}]}]}