{"direction":"inbound","lineId":"472","lineName":"472","mode":"bus","stopPointSequences":[{"stopPoint":[{"icsId":"1013214","id":"490013214A","lat":51.507389,"lon":0.109183,"name":"Thamesmead Town Centre","parentId":"490G00013214","stationId":"490G00013214","stopLetter":"A","topMostParentId":"490G00013214"},{"icsId":"1009198","id":"490009198D","lat":51.507586,"lon":0.112708,"name":"Linton Mead Primary School","parentId":"490G00009198","stationId":"490G00009198","stopLetter":"D","topMostParentId":"490G00009198"},{"icsId":"1008405","id":"490008405E","lat":51.509319,"lon":0.116377,"name":"Hoveton Road","parentId":"490G00008405","stationId":"490G00008405","topMostParentId":"490G00008405"},{"icsId":"1010268","id":"490010268E","lat":51.509522,"lon":0.120061,"name":"Nickelby Close","parentId":"490G00010268","stationId":"490G00010268","stopLetter":"NE","topMostParentId":"490G00010268"},{"icsId":"1006355","id":"490006355S","lat":51.509107,"lon":0.126066,"name":"Eastgate Close","parentId":"490G00006355","stationId":"490G00006355","stopLetter":"NG","topMostParentId":"490G00006355"},{"icsId":"1009206","id":"490009206W","lat":51.506652,"lon":0.1266,"name":"Lister Walk","parentId":"490G00009206","stationId":"490G00009206","stopLetter":"NH","topMostParentId":"490G00009206"},{"icsId":"1011113","id":"490011113W","lat":51.506063,"lon":0.12137,"name":"Poplar Place","parentId":"490G00011113","stationId":"490G00011113","stopLetter":"SE","topMostParentId":"490G00011113"},{"icsId":"1013459","id":"490013459W","lat":51.502911,"lon":0.116642,"name":"Titmuss Avenue","parentId":"490G00013459","stationId":"490G00013459","stopLetter":"SF","topMostParentId":"490G00013459"},{"icsId":"1012364","id":"490012364N","lat":51.502136,"lon":0.112715,"name":"Southwood Road","parentId":"490G00012364","stationId":"490G00012364","stopLetter":"SG","topMostParentId":"490G00012364"},{"icsId":"1007923","id":"490007923N","lat":51.504141,"lon":0.111252,"name":"Hawksmoor School","parentId":"490G00007923","stationId":"490G00007923","stopLetter":"SH","topMostParentId":"490G00007923"},{"icsId":"1007092","id":"490007092F","lat":51.506115,"lon":0.110032,"name":"Gallions Reach Health Centre","parentId":"490G00007092","stationId":"490G00007092","stopLetter":"F","topMostParentId":"490G00007092"},{"icsId":"1014285","id":"490014285S","lat":51.505044,"lon":0.105069,"name":"Watersmeet Place","parentId":"490G00014285","stationId":"490G00014285","stopLetter":"->S","topMostParentId":"490G00014285"},{"icsId":"1007382","id":"490007382S","lat":51.501361,"lon":0.102853,"name":"Grasshaven Way","parentId":"490G00007382","stationId":"490G00007382","stopLetter":"X","topMostParentId":"490G00007382"},{"icsId":"1006344","id":"490006344S","lat":51.497141,"lon":0.104445,"name":"Nathan Way / Eastern Way","parentId":"490G00006344","stationId":"490G00006344","stopLetter":"U","topMostParentId":"490G00006344"},{"icsId":"1011255","id":"490011255W","lat":51.495081,"lon":0.102002,"name":"Purland Road East","parentId":"490G00011255","stationId":"490G00011255","stopLetter":"V","topMostParentId":"490G00011255"},{"icsId":"1011255","id":"490011256W","lat":51.495205,"lon":0.098103,"name":"Purland Road West","parentId":"490G00011255","stationId":"490G00011255","stopLetter":"W","topMostParentId":"490G00011255"},{"icsId":"1004179","id":"490004179W","lat":51.492944,"lon":0.094744,"name":"Boughton Road","parentId":"490G00004179","stationId":"490G00004179","stopLetter":"->W","topMostParentId":"490G00004179"},{"icsId":"1007629","id":"490007629W","lat":51.49123,"lon":0.090012,"name":"Hadden Road","parentId":"490G00007629","stationId":"490G00007629","stopLetter":"WR","topMostParentId":"490G00007629"},{"icsId":"1010975","id":"490010975W","lat":51.490707,"lon":0.087064,"name":"Pettman Crescent","parentId":"490G00010975","stationId":"490G00010975","stopLetter":"WS","topMostParentId":"490G00010975"},{"icsId":"1019871","id":"490001227E","lat":51.490365,"lon":0.083533,"name":"Plumstead Road / Plumstead Station","parentId":"490G000959","stationId":"490G000959","stopLetter":"WM","topMostParentId":"490G000959"},{"icsId":"1014924","id":"490014924D","lat":51.4909,"lon":0.080273,"name":"Greenwich Community College","parentId":"490G00014924","stationId":"490G00014924","stopLetter":"WP","topMostParentId":"490G00014924"},{"icsId":"1009723","id":"490009723W","lat":51.49087,"lon":0.076872,"name":"Maxey Road","parentId":"490G00009723","stationId":"490G00009723","stopLetter":"->W","topMostParentId":"490G00009723"},{"icsId":"1014934","id":"490014934W1","lat":51.491116,"lon":0.071136,"name":"Plumstead Road / Woolwich Public Market","parentId":"490G00014934","stationId":"490G00014934","stopLetter":"D","topMostParentId":"490G00014934"},{"icsId":"1003917","id":"490003917D","lat":51.491933,"lon":0.068119,"name":"Beresford Sq / Woolwich Arsenal Stn","parentId":"490G000411","stationId":"490G000411","stopLetter":"U","topMostParentId":"490G000411"},{"icsId":"1014928","id":"490014928A","lat":51.493458,"lon":0.062224,"name":"Woolwich Ferry","parentId":"490G00014928","stationId":"490G00014928","stopLetter":"A","topMostParentId":"490G00014928"},{"icsId":"1006982","id":"490006982DG","lat":51.492843,"lon":0.055238,"name":"Kingsman Street","parentId":"490G00006982","stationId":"490G00006982","stopLetter":"DG","topMostParentId":"490G00006982"},{"icsId":"1011247","id":"490011247DC","lat":51.49209,"lon":0.051012,"name":"Prospect Vale","parentId":"490G00011247","stationId":"490G00011247","stopLetter":"DC","topMostParentId":"490G00011247"},{"icsId":"1014247","id":"490014247W","lat":51.492397,"lon":0.046834,"name":"Warspite Road","parentId":"490G00014247","stationId":"490G00014247","stopLetter":"U","topMostParentId":"490G00014247"},{"icsId":"1020099","id":"490014923W","lat":51.491424,"lon":0.042267,"name":"Cleveley Close","parentId":"490G00020099","stationId":"490G00020099","stopLetter":"V","topMostParentId":"490G00020099"},{"icsId":"1013207","id":"490013207W","lat":51.490261,"lon":0.039881,"name":"Greenwich Trust School","parentId":"490G00013207","stationId":"490G00013207","stopLetter":"W","topMostParentId":"490G00013207"},{"icsId":"1010911","id":"490015556W","lat":51.4896,"lon":0.038065,"name":"Woolwich Road / Charlton Lane","parentId":"490G00010911","stationId":"490G00010911","stopLetter":"B","topMostParentId":"490G00010911"},{"icsId":"1012854","id":"490012854W","lat":51.488696,"lon":0.03523,"name":"Stone Lake Retail Park","parentId":"490G00012854","stationId":"490G00012854","stopLetter":"D","topMostParentId":"490G00012854"},{"icsId":"1003310","id":"490003310N","lat":51.488968,"lon":0.030403,"name":"Anchor and Hope Lane","parentId":"490G00003310","stationId":"490G00003310","stopLetter":"G","topMostParentId":"490G00003310"}]},{"stopPoint":[{"icsId":"1003310","id":"490003310N","lat":51.488968,"lon":0.030403,"name":"Anchor and Hope Lane","parentId":"490G00003310","stationId":"490G00003310","stopLetter":"G","topMostParentId":"490G00003310"},{"icsId":"1015312","id":"490015312W","lat":51.489793,"lon":0.026896,"name":"Bugsbys Way / Gallions Road","parentId":"490G00015312","stationId":"490G00015312","stopLetter":"->W","topMostParentId":"490G00015312"},{"icsId":"1010912","id":"490010912W","lat":51.48988,"lon":0.021382,"name":"Peninsular Park Road","parentId":"490G00010912","stationId":"490G00010912","topMostParentId":"490G00010912"},{"icsId":"1011853","id":"490011853W","lat":51.489231,"lon":0.015721,"name":"Millennium Leisure Park East","parentId":"490G00011853","stationId":"490G00011853","stopLetter":"MH","topMostParentId":"490G00011853"},{"icsId":"1013356","id":"490013356W","lat":51.490008,"lon":0.012846,"name":"Millennium Leisure Park West","parentId":"490G00013356","stationId":"490G00013356","stopLetter":"MJ","topMostParentId":"490G00013356"},{"icsId":"1009889","id":"490009889Y","lat":51.491981,"lon":0.013711,"name":"Millennium Village South","parentId":"490G00009889","stationId":"490G00009889","stopLetter":"MK","topMostParentId":"490G00009889"},{"icsId":"1009887","id":"490009887W","lat":51.494135,"lon":0.013445,"name":"Millennium Village / Oval Square","parentId":"490G00009887","stationId":"490G00009887","stopLetter":"ML","topMostParentId":"490G00009887"},{"icsId":"1010374","id":"490010374E","lat":51.500611,"lon":0.002867,"name":"North Greenwich Station","parentId":"490G000682","stationId":"490G000682","stopLetter":"E","topMostParentId":"HUBNGW"}]},{"stopPoint":[{"icsId":"1019755","id":"490001058H","lat":51.487385,"lon":0.031485,"name":"Charlton Stn  / Charlton Church Lane","parentId":"490G000947","stationId":"490G000947","stopLetter":"H","topMostParentId":"490G000947"},{"icsId":"1003310","id":"490003310N","lat":51.488968,"lon":0.030403,"name":"Anchor and Hope Lane","parentId":"490G00003310","stationId":"490G00003310","stopLetter":"G","topMostParentId":"490G00003310"}]}]}