{"direction":"inbound","lineId":"488","lineName":"488","mode":"bus","stopPointSequences":[{"stopPoint":[{"icsId":"1001568","id":"490001568N","lat":51.545315,"lon":-0.07569,"name":"Dalston Junction","parentId":"490G06929C","stationId":"490G06929C","stopLetter":"N","topMostParentId":"910GDALS"},{"icsId":"1005947","id":"490005945L","lat":51.546899,"lon":-0.075739,"name":"Kingsland High Street / Dalston Jct","parentId":"490G00005947","stationId":"490G00005947","stopLetter":"L","topMostParentId":"490G00005947"},{"icsId":"1001081","id":"490001081P","lat":51.548343,"lon":-0.075534,"name":"Dalston Kingsland Station","parentId":"490G01081P","stationId":"490G01081P","stopLetter":"P","topMostParentId":"910GDALSKLD"},{"icsId":"1015851","id":"490015851S","lat":51.550133,"lon":-0.075545,"name":"Rio Cinema","parentId":"490G00015851","stationId":"490G00015851","stopLetter":"S","topMostParentId":"490G00015851"},{"icsId":"1012019","id":"490012019X","lat":51.55085,"lon":-0.073784,"name":"Shacklewell Lane","parentId":"490G00012019","stationId":"490G00012019","stopLetter":"X","topMostParentId":"490G00012019"},{"icsId":"1003221","id":"490003221E","lat":51.552451,"lon":-0.071048,"name":"The Petchey Academy","parentId":"490G00003221","stationId":"490G00003221","stopLetter":"->E","topMostParentId":"490G00003221"},{"icsId":"1015434","id":"490015434E","lat":51.554007,"lon":-0.068861,"name":"Shacklewell Lane / Amhurst Road","parentId":"490G00015434","stationId":"490G00015434","stopLetter":"W","topMostParentId":"490G00015434"},{"icsId":"1003213","id":"490003213E","lat":51.555577,"lon":-0.067525,"name":"Downs Road / Rectory Road","parentId":"490G00003213","stationId":"490G00003213","stopLetter":"->E","topMostParentId":"490G00003213"},{"icsId":"1003209","id":"490003209N","lat":51.556751,"lon":-0.065139,"name":"Ottaway Street","parentId":"490G00003209","stationId":"490G00003209","stopLetter":"->N","topMostParentId":"490G00003209"},{"icsId":"1003197","id":"490003197E","lat":51.558516,"lon":-0.062525,"name":"Muir Road","parentId":"490G00003197","stationId":"490G00003197","stopLetter":"->E","topMostParentId":"490G00003197"},{"icsId":"1003230","id":"490003230W","lat":51.558463,"lon":-0.057189,"name":"Lea Bridge Roundabout / B6 College","parentId":"490G00003230","stationId":"490G00003230","stopLetter":"W","topMostParentId":"490G00003230"},{"icsId":"1005340","id":"490009035E","lat":51.556802,"lon":-0.055687,"name":"Clapton Pond","parentId":"490G00005340","stationId":"490G00005340","stopLetter":"E","topMostParentId":"490G00005340"},{"icsId":"1009896","id":"490009896G","lat":51.554975,"lon":-0.05451,"name":"Millfields Road","parentId":"490G00009896","stationId":"490G00009896","stopLetter":"G","topMostParentId":"490G00009896"},{"icsId":"1009195","id":"490009195S","lat":51.553289,"lon":-0.053154,"name":"Clapton Girls' Academy","parentId":"490G00009195","stationId":"490G00009195","stopLetter":"M","topMostParentId":"490G00009195"},{"icsId":"1009418","id":"490009411X","lat":51.550097,"lon":-0.051026,"name":"Jack Dunning Estate","parentId":"490G00009418","stationId":"490G00009418","stopLetter":"X","topMostParentId":"490G00009418"},{"icsId":"1008501","id":"490008501P","lat":51.549156,"lon":-0.050662,"name":"The City Academy","parentId":"490G00008501","stationId":"490G00008501","stopLetter":"P","topMostParentId":"490G00008501"},{"icsId":"1006795","id":"490006795C","lat":51.54837,"lon":-0.047205,"name":"Fenn Street","parentId":"490G00006795","stationId":"490G00006795","stopLetter":"C","topMostParentId":"490G00006795"},{"icsId":"1019143","id":"490008327D","lat":51.549313,"lon":-0.047122,"name":"Homerton Hospital / Homerton Row","parentId":"490G00019143","stationId":"490G00019143","stopLetter":"D","topMostParentId":"490G00019143"},{"icsId":"1016762","id":"490008327E","lat":51.549828,"lon":-0.044604,"name":"Homerton Hospital / Wardle Street","parentId":"490G00016762","stationId":"490G00016762","stopLetter":"E","topMostParentId":"490G00016762"},{"icsId":"1007622","id":"490007622L","lat":51.548861,"lon":-0.040001,"name":"Glyn Road","parentId":"490G00007622","stationId":"490G00007622","stopLetter":"L","topMostParentId":"490G00007622"},{"icsId":"1004776","id":"490004776S","lat":51.547837,"lon":-0.037377,"name":"Ickburgh School","parentId":"490G00004776","stationId":"490G00004776","stopLetter":"->S","topMostParentId":"490G00004776"},{"icsId":"1003903","id":"490003903S","lat":51.545763,"lon":-0.035981,"name":"Wick Road","parentId":"490G00003903","stationId":"490G00003903","stopLetter":"SA","topMostParentId":"490G00003903"},{"icsId":"1014662","id":"490014662S","lat":51.54453,"lon":-0.029486,"name":"Hackney Wick / Trowbridge Road","parentId":"490G00014662","stationId":"490G00014662","stopLetter":"K","topMostParentId":"490G00014662"},{"icsId":"1001129","id":"490011721G","lat":51.542985,"lon":-0.027419,"name":"Hackney Wick Station","parentId":"490G01129G","stationId":"490G01129G","stopLetter":"G","topMostParentId":"910GHACKNYW"},{"icsId":"1014198","id":"490014198S","lat":51.541722,"lon":-0.026651,"name":"Rothbury Road","parentId":"490G00014198","stationId":"490G00014198","stopLetter":"E","topMostParentId":"490G00014198"},{"icsId":"1009968","id":"490009968W","lat":51.539306,"lon":-0.025732,"name":"Monier Road","parentId":"490G00009968","stationId":"490G00009968","stopLetter":"OH","topMostParentId":"490G00009968"},{"icsId":"1008556","id":"490008556W","lat":51.538661,"lon":-0.02749,"name":"Wick Lane","parentId":"490G00008556","stationId":"490G00008556","stopLetter":"OJ","topMostParentId":"490G00008556"},{"icsId":"1010552","id":"490010552S","lat":51.536835,"lon":-0.028521,"name":"Old Ford Road","parentId":"490G00010552","stationId":"490G00010552","stopLetter":"OK","topMostParentId":"490G00010552"},{"icsId":"1011654","id":"490011654S","lat":51.534881,"lon":-0.027337,"name":"Roman Road Market","parentId":"490G00011654","stationId":"490G00011654","stopLetter":"OL","topMostParentId":"490G00011654"},{"icsId":"1013779","id":"490013779S","lat":51.532142,"lon":-0.023288,"name":"Tredegar Road","parentId":"490G00013779","stationId":"490G00013779","stopLetter":"Q","topMostParentId":"490G00013779"},{"icsId":"1004205","id":"490004205D","lat":51.529951,"lon":-0.020817,"name":"Bow Bus Garage","parentId":"490G00004205","stationId":"490G00004205","stopLetter":"D","topMostParentId":"490G00004205"},{"icsId":"1004206","id":"490004215M","lat":51.52895,"lon":-0.016881,"name":"Bow Church","parentId":"490G000421","stationId":"490G000421","stopLetter":"M","topMostParentId":"490G000421"},{"icsId":"1004220","id":"490004220S","lat":51.528005,"lon":-0.01153,"name":"Hancock Road","parentId":"490G00004220","stationId":"490G00004220","stopLetter":"X","topMostParentId":"490G00004220"}]}]}