{"direction":"inbound","lineId":"492","lineName":"492","mode":"bus","stopPointSequences":[{"stopPoint":[{"icsId":"1004120","id":"2400A070090A","lat":51.43758,"lon":0.275869,"name":"Bluewater Shopping Centre","parentId":"240G070000A","stationId":"240G070000A","stopLetter":"10","topMostParentId":"240G070000A"},{"icsId":"1019868","id":"2400A018740A","lat":51.447884,"lon":0.275935,"name":"Waterstone Park","topMostParentId":"2400A018740A"},{"icsId":"1014788","id":"2400A018750A","lat":51.446969,"lon":0.270291,"name":"Winston Close","topMostParentId":"2400A018750A"},{"icsId":"1014867","id":"2400A018760A","lat":51.446218,"lon":0.263043,"name":"The Bull","parentId":"240GA018880A","stationId":"240GA018880A","topMostParentId":"910GSTCR"},{"icsId":"1006518","id":"2400A018770A","lat":51.445538,"lon":0.259642,"name":"Elm Road","topMostParentId":"2400A018770A"},{"icsId":"1015723","id":"2400A018780A","lat":51.44386,"lon":0.250104,"name":"Welsh Tavern","topMostParentId":"2400A018780A"},{"icsId":"1015721","id":"2400A018790A","lat":51.442907,"lon":0.244906,"name":"Brent School","topMostParentId":"2400A018790A"},{"icsId":"1009877","id":"2400A018800A","lat":51.442566,"lon":0.240644,"name":"Milestone Road","topMostParentId":"2400A018800A"},{"icsId":"1019121","id":"2400A018810A","lat":51.442106,"lon":0.236491,"name":"Brentfield Road","topMostParentId":"2400A018810A"},{"icsId":"1015726","id":"2400A019260A","lat":51.441672,"lon":0.233319,"name":"St Vincents Road","topMostParentId":"2400A019260A"},{"icsId":"1010821","id":"2400A019270A","lat":51.442,"lon":0.231205,"name":"Park Road","topMostParentId":"2400A019270A"},{"icsId":"1015725","id":"2400A019280A","lat":51.442695,"lon":0.227296,"name":"Livingston Hospital","topMostParentId":"2400A019280A"},{"icsId":"1005967","id":"2400A019330A","lat":51.44359,"lon":0.218028,"name":"Market Street","parentId":"240G019320A","stationId":"240G019320A","stopLetter":"L","topMostParentId":"240G019320A"},{"icsId":"1005968","id":"2400A019660A","lat":51.442672,"lon":0.214703,"name":"Instone Road","stopLetter":"R","topMostParentId":"2400A019660A"},{"icsId":"1005966","id":"2400A019680A","lat":51.44472,"lon":0.212456,"name":"Dartford Magistrates Court","stopLetter":"T","topMostParentId":"2400A019680A"},{"icsId":"1014474","id":"2400A019690A","lat":51.44592,"lon":0.207506,"name":"West Hill / Shepherds Lane","topMostParentId":"2400A019690A"},{"icsId":"1019804","id":"240090629","lat":51.444839,"lon":0.206173,"name":"Dartford Grammar School For Boys","topMostParentId":"240090629"},{"icsId":"1015720","id":"240090625","lat":51.443775,"lon":0.202467,"name":"Dartford Grammar School For Girls","topMostParentId":"240090625"},{"icsId":"1012228","id":"2400102543","lat":51.443333,"lon":0.199682,"name":"Somerset Road","topMostParentId":"2400102543"},{"icsId":"1007909","id":"2400102539","lat":51.441758,"lon":0.197347,"name":"Shepherds Lane / Havelock Road","topMostParentId":"2400102539"},{"icsId":"1011211","id":"2400102537","lat":51.443812,"lon":0.193819,"name":"Princes Road","topMostParentId":"2400102537"},{"icsId":"1011967","id":"2400102533","lat":51.44296,"lon":0.188857,"name":"Seaton Road","topMostParentId":"2400102533"},{"icsId":"1010400","id":"2400102529","lat":51.44411,"lon":0.185041,"name":"Chastilian Road / North Road","topMostParentId":"2400102529"},{"icsId":"1005044","id":"490005044W","lat":51.444155,"lon":0.181661,"name":"Chastilian Road / Station Road","parentId":"490G00005044","stationId":"490G00005044","topMostParentId":"490G00005044"},{"icsId":"1011774","id":"490011774N","lat":51.445935,"lon":0.180278,"name":"Royston Road","parentId":"490G00011774","stationId":"490G00011774","stopLetter":"K","topMostParentId":"490G00011774"},{"icsId":"1001073","id":"490001073P","lat":51.44818,"lon":0.180932,"name":"Crayford Station","parentId":"490G01073N","stationId":"490G01073N","stopLetter":"L","topMostParentId":"910GCRFD"},{"icsId":"1005728","id":"490005728K","lat":51.45028,"lon":0.180672,"name":"Crayford Town Hall","parentId":"490G00005728","stationId":"490G00005728","stopLetter":"M","topMostParentId":"490G00005728"},{"icsId":"1005726","id":"490005726F","lat":51.450191,"lon":0.178682,"name":"Crayford Bridge Sainsbury's","parentId":"490G00005726","stationId":"490G00005726","stopLetter":"N","topMostParentId":"490G00005726"},{"icsId":"1005727","id":"490005727G","lat":51.452344,"lon":0.177503,"name":"Crayford High Street","parentId":"490G00005727","stationId":"490G00005727","stopLetter":"X","topMostParentId":"490G00005727"},{"icsId":"1010578","id":"490010578W","lat":51.45404,"lon":0.17387,"name":"Old Road / Perry Street","parentId":"490G00010578","stationId":"490G00010578","stopLetter":"->W","topMostParentId":"490G00010578"},{"icsId":"1009585","id":"490009585E","lat":51.456616,"lon":0.17264,"name":"Manor Road / Manor Close","parentId":"490G00009585","stationId":"490G00009585","stopLetter":"->N","topMostParentId":"490G00009585"},{"icsId":"1014899","id":"490014899W","lat":51.458394,"lon":0.169427,"name":"Woodside Road","parentId":"490G00014899","stationId":"490G00014899","stopLetter":"->W","topMostParentId":"490G00014899"},{"icsId":"1009596","id":"490009596W","lat":51.459327,"lon":0.164678,"name":"Mayplace Road East / Manor Way","parentId":"490G00009596","stationId":"490G00009596","topMostParentId":"490G00009596"},{"icsId":"1003626","id":"490003626W","lat":51.459755,"lon":0.159962,"name":"Mayplace Road East / Barnehurst Road","parentId":"490G00003626","stationId":"490G00003626","stopLetter":"NM","topMostParentId":"490G00003626"},{"icsId":"1015380","id":"490015380W","lat":51.459164,"lon":0.156897,"name":"Mayplace Road East / Pinnacle Hill","parentId":"490G00015380","stationId":"490G00015380","stopLetter":"NN","topMostParentId":"490G00015380"},{"icsId":"1006622","id":"490006620W","lat":51.458865,"lon":0.1536,"name":"Erith Road","parentId":"490G00006622","stationId":"490G00006622","stopLetter":"NP","topMostParentId":"490G00006622"},{"icsId":"1013748","id":"490013748W","lat":51.45762,"lon":0.149929,"name":"Tower Road","parentId":"490G00013748","stationId":"490G00013748","stopLetter":"NQ","topMostParentId":"490G00013748"},{"icsId":"1003975","id":"490003975L","lat":51.456547,"lon":0.147129,"name":"Bexleyheath Clock Tower","parentId":"490G00003975","stationId":"490G00003975","stopLetter":"L","topMostParentId":"490G00003975"},{"icsId":"1003972","id":"490003972E","lat":51.45578,"lon":0.15072,"name":"Bexleyheath / Highland Road","parentId":"490G00003972","stationId":"490G00003972","stopLetter":"X","topMostParentId":"490G00003972"},{"icsId":"1007662","id":"490007662S","lat":51.452762,"lon":0.151989,"name":"Halcot Avenue","parentId":"490G00007662","stationId":"490G00007662","stopLetter":"C","topMostParentId":"490G00007662"},{"icsId":"1004489","id":"490004489S","lat":51.451449,"lon":0.152935,"name":"Broomfield Road","parentId":"490G00004489","stationId":"490G00004489","stopLetter":"D","topMostParentId":"490G00004489"},{"icsId":"1007386","id":"490007386S","lat":51.44876,"lon":0.156881,"name":"Gravel Hill Close","parentId":"490G00007386","stationId":"490G00007386","stopLetter":"E","topMostParentId":"490G00007386"},{"icsId":"1007872","id":"490007872J","lat":51.444824,"lon":0.152292,"name":"Hartford Road","parentId":"490G00007872","stationId":"490G00007872","stopLetter":"J","topMostParentId":"490G00007872"},{"icsId":"1003984","id":"490003984G","lat":51.442332,"lon":0.150909,"name":"Bexley Library","parentId":"490G00003984","stationId":"490G00003984","stopLetter":"G","topMostParentId":"490G00003984"},{"icsId":"1014042","id":"490014042K","lat":51.439219,"lon":0.152921,"name":"North Cray Road / Vicarage Road","parentId":"490G00014042","stationId":"490G00014042","stopLetter":"K","topMostParentId":"490G00014042"},{"icsId":"1010083","id":"490010083S","lat":51.43444,"lon":0.146293,"name":"Mount Mascal Farm","parentId":"490G00010083","stationId":"490G00010083","topMostParentId":"490G00010083"},{"icsId":"1004578","id":"490004579S","lat":51.429995,"lon":0.13951,"name":"Bunkers Hill / The White Cross","parentId":"490G00004578","stationId":"490G00004578","stopLetter":"->S","topMostParentId":"490G00004578"},{"icsId":"1010858","id":"490010858S","lat":51.425544,"lon":0.135059,"name":"Parsonage Lane / North Cray Church","parentId":"490G00010858","stationId":"490G00010858","stopLetter":"->S","topMostParentId":"490G00010858"},{"icsId":"1006482","id":"490006482S","lat":51.419962,"lon":0.132943,"name":"Ellenborough Road","parentId":"490G00006482","stationId":"490G00006482","stopLetter":"->S","topMostParentId":"490G00006482"},{"icsId":"1003662","id":"490003662S","lat":51.416906,"lon":0.129364,"name":"Barton Road","parentId":"490G00003662","stationId":"490G00003662","topMostParentId":"490G00003662"},{"icsId":"1019342","id":"490015422W","lat":51.415354,"lon":0.125682,"name":"Ruxley Corner","parentId":"490G00019342","stationId":"490G00019342","stopLetter":"FL","topMostParentId":"490G00019342"},{"icsId":"1012143","id":"490012143W","lat":51.417277,"lon":0.121341,"name":"Five Arches Business Estate","parentId":"490G00012143","stationId":"490G00012143","stopLetter":"FM","topMostParentId":"490G00012143"},{"icsId":"1019784","id":"490011463W","lat":51.418886,"lon":0.117374,"name":"Sidcup Hill / Cray Road","parentId":"490G00019784","stationId":"490G00019784","stopLetter":"FU","topMostParentId":"490G00019784"},{"icsId":"1009854","id":"490009854W","lat":51.420304,"lon":0.11406,"name":"Middleton Avenue","parentId":"490G00009854","stationId":"490G00009854","stopLetter":"->W","topMostParentId":"490G00009854"},{"icsId":"1008885","id":"490008885W","lat":51.422127,"lon":0.110203,"name":"Knoll Road","parentId":"490G00008885","stationId":"490G00008885","stopLetter":"->W","topMostParentId":"490G00008885"},{"icsId":"1005299","id":"490005299Z","lat":51.424534,"lon":0.106387,"name":"Church Road","parentId":"490G00005299","stationId":"490G00005299","stopLetter":"Z","topMostParentId":"490G00005299"},{"icsId":"1012140","id":"490012140V","lat":51.426344,"lon":0.101723,"name":"Sidcup High Street / Station Road","parentId":"490G00012140","stationId":"490G00012140","stopLetter":"V","topMostParentId":"490G00012140"},{"icsId":"1005747","id":"490005743N","lat":51.431341,"lon":0.101923,"name":"Crescent Road","parentId":"490G00005747","stationId":"490G00005747","stopLetter":"N","topMostParentId":"490G00005747"},{"icsId":"1019885","id":"490015177L","lat":51.432571,"lon":0.102498,"name":"Sidcup Station  / Station Road","parentId":"490G000962","stationId":"490G000962","stopLetter":"L","topMostParentId":"490G000962"},{"icsId":"1001249","id":"490015534D","lat":51.433608,"lon":0.104847,"name":"Sidcup Station","parentId":"490G01249Z","stationId":"490G01249Z","stopLetter":"D","topMostParentId":"910GSIDCUP"}]}]}