{"direction":"inbound","lineId":"5","lineName":"5","mode":"bus","stopPointSequences":[{"stopPoint":[{"icsId":"1000039","id":"490000039F","lat":51.514574,"lon":0.008293,"name":"Canning Town Bus Station","parentId":"490G00039A","stationId":"490G00039A","stopLetter":"F","topMostParentId":"HUBCAN","zone":"2/3"},{"icsId":"1011429","id":"490011429J","lat":51.516866,"lon":0.009922,"name":"Rathbone Market","parentId":"490G00011429","stationId":"490G00011429","stopLetter":"J","topMostParentId":"490G00011429"},{"icsId":"1003750","id":"490003750L","lat":51.517549,"lon":0.012013,"name":"Hermit Road","parentId":"490G00003750","stationId":"490G00003750","stopLetter":"L","topMostParentId":"490G00003750"},{"icsId":"1005902","id":"490005902E","lat":51.51956,"lon":0.016412,"name":"Rokeby School","parentId":"490G00005902","stationId":"490G00005902","stopLetter":"S","topMostParentId":"490G00005902"},{"icsId":"1008834","id":"490008834E","lat":51.520816,"lon":0.01922,"name":"King Street","parentId":"490G00008834","stationId":"490G00008834","stopLetter":"BH","topMostParentId":"490G00008834"},{"icsId":"1003551","id":"490003551E","lat":51.522162,"lon":0.021961,"name":"Balaam Street","parentId":"490G00003551","stationId":"490G00003551","stopLetter":"BJ","topMostParentId":"490G00003551"},{"icsId":"1011047","id":"490011047E","lat":51.523424,"lon":0.024915,"name":"Plaistow Police Station","parentId":"490G00011047","stationId":"490G00011047","stopLetter":"BK","topMostParentId":"490G00011047"},{"icsId":"1011040","id":"490011040E","lat":51.526431,"lon":0.029935,"name":"Plaistow / Prince Regent Lane","parentId":"490G00011040","stationId":"490G00011040","stopLetter":"BM","topMostParentId":"490G00011040"},{"icsId":"1010201","id":"490010201E","lat":51.527903,"lon":0.032207,"name":"New City Road","parentId":"490G00010201","stationId":"490G00010201","stopLetter":"BN","topMostParentId":"490G00010201"},{"icsId":"1016264","id":"490016264E","lat":51.52897,"lon":0.033926,"name":"Samson Street","parentId":"490G00016264","stationId":"490G00016264","stopLetter":"T","topMostParentId":"490G00016264"},{"icsId":"1003273","id":"490003273O","lat":51.530212,"lon":0.036433,"name":"Upton Park / Green Street","parentId":"490G00003273","stationId":"490G00003273","stopLetter":"O","topMostParentId":"490G00003273"},{"icsId":"1013959","id":"490013959E","lat":51.530628,"lon":0.039941,"name":"Upton Park / Priory Road","parentId":"490G00013959","stationId":"490G00013959","stopLetter":"Q","topMostParentId":"490G00013959"},{"icsId":"1003390","id":"490003390E","lat":51.531157,"lon":0.043122,"name":"Arragon Road","parentId":"490G00003390","stationId":"490G00003390","stopLetter":"W","topMostParentId":"490G00003390"},{"icsId":"1008601","id":"490008601E","lat":51.531705,"lon":0.046275,"name":"Katherine Road","parentId":"490G00008601","stationId":"490G00008601","topMostParentId":"490G00008601"},{"icsId":"1003659","id":"490003659P","lat":51.53251,"lon":0.051113,"name":"Bartle Avenue","parentId":"490G00003659","stationId":"490G00003659","stopLetter":"P","topMostParentId":"490G00003659"},{"icsId":"1006360","id":"490006360S","lat":51.532966,"lon":0.053339,"name":"High Street North","parentId":"490G00006360","stationId":"490G00006360","stopLetter":"S","topMostParentId":"490G00006360"},{"icsId":"1010218","id":"490010218O","lat":51.533265,"lon":0.055775,"name":"Newham Town Hall","parentId":"490G00010218","stationId":"490G00010218","stopLetter":"O","topMostParentId":"490G00010218"},{"icsId":"1003280","id":"490003280X","lat":51.533658,"lon":0.058474,"name":"Altmore Avenue","parentId":"490G00003280","stationId":"490G00003280","stopLetter":"X","topMostParentId":"490G00003280"},{"icsId":"1012843","id":"490012843E","lat":51.533945,"lon":0.063678,"name":"St Olave's Road","parentId":"490G00012843","stationId":"490G00012843","stopLetter":"W","topMostParentId":"490G00012843"},{"icsId":"1004592","id":"490004592E","lat":51.535757,"lon":0.06748,"name":"Burges Road","parentId":"490G00004592","stationId":"490G00004592","stopLetter":"V","topMostParentId":"490G00004592"},{"icsId":"1010408","id":"490010408P","lat":51.537641,"lon":0.074862,"name":"North Street","parentId":"490G00010408","stationId":"490G00010408","stopLetter":"P","topMostParentId":"490G00010408"},{"icsId":"1003616","id":"490003616E","lat":51.53834,"lon":0.078557,"name":"Barking Town Centre","parentId":"490G00003616","stationId":"490G00003616","stopLetter":"E","topMostParentId":"490G00003616"},{"icsId":"1000015","id":"490000015K","lat":51.539327,"lon":0.081227,"name":"Barking Station","parentId":"490G00015G","stationId":"490G00015G","stopLetter":"K","topMostParentId":"HUBBKG","zone":"4"},{"icsId":"1006734","id":"490006734E","lat":51.541695,"lon":0.084623,"name":"Park Avenue","parentId":"490G00006734","stationId":"490G00006734","stopLetter":"EB","topMostParentId":"490G00006734"},{"icsId":"1008419","id":"490008419E","lat":51.543583,"lon":0.088199,"name":"Hulse Avenue / Barking Park","parentId":"490G00008419","stationId":"490G00008419","stopLetter":"BA","topMostParentId":"490G00008419"},{"icsId":"1006700","id":"490006700E","lat":51.545491,"lon":0.092642,"name":"Faircross","parentId":"490G00006700","stationId":"490G00006700","stopLetter":"BB","topMostParentId":"490G00006700"},{"icsId":"1003605","id":"490003605E1","lat":51.546609,"lon":0.09552,"name":"Barking Bus Garage","parentId":"490G00003605","stationId":"490G00003605","stopLetter":"BC","topMostParentId":"490G00003605"},{"icsId":"1013653","id":"490013653E","lat":51.548373,"lon":0.099467,"name":"Thurlestone Avenue","parentId":"490G00013653","stationId":"490G00013653","stopLetter":"UE","topMostParentId":"490G00013653"},{"icsId":"1004768","id":"490004768E","lat":51.549551,"lon":0.102983,"name":"Capel Gardens","parentId":"490G00004768","stationId":"490G00004768","stopLetter":"UF","topMostParentId":"490G00004768"},{"icsId":"1007288","id":"490007288E","lat":51.551657,"lon":0.106874,"name":"St. Thomas More Catholic Church","parentId":"490G00007288","stationId":"490G00007288","stopLetter":"UH","topMostParentId":"490G00007288"},{"icsId":"1003760","id":"490003760E","lat":51.551873,"lon":0.113375,"name":"Becontree Avenue","parentId":"490G00003760","stationId":"490G00003760","stopLetter":"UI","topMostParentId":"490G00003760"},{"icsId":"1009182","id":"490009182E","lat":51.551351,"lon":0.11837,"name":"Lindsey Road","parentId":"490G00009182","stationId":"490G00009182","stopLetter":"UJ","topMostParentId":"490G00009182"},{"icsId":"1003535","id":"490003535E","lat":51.551499,"lon":0.125099,"name":"Bennetts Castle Lane","parentId":"490G00003535","stationId":"490G00003535","stopLetter":"EC","topMostParentId":"490G00003535"},{"icsId":"1009704","id":"490009704B","lat":51.551739,"lon":0.129236,"name":"Martins Corner / Valence Avenue","parentId":"490G00009704","stationId":"490G00009704","stopLetter":"EE","topMostParentId":"490G00009704"},{"icsId":"1019054","id":"490003965E","lat":51.552979,"lon":0.13717,"name":"Charlecote Road","parentId":"490G00019054","stationId":"490G00019054","stopLetter":"EH","topMostParentId":"490G00019054"},{"icsId":"1006865","id":"490006865E","lat":51.5543,"lon":0.142165,"name":"Winmill Road","parentId":"490G00006865","stationId":"490G00006865","stopLetter":"N","topMostParentId":"490G00006865"},{"icsId":"1008033","id":"490008033N","lat":51.558011,"lon":0.147245,"name":"Heathway","parentId":"490G00008033","stationId":"490G00008033","stopLetter":"K","topMostParentId":"490G00008033"},{"icsId":"1003762","id":"490003762C","lat":51.560069,"lon":0.147818,"name":"Morris Road","parentId":"490G00003762","stationId":"490G00003762","stopLetter":"C","topMostParentId":"490G00003762"},{"icsId":"1019017","id":"490003763G","lat":51.561322,"lon":0.149608,"name":"Becontree Heath Leisure Centre","parentId":"490G00019017","stationId":"490G00019017","stopLetter":"G","topMostParentId":"490G00019017"},{"icsId":"1005923","id":"490005923R","lat":51.562377,"lon":0.157305,"name":"Cu London University / Wood Lane","parentId":"490G00005923","stationId":"490G00005923","stopLetter":"R","topMostParentId":"490G00005923"},{"icsId":"1003660","id":"490003660E","lat":51.563206,"lon":0.161615,"name":"Barton Avenue","parentId":"490G00003660","stationId":"490G00003660","stopLetter":"A","topMostParentId":"490G00003660"},{"icsId":"1005381","id":"490005381E","lat":51.563692,"lon":0.165,"name":"Clayton Road","parentId":"490G00005381","stationId":"490G00005381","stopLetter":"B","topMostParentId":"490G00005381"},{"icsId":"1009090","id":"490009090E","lat":51.565132,"lon":0.171273,"name":"Leonard Avenue","parentId":"490G00009090","stationId":"490G00009090","stopLetter":"C","topMostParentId":"490G00009090"},{"icsId":"1005926","id":"490005926E","lat":51.565687,"lon":0.177706,"name":"Dagenham Road","parentId":"490G00005926","stationId":"490G00005926","stopLetter":"D","topMostParentId":"490G00005926"},{"icsId":"1010443","id":"490010443E","lat":51.565724,"lon":0.182974,"name":"Norwood Avenue","parentId":"490G00010443","stationId":"490G00010443","stopLetter":"RW","topMostParentId":"490G00010443"},{"icsId":"1016444","id":"490016444HN","lat":51.568771,"lon":0.181143,"name":"Queen's Hospital","parentId":"490G00016444","stationId":"490G00016444","stopLetter":"HN","topMostParentId":"490G00016444"},{"icsId":"1001243","id":"490001243ZA","lat":51.574655,"lon":0.183431,"name":"Romford Station","parentId":"490G01243W","stationId":"490G01243W","stopLetter":"Z","topMostParentId":"910GROMFORD"},{"icsId":"1014452","id":"490014452E","lat":51.57738,"lon":0.184356,"name":"Western Road","parentId":"490G00014452","stationId":"490G00014452","stopLetter":"PP","topMostParentId":"490G00014452"},{"icsId":"1011659","id":"490011659L","lat":51.58037,"lon":0.182695,"name":"Romford Market","parentId":"490G00011659","stationId":"490G00011659","stopLetter":"L","topMostParentId":"490G00011659"}]}]}