{"direction":"inbound","lineId":"51","lineName":"51","mode":"bus","stopPointSequences":[{"stopPoint":[{"icsId":"1001232","id":"490001220F","lat":51.373395,"lon":0.089569,"name":"Orpington Bus Station","parentId":"490G00001232","stationId":"490G00001232","stopLetter":"F","topMostParentId":"490G00001232"},{"icsId":"1013818","id":"490013818H","lat":51.371871,"lon":0.091353,"name":"Tubbenden Lane","parentId":"490G00013818","stationId":"490G00013818","stopLetter":"H","topMostParentId":"490G00013818"},{"icsId":"1019892","id":"490015411R","lat":51.373987,"lon":0.097714,"name":"High Street / Orpington War Memorial","parentId":"490G00019892","stationId":"490G00019892","stopLetter":"R","topMostParentId":"490G00019892"},{"icsId":"1014142","id":"490014142T","lat":51.376427,"lon":0.099579,"name":"Walnuts Centre","parentId":"490G00014142","stationId":"490G00014142","stopLetter":"T","topMostParentId":"490G00014142"},{"icsId":"1010636","id":"490010636V","lat":51.378277,"lon":0.101244,"name":"High Street / Broomhill Road","parentId":"490G00010636","stationId":"490G00010636","stopLetter":"V","topMostParentId":"490G00010636"},{"icsId":"1007292","id":"490007292N","lat":51.381654,"lon":0.102448,"name":"Goodmead Road","parentId":"490G00007292","stationId":"490G00007292","stopLetter":"D","topMostParentId":"490G00007292"},{"icsId":"1004808","id":"490004801N","lat":51.38203,"lon":0.107064,"name":"Carlton Parade","parentId":"490G00004808","stationId":"490G00004808","stopLetter":"L","topMostParentId":"490G00004808"},{"icsId":"1008673","id":"490011155SV","lat":51.386954,"lon":0.108311,"name":"Kent Road","parentId":"490G00008673","stationId":"490G00008673","stopLetter":"SV","topMostParentId":"490G00008673"},{"icsId":"1010455","id":"490010455SJ","lat":51.391748,"lon":0.110759,"name":"Nugent Retail Park","parentId":"490G00010455","stationId":"490G00010455","stopLetter":"SJ","topMostParentId":"490G00010455"},{"icsId":"1012606","id":"490012606SC","lat":51.395504,"lon":0.111895,"name":"Station Approach","parentId":"490G00012606","stationId":"490G00012606","stopLetter":"SC","topMostParentId":"490G00012606"},{"icsId":"1012410","id":"490012410N","lat":51.398022,"lon":0.112931,"name":"Springvale Way","parentId":"490G00012410","stationId":"490G00012410","stopLetter":"A","topMostParentId":"490G00012410"},{"icsId":"1013276","id":"490013276N","lat":51.401662,"lon":0.113056,"name":"Broomwood Road","parentId":"490G00013276","stationId":"490G00013276","stopLetter":"B","topMostParentId":"490G00013276"},{"icsId":"1014152","id":"490014152N","lat":51.406489,"lon":0.113135,"name":"Walsingham Road","parentId":"490G00014152","stationId":"490G00014152","stopLetter":"C","topMostParentId":"490G00014152"},{"icsId":"1000565","id":"490009863N","lat":51.410188,"lon":0.112486,"name":"Sevenoaks Way / Midfield Way","parentId":"490G000123","stationId":"490G000123","stopLetter":"D","topMostParentId":"490G000123"},{"icsId":"1005780","id":"490005780N","lat":51.414389,"lon":0.113427,"name":"Crittall's Corner","parentId":"490G00005780","stationId":"490G00005780","stopLetter":"FS","topMostParentId":"490G00005780"},{"icsId":"1012986","id":"490012986N","lat":51.417139,"lon":0.115999,"name":"Suffolk Road","parentId":"490G00012986","stationId":"490G00012986","stopLetter":"FT","topMostParentId":"490G00012986"},{"icsId":"1019784","id":"490011463W","lat":51.418886,"lon":0.117374,"name":"Sidcup Hill / Cray Road","parentId":"490G00019784","stationId":"490G00019784","stopLetter":"FU","topMostParentId":"490G00019784"},{"icsId":"1009854","id":"490009854W","lat":51.420304,"lon":0.11406,"name":"Middleton Avenue","parentId":"490G00009854","stationId":"490G00009854","stopLetter":"->W","topMostParentId":"490G00009854"},{"icsId":"1008885","id":"490008885W","lat":51.422127,"lon":0.110203,"name":"Knoll Road","parentId":"490G00008885","stationId":"490G00008885","stopLetter":"->W","topMostParentId":"490G00008885"},{"icsId":"1005299","id":"490005299Z","lat":51.424534,"lon":0.106387,"name":"Church Road","parentId":"490G00005299","stationId":"490G00005299","stopLetter":"Z","topMostParentId":"490G00005299"},{"icsId":"1012140","id":"490012140V","lat":51.426344,"lon":0.101723,"name":"Sidcup High Street / Station Road","parentId":"490G00012140","stationId":"490G00012140","stopLetter":"V","topMostParentId":"490G00012140"},{"icsId":"1005747","id":"490005743N","lat":51.431341,"lon":0.101923,"name":"Crescent Road","parentId":"490G00005747","stationId":"490G00005747","stopLetter":"N","topMostParentId":"490G00005747"},{"icsId":"1019885","id":"490015177L","lat":51.432571,"lon":0.102498,"name":"Sidcup Station  / Station Road","parentId":"490G000962","stationId":"490G000962","stopLetter":"L","topMostParentId":"490G000962"},{"icsId":"1016199","id":"490015178A","lat":51.435142,"lon":0.102098,"name":"Old Farm Avenue","parentId":"490G00016199","stationId":"490G00016199","stopLetter":"A","topMostParentId":"490G00016199"},{"icsId":"1014998","id":"490014998W","lat":51.437257,"lon":0.098468,"name":"Halfway Street / Old Farm Road West","parentId":"490G00014998","stationId":"490G00014998","topMostParentId":"490G00014998"},{"icsId":"1008291","id":"490008291W","lat":51.438219,"lon":0.09398,"name":"Hollies Avenue","parentId":"490G00008291","stationId":"490G00008291","stopLetter":"->W","topMostParentId":"490G00008291"},{"icsId":"1003333","id":"490003333N","lat":51.441798,"lon":0.095985,"name":"Annandale Road","parentId":"490G00003333","stationId":"490G00003333","stopLetter":"->N","topMostParentId":"490G00003333"},{"icsId":"1010491","id":"490010491E","lat":51.443075,"lon":0.097972,"name":"Oaklands Avenue","parentId":"490G00010491","stationId":"490G00010491","stopLetter":"J","topMostParentId":"490G00010491"},{"icsId":"1009674","id":"490009674E","lat":51.444134,"lon":0.101604,"name":"Marlborough Park Avenue","parentId":"490G00009674","stationId":"490G00009674","stopLetter":"K","topMostParentId":"490G00009674"},{"icsId":"1013489","id":"490013489N","lat":51.445972,"lon":0.103948,"name":"The Oval","parentId":"490G00013489","stationId":"490G00013489","stopLetter":"L","topMostParentId":"490G00013489"},{"icsId":"1015262","id":"490015262N","lat":51.450147,"lon":0.102787,"name":"Wellington Avenue / Blackfen Road","parentId":"490G00015262","stationId":"490G00015262","stopLetter":"M","topMostParentId":"490G00015262"},{"icsId":"1014389","id":"490014389N","lat":51.454306,"lon":0.103093,"name":"Wendover Way","parentId":"490G00014389","stationId":"490G00014389","stopLetter":"N","topMostParentId":"490G00014389"},{"icsId":"1004227","id":"490004227N","lat":51.45696,"lon":0.10002,"name":"Bradenham Avenue","parentId":"490G00004227","stationId":"490G00004227","stopLetter":"->N","topMostParentId":"490G00004227"},{"icsId":"1008341","id":"490008341N","lat":51.458842,"lon":0.099876,"name":"Hook Lane / Westwood Lane","parentId":"490G00008341","stationId":"490G00008341","topMostParentId":"490G00008341"},{"icsId":"1006735","id":"490006735N","lat":51.460484,"lon":0.104054,"name":"Faraday Road","parentId":"490G00006735","stationId":"490G00006735","stopLetter":"->N","topMostParentId":"490G00006735"},{"icsId":"1014351","id":"490014351P","lat":51.462569,"lon":0.106669,"name":"Bellegrove Road / Churchfield Road","parentId":"490G00014351","stationId":"490G00014351","stopLetter":"P","topMostParentId":"490G00014351"},{"icsId":"1011803","id":"490011803G","lat":51.462914,"lon":0.103489,"name":"Ruskin Drive","parentId":"490G00011803","stationId":"490G00011803","stopLetter":"G","topMostParentId":"490G00011803"},{"icsId":"1001318","id":"490001318B","lat":51.464436,"lon":0.09983,"name":"Welling Station","parentId":"490G01318B","stationId":"490G01318B","stopLetter":"B","topMostParentId":"910GWELLING"},{"icsId":"1004602","id":"490004602N","lat":51.468004,"lon":0.100944,"name":"Central Avenue / Wickham Street","parentId":"490G00004602","stationId":"490G00004602","stopLetter":"->N","topMostParentId":"490G00004602"},{"icsId":"1010941","id":"490010941N","lat":51.469294,"lon":0.097721,"name":"Peregrine Court","parentId":"490G00010941","stationId":"490G00010941","stopLetter":"->N","topMostParentId":"490G00010941"},{"icsId":"1005053","id":"490005053N","lat":51.471898,"lon":0.095954,"name":"Chaucer Road","parentId":"490G00005053","stationId":"490G00005053","topMostParentId":"490G00005053"},{"icsId":"1013375","id":"490013375N","lat":51.473131,"lon":0.095391,"name":"The Glenmore Arms","parentId":"490G00013375","stationId":"490G00013375","stopLetter":"->N","topMostParentId":"490G00013375"},{"icsId":"1013627","id":"490013627N","lat":51.476472,"lon":0.0936,"name":"Thornhill Avenue","parentId":"490G00013627","stationId":"490G00013627","topMostParentId":"490G00013627"},{"icsId":"1008773","id":"490008773N","lat":51.477969,"lon":0.093366,"name":"Kingsdale Road","parentId":"490G00008773","stationId":"490G00008773","stopLetter":"->N","topMostParentId":"490G00008773"},{"icsId":"1003672","id":"490003672N","lat":51.479189,"lon":0.093019,"name":"Bassant Road","parentId":"490G00003672","stationId":"490G00003672","stopLetter":"->N","topMostParentId":"490G00003672"},{"icsId":"1013607","id":"490013607W","lat":51.480017,"lon":0.088434,"name":"The Slade / Ravine Grove","parentId":"490G00013607","stationId":"490G00013607","stopLetter":"P","topMostParentId":"490G00013607"},{"icsId":"1011072","id":"490011072W","lat":51.480166,"lon":0.084134,"name":"Plumstead Common Road / Warwick Terrace","parentId":"490G00011072","stationId":"490G00011072","stopLetter":"R","topMostParentId":"490G00011072"},{"icsId":"1011073","id":"490011073W","lat":51.480623,"lon":0.081174,"name":"Plumstead Common / The Ship","parentId":"490G00011073","stationId":"490G00011073","stopLetter":"S","topMostParentId":"490G00011073"},{"icsId":"1008853","id":"490008853W","lat":51.481196,"lon":0.075756,"name":"Kirk Lane","parentId":"490G00008853","stationId":"490G00008853","stopLetter":"T","topMostParentId":"490G00008853"},{"icsId":"1013801","id":"490013801W","lat":51.481546,"lon":0.073727,"name":"Trinity Church","parentId":"490G00013801","stationId":"490G00013801","stopLetter":"WP","topMostParentId":"490G00013801"},{"icsId":"1008079","id":"490008079W","lat":51.48204,"lon":0.070739,"name":"Herbert Road","parentId":"490G00008079","stationId":"490G00008079","stopLetter":"WQ","topMostParentId":"490G00008079"},{"icsId":"1007000","id":"490007000N","lat":51.485236,"lon":0.068521,"name":"Frederick Place","parentId":"490G00007000","stationId":"490G00007000","stopLetter":"WJ","topMostParentId":"490G00007000"},{"icsId":"1005745","id":"490005742E","lat":51.487879,"lon":0.07315,"name":"Crescent Road","parentId":"490G00005745","stationId":"490G00005745","stopLetter":"WK","topMostParentId":"490G00005745"},{"icsId":"1004624","id":"490004624N1","lat":51.490431,"lon":0.072747,"name":"Burrage Road","parentId":"490G00004624","stationId":"490G00004624","topMostParentId":"490G00004624"},{"icsId":"1003917","id":"490003917D","lat":51.491933,"lon":0.068119,"name":"Beresford Sq / Woolwich Arsenal Stn","parentId":"490G000411","stationId":"490G000411","stopLetter":"U","topMostParentId":"490G000411"}]}]}