{"direction":"inbound","lineId":"56","lineName":"56","mode":"bus","stopPointSequences":[{"stopPoint":[{"icsId":"1012637","id":"490012637S","lat":51.517531,"lon":-0.101221,"name":"St Bartholomew's Hospital","parentId":"490G00012637","stationId":"490G00012637","stopLetter":"HQ","topMostParentId":"490G00012637"},{"icsId":"1008748","id":"490000225S","lat":51.515719,"lon":-0.09984,"name":"King Edward Street","parentId":"490G000621","stationId":"490G000621","stopLetter":"ST","topMostParentId":"490G000621"},{"icsId":"1008743","id":"49008743N1","lat":51.517615,"lon":-0.098075,"name":"Little Britain","parentId":"490G00008743","stationId":"490G00008743","stopLetter":"SV","topMostParentId":"490G00008743"},{"icsId":"1019953","id":"490010130N","lat":51.518229,"lon":-0.097112,"name":"Museum Of London","parentId":"490G00019953","stationId":"490G00019953","stopLetter":"BC","topMostParentId":"490G00019953"},{"icsId":"1000014","id":"490000014A","lat":51.520306,"lon":-0.097703,"name":"Barbican Station","parentId":"490G00014W","stationId":"490G00014W","stopLetter":"BA","topMostParentId":"940GZZLUBBN","zone":"1"},{"icsId":"1019002","id":"490003573N","lat":51.522848,"lon":-0.098044,"name":"Clerkenwell Road / Old Street","parentId":"490G00019002","stationId":"490G00019002","stopLetter":"BQ","topMostParentId":"490G00019002"},{"icsId":"1019863","id":"490015105N","lat":51.524072,"lon":-0.099219,"name":"Goswell Road / Great Sutton Street","parentId":"490G00019863","stationId":"490G00019863","stopLetter":"BT","topMostParentId":"490G00019863"},{"icsId":"1009099","id":"490010935N","lat":51.526072,"lon":-0.100015,"name":"Percival Street","parentId":"490G00009099","stationId":"490G00009099","stopLetter":"UQ","topMostParentId":"490G00009099"},{"icsId":"1015107","id":"490015107N","lat":51.528002,"lon":-0.1009,"name":"City University","parentId":"490G00015107","stationId":"490G00015107","stopLetter":"US","topMostParentId":"490G00015107"},{"icsId":"1003327","id":"490003327K","lat":51.531268,"lon":-0.104931,"name":"Angel Islington","parentId":"490G000390","stationId":"490G000390","stopLetter":"UT","topMostParentId":"490G000390"},{"icsId":"1000007","id":"490000007X","lat":51.533968,"lon":-0.105583,"name":"Angel Station","parentId":"490G00007G","stationId":"490G00007G","stopLetter":"X","topMostParentId":"940GZZLUAGL","zone":"1"},{"icsId":"1008515","id":"490008515C","lat":51.536219,"lon":-0.102433,"name":"Islington Green","parentId":"490G00008515","stationId":"490G00008515","stopLetter":"C","topMostParentId":"490G00008515"},{"icsId":"1010709","id":"490010709N","lat":51.537597,"lon":-0.100342,"name":"Packington Street","parentId":"490G00010709","stationId":"490G00010709","stopLetter":"K","topMostParentId":"490G00010709"},{"icsId":"1005816","id":"490005816N2","lat":51.538311,"lon":-0.099476,"name":"Cross Street","parentId":"490G00005816","stationId":"490G00005816","stopLetter":"EA","topMostParentId":"490G00005816"},{"icsId":"1001103","id":"490001103N1","lat":51.540051,"lon":-0.096938,"name":"Essex Road Station","parentId":"490G01103N2","stationId":"490G01103N2","stopLetter":"EB","topMostParentId":"910GESSEXRD"},{"icsId":"1010326","id":"490010326EE","lat":51.542483,"lon":-0.09225,"name":"Northchurch Road","parentId":"490G00010326","stationId":"490G00010326","stopLetter":"EE","topMostParentId":"490G00010326"},{"icsId":"1010515","id":"490010515N","lat":51.544495,"lon":-0.089325,"name":"Ockendon Road","parentId":"490G00010515","stationId":"490G00010515","stopLetter":"EF","topMostParentId":"490G00010515"},{"icsId":"1009871","id":"490009871E","lat":51.546654,"lon":-0.084417,"name":"Mildmay Park / Southgate Road","parentId":"490G00009871","stationId":"490G00009871","stopLetter":"CC","topMostParentId":"490G00009871"},{"icsId":"1005894","id":"490005894E","lat":51.546495,"lon":-0.081309,"name":"Culford Road","parentId":"490G00005894","stationId":"490G00005894","stopLetter":"BE","topMostParentId":"490G00005894"},{"icsId":"1005947","id":"490006090E","lat":51.54616,"lon":-0.076217,"name":"Kingsland High Street","parentId":"490G00005947","stationId":"490G00005947","stopLetter":"E","topMostParentId":"490G00005947"},{"icsId":"1005945","id":"490005945K","lat":51.546289,"lon":-0.073111,"name":"Dalston Lane / Dalston Junction Stn","parentId":"490G000481","stationId":"490G000481","stopLetter":"K","topMostParentId":"490G000481"},{"icsId":"1005944","id":"490005944N","lat":51.546849,"lon":-0.069424,"name":"Graham Road","parentId":"490G00005944","stationId":"490G00005944","stopLetter":"M","topMostParentId":"490G00005944"},{"icsId":"1007432","id":"490007432E","lat":51.548366,"lon":-0.066533,"name":"Cecilia Road / Greenacre Court","parentId":"490G00007432","stationId":"490G00007432","stopLetter":"R","topMostParentId":"490G00007432"},{"icsId":"1001128","id":"490001128N","lat":51.548929,"lon":-0.061432,"name":"Hackney Downs Station","parentId":"490G01128M","stationId":"490G01128M","stopLetter":"N","topMostParentId":"910GHAKNYNM"},{"icsId":"1010900","id":"490010900N","lat":51.552242,"lon":-0.058348,"name":"Pembury Road / Downs Park Road","parentId":"490G00010900","stationId":"490G00010900","stopLetter":"H","topMostParentId":"490G00010900"},{"icsId":"1005340","id":"490005340K","lat":51.555946,"lon":-0.056157,"name":"Clapton Pond","parentId":"490G00005340","stationId":"490G00005340","stopLetter":"K","topMostParentId":"490G00005340"},{"icsId":"1009035","id":"490009035L","lat":51.557229,"lon":-0.055972,"name":"Lea Bridge Roundabout","parentId":"490G00009035","stationId":"490G00009035","stopLetter":"L","topMostParentId":"490G00009035"},{"icsId":"1005337","id":"490005337S","lat":51.558849,"lon":-0.053883,"name":"Lea Bridge Road / Upper Clapton Road","parentId":"490G00005337","stationId":"490G00005337","stopLetter":"S","topMostParentId":"490G00005337"},{"icsId":"1014310","id":"490014310E2","lat":51.560068,"lon":-0.050946,"name":"Wattisfield Road","parentId":"490G00014310","stationId":"490G00014310","stopLetter":"R","topMostParentId":"490G00014310"},{"icsId":"1005048","id":"490005048E","lat":51.561181,"lon":-0.048099,"name":"Chatsworth Road","parentId":"490G00005048","stationId":"490G00005048","stopLetter":"V","topMostParentId":"490G00005048"},{"icsId":"1009072","id":"490009072E","lat":51.56287,"lon":-0.044218,"name":"Lee Valley Ice Centre","parentId":"490G00009072","stationId":"490G00009072","stopLetter":"W","topMostParentId":"490G00009072"},{"icsId":"1009073","id":"490009073E","lat":51.564601,"lon":-0.040162,"name":"Lee Valley Riding Centre","parentId":"490G00009073","stationId":"490G00009073","stopLetter":"X","topMostParentId":"490G00009073"},{"icsId":"1010956","id":"490010956E","lat":51.567789,"lon":-0.032406,"name":"Perth Road","parentId":"490G00010956","stationId":"490G00010956","stopLetter":"LE","topMostParentId":"490G00010956"},{"icsId":"1009131","id":"490009131E","lat":51.568802,"lon":-0.029534,"name":"Emmanuel Parish Church","parentId":"490G00009131","stationId":"490G00009131","stopLetter":"LF","topMostParentId":"490G00009131"},{"icsId":"1009668","id":"490009668E","lat":51.57005,"lon":-0.02619,"name":"Markhouse Road","parentId":"490G00009668","stationId":"490G00009668","stopLetter":"LG","topMostParentId":"490G00009668"},{"icsId":"1011612","id":"490011612E","lat":51.571836,"lon":-0.021177,"name":"Rochdale Road","parentId":"490G00011612","stationId":"490G00011612","stopLetter":"LH","topMostParentId":"490G00011612"},{"icsId":"1012123","id":"490012123E","lat":51.57322,"lon":-0.016354,"name":"Shortlands Road","parentId":"490G00012123","stationId":"490G00012123","stopLetter":"EA","topMostParentId":"490G00012123"},{"icsId":"1009130","id":"490009130N","lat":51.574814,"lon":-0.013788,"name":"High Road Leyton / Bakers Arms","parentId":"490G00009130","stationId":"490G00009130","stopLetter":"EC","topMostParentId":"490G00009130"},{"icsId":"1015102","id":"490015102C","lat":51.576388,"lon":-0.011685,"name":"Lea Bridge Road / Bakers Arms","parentId":"490G00015102","stationId":"490G00015102","stopLetter":"EH","topMostParentId":"490G00015102"},{"icsId":"1009135","id":"490009135EJ","lat":51.57768,"lon":-0.008352,"name":"Leyton Green Road","parentId":"490G00009135","stationId":"490G00009135","stopLetter":"EJ","topMostParentId":"490G00009135"},{"icsId":"1012080","id":"490012080E","lat":51.579617,"lon":-0.005381,"name":"Shernhall Street","parentId":"490G00012080","stationId":"490G00012080","stopLetter":"EK","topMostParentId":"490G00012080"},{"icsId":"1006342","id":"490006342E","lat":51.580025,"lon":-0.003443,"name":"Peterborough Road","parentId":"490G00006342","stationId":"490G00006342","stopLetter":"EL","topMostParentId":"490G00006342"},{"icsId":"1014569","id":"490014569A","lat":51.58116,"lon":-0.000925,"name":"Whipps Cross / Wood Street","parentId":"490G00014569","stationId":"490G00014569","stopLetter":"A","topMostParentId":"490G00014569"},{"icsId":"1002116","id":"490002116Y","lat":51.581383,"lon":0.001784,"name":"Whipps Cross Bus Stand","parentId":"490G000338","stationId":"490G000338","topMostParentId":"490G000338"}]}]}