{"direction":"inbound","lineId":"59","lineName":"59","mode":"bus","stopPointSequences":[{"stopPoint":[{"icsId":"1000077","id":"490000077E","lat":51.527768,"lon":-0.131704,"name":"Euston Station","parentId":"490G00077G","stationId":"490G00077G","stopLetter":"E","topMostParentId":"HUBEUS","zone":"1"},{"icsId":"1012867","id":"490012867M","lat":51.526877,"lon":-0.129938,"name":"Upper Woburn Place","parentId":"490G00012867","stationId":"490G00012867","stopLetter":"M","topMostParentId":"HUBEUS"},{"icsId":"1013170","id":"490013170S","lat":51.524904,"lon":-0.128059,"name":"Tavistock Square","parentId":"490G00013170","stationId":"490G00013170","stopLetter":"N","topMostParentId":"490G00013170"},{"icsId":"1000200","id":"490000200J","lat":51.523356,"lon":-0.126277,"name":"Russell Square","parentId":"490G00200H","stationId":"490G00200H","stopLetter":"J","topMostParentId":"940GZZLURSQ","zone":"1"},{"icsId":"1005624","id":"490005624S","lat":51.521055,"lon":-0.123489,"name":"Southampton Row","parentId":"490G00005624","stationId":"490G00005624","stopLetter":"B","topMostParentId":"490G00005624"},{"icsId":"1013477","id":"490013477A","lat":51.519578,"lon":-0.121704,"name":"Theobald's Road","parentId":"490G00013477","stationId":"490G00013477","stopLetter":"X","topMostParentId":"490G00013477"},{"icsId":"1000350","id":"490000112M","lat":51.516741,"lon":-0.11976,"name":"Kingsway / Holborn Station","parentId":"490G00000350","stationId":"490G00000350","stopLetter":"M","topMostParentId":"490G00000350"},{"icsId":"1019704","id":"490019704K","lat":51.513339,"lon":-0.116211,"name":"Aldwych / The Royal Courts Of Justice","parentId":"490G00019704","stationId":"490G00019704","stopLetter":"K","topMostParentId":"490G00019704"},{"icsId":"1003193","id":"490003193S","lat":51.51186,"lon":-0.11705,"name":"Aldwych / Somerset House","parentId":"490G000386","stationId":"490G000386","stopLetter":"S","topMostParentId":"490G000386"},{"icsId":"1014271","id":"490014271N","lat":51.507076,"lon":-0.115403,"name":"Waterloo Bridge / South Bank","parentId":"490G000819","stationId":"490G000819","stopLetter":"N","topMostParentId":"HUBWAT"},{"icsId":"1003705","id":"490000254D","lat":51.502981,"lon":-0.110687,"name":"Waterloo Station   / Waterloo Road","parentId":"490G000401","stationId":"490G000401","stopLetter":"D","topMostParentId":"HUBWAT"},{"icsId":"1015221","id":"490015221S","lat":51.50067,"lon":-0.110682,"name":"Lower Marsh","parentId":"490G00015221","stationId":"490G00015221","topMostParentId":"490G00015221"},{"icsId":"1000132","id":"490000132A","lat":51.49811,"lon":-0.111969,"name":"Lambeth North Station","parentId":"490G00132G","stationId":"490G00132G","stopLetter":"A","topMostParentId":"940GZZLULBN","zone":"1"},{"icsId":"1008476","id":"490008473S","lat":51.494745,"lon":-0.110768,"name":"Kennington Road / Imperial War Museum","parentId":"490G000608","stationId":"490G000608","stopLetter":"S","topMostParentId":"490G000608"},{"icsId":"1006864","id":"490006864S1","lat":51.492031,"lon":-0.110909,"name":"Fitzalan Street","parentId":"490G00006864","stationId":"490G00006864","stopLetter":"KF","topMostParentId":"490G00006864"},{"icsId":"1008643","id":"490008643KE","lat":51.489801,"lon":-0.110915,"name":"Kennington Lane","parentId":"490G00008643","stationId":"490G00008643","stopLetter":"KE","topMostParentId":"490G00008643"},{"icsId":"1014773","id":"490014773KQ","lat":51.487576,"lon":-0.111237,"name":"Windmill Row","parentId":"490G00014773","stationId":"490G00014773","stopLetter":"KQ","topMostParentId":"490G00014773"},{"icsId":"1008645","id":"490008645X","lat":51.485054,"lon":-0.110391,"name":"Kennington Park Post Office","parentId":"490G00008645","stationId":"490G00008645","stopLetter":"X","topMostParentId":"490G00008645"},{"icsId":"1008642","id":"490008642J","lat":51.480185,"lon":-0.111269,"name":"St Mark's Church","parentId":"490G00008642","stationId":"490G00008642","stopLetter":"J","topMostParentId":"490G00008642"},{"icsId":"1014013","id":"490014013S","lat":51.476058,"lon":-0.112419,"name":"Vassall Road","parentId":"490G00014013","stationId":"490G00014013","stopLetter":"RH","topMostParentId":"490G00014013"},{"icsId":"1007587","id":"490007587S","lat":51.473544,"lon":-0.112652,"name":"Groveway","parentId":"490G00007587","stationId":"490G00007587","stopLetter":"RJ","topMostParentId":"490G00007587"},{"icsId":"1009373","id":"490009373S1","lat":51.470942,"lon":-0.112472,"name":"Loughborough Road","parentId":"490G00009373","stationId":"490G00009373","stopLetter":"RK","topMostParentId":"490G00009373"},{"icsId":"1014085","id":"490014085S","lat":51.468316,"lon":-0.11245,"name":"Villa Road","parentId":"490G00014085","stationId":"490G00014085","stopLetter":"RL","topMostParentId":"490G00014085"},{"icsId":"1007523","id":"490007523G","lat":51.465396,"lon":-0.113723,"name":"Brixton Road / Brixton Police Station","parentId":"490G000549","stationId":"490G000549","stopLetter":"G","topMostParentId":"490G000549"},{"icsId":"1000031","id":"490000031P","lat":51.461796,"lon":-0.115253,"name":"Brixton Station","parentId":"490G00031N","stationId":"490G00031N","stopLetter":"P","topMostParentId":"HUBBRX","zone":"2"},{"icsId":"1011793","id":"490011793S","lat":51.458793,"lon":-0.116931,"name":"Rush Common","parentId":"490G00011793","stationId":"490G00011793","stopLetter":"BA","topMostParentId":"490G00011793"},{"icsId":"1004362","id":"490004362S1","lat":51.456342,"lon":-0.118328,"name":"Brixton Water Lane","parentId":"490G00004362","stationId":"490G00004362","stopLetter":"BB","topMostParentId":"490G00004362"},{"icsId":"1004101","id":"490004101S","lat":51.454058,"lon":-0.120005,"name":"Blenheim Gardens","parentId":"490G00004101","stationId":"490G00004101","stopLetter":"BC","topMostParentId":"490G00004101"},{"icsId":"1008544","id":"490008544S","lat":51.452216,"lon":-0.121203,"name":"Jebb Avenue / Brixton Prison","parentId":"490G00008544","stationId":"490G00008544","stopLetter":"BD","topMostParentId":"490G00008544"},{"icsId":"1015218","id":"490015218S","lat":51.44882,"lon":-0.12366,"name":"New Park Road","parentId":"490G00015218","stationId":"490G00015218","stopLetter":"BE","topMostParentId":"490G00015218"},{"icsId":"1008310","id":"490008310S","lat":51.447781,"lon":-0.123947,"name":"Holmewood Road","parentId":"490G00008310","stationId":"490G00008310","stopLetter":"BF","topMostParentId":"490G00008310"},{"icsId":"1019763","id":"490005234S","lat":51.444291,"lon":-0.124421,"name":"Streatham Hill / Christchurch Road","parentId":"490G00019763","stationId":"490G00019763","stopLetter":"BH","topMostParentId":"490G00019763"},{"icsId":"1000717","id":"490013186R","lat":51.442936,"lon":-0.124577,"name":"Streatham Hill / Telford Avenue","parentId":"490G000127","stationId":"490G000127","stopLetter":"R","topMostParentId":"490G000127"}]}]}