{"direction":"inbound","lineId":"602","lineName":"602","mode":"bus","stopPointSequences":[{"stopPoint":[{"icsId":"1013754","id":"490013754N","lat":51.451239,"lon":0.140374,"name":"Townley Grammar School","parentId":"490G00013754","stationId":"490G00013754","stopLetter":"W","topMostParentId":"490G00013754"},{"icsId":"1008989","id":"490008989N","lat":51.453199,"lon":0.142826,"name":"Latham Road","parentId":"490G00008989","stationId":"490G00008989","topMostParentId":"490G00008989"},{"icsId":"1003974","id":"490003974N2","lat":51.460149,"lon":0.152725,"name":"Bexleyheath Bus Garage","parentId":"490G00003974","stationId":"490G00003974","stopLetter":"NS","topMostParentId":"490G00003974"},{"icsId":"1009470","id":"490009470N","lat":51.463632,"lon":0.15453,"name":"Lyndhurst Road","parentId":"490G00009470","stationId":"490G00009470","stopLetter":"NT","topMostParentId":"490G00009470"},{"icsId":"1001013","id":"490001013A","lat":51.465813,"lon":0.157253,"name":"Barnehurst Station","parentId":"490G01013B","stationId":"490G01013B","stopLetter":"B","topMostParentId":"910GBRNHRST"},{"icsId":"1011833","id":"490011832N","lat":51.468462,"lon":0.158429,"name":"Rydal Drive","parentId":"490G00011833","stationId":"490G00011833","stopLetter":"E","topMostParentId":"490G00011833"},{"icsId":"1019145","id":"490004477N1","lat":51.470238,"lon":0.160155,"name":"Brook Street","parentId":"490G00019145","stationId":"490G00019145","stopLetter":"F","topMostParentId":"490G00019145"},{"icsId":"1019146","id":"490004477N","lat":51.472736,"lon":0.162188,"name":"Mill Road","parentId":"490G00019146","stationId":"490G00019146","stopLetter":"H","topMostParentId":"490G00019146"},{"icsId":"1010413","id":"490010413N","lat":51.474561,"lon":0.162721,"name":"Northumberland Park","parentId":"490G00010413","stationId":"490G00010413","stopLetter":"P","topMostParentId":"490G00010413"},{"icsId":"1004804","id":"490004804N","lat":51.47872,"lon":0.164458,"name":"Carlton Road","parentId":"490G00004804","stationId":"490G00004804","stopLetter":"Q","topMostParentId":"490G00004804"},{"icsId":"1009094","id":"490009094N","lat":51.480219,"lon":0.167986,"name":"Lesney Park","parentId":"490G00009094","stationId":"490G00009094","stopLetter":"R","topMostParentId":"490G00009094"},{"icsId":"1006999","id":"490006999C","lat":51.480667,"lon":0.174863,"name":"Fraser Road","parentId":"490G000523","stationId":"490G000523","stopLetter":"C","topMostParentId":"490G000523"},{"icsId":"1006617","id":"490006617M","lat":51.479482,"lon":0.181042,"name":"Erith Health Centre","parentId":"490G00006617","stationId":"490G00006617","stopLetter":"M","topMostParentId":"490G00006617"},{"icsId":"1016787","id":"490016787N","lat":51.480215,"lon":0.181783,"name":"Colebrook Street","parentId":"490G00016787","stationId":"490G00016787","stopLetter":"P","topMostParentId":"490G00016787"},{"icsId":"1005817","id":"490006622J","lat":51.480863,"lon":0.179798,"name":"Erith Town Centre / Riverside","parentId":"490G00005817","stationId":"490G00005817","stopLetter":"J","topMostParentId":"490G00005817"},{"icsId":"1006623","id":"490006623E","lat":51.481438,"lon":0.177434,"name":"Walnut Tree Road","parentId":"490G00006623","stationId":"490G00006623","stopLetter":"E","topMostParentId":"490G00006623"},{"icsId":"1006621","id":"490006621F","lat":51.483097,"lon":0.177196,"name":"Erith High Street","parentId":"490G000507","stationId":"490G000507","stopLetter":"F","topMostParentId":"490G000507"},{"icsId":"1009725","id":"490009725W","lat":51.48529,"lon":0.172893,"name":"Maxim Road / The Ship","parentId":"490G00009725","stationId":"490G00009725","stopLetter":"->W","topMostParentId":"490G00009725"},{"icsId":"1012687","id":"490012687W","lat":51.486688,"lon":0.170756,"name":"St Francis Road","parentId":"490G00012687","stationId":"490G00012687","stopLetter":"->W","topMostParentId":"490G00012687"},{"icsId":"1005279","id":"490005279W","lat":51.488055,"lon":0.168819,"name":"Lower Road / Church Manorway","parentId":"490G00005279","stationId":"490G00005279","stopLetter":"->W","topMostParentId":"490G00005279"},{"icsId":"1009739","id":"490009739W","lat":51.490217,"lon":0.161776,"name":"Mayfield Road","parentId":"490G00009739","stationId":"490G00009739","stopLetter":"->W","topMostParentId":"490G00009739"},{"icsId":"1011112","id":"490011112W","lat":51.490192,"lon":0.158764,"name":"Poplar Mount","parentId":"490G00011112","stationId":"490G00011112","stopLetter":"->W","topMostParentId":"490G00011112"},{"icsId":"1007688","id":"490007688W","lat":51.490043,"lon":0.156582,"name":"Halt Robin Lane","parentId":"490G00007688","stationId":"490G00007688","stopLetter":"G","topMostParentId":"490G00007688"},{"icsId":"1003880","id":"490003880A","lat":51.490607,"lon":0.152287,"name":"Lower Road / Belvedere Station","parentId":"490G00003880","stationId":"490G00003880","stopLetter":"H","topMostParentId":"490G00003880"},{"icsId":"1007175","id":"490007175W","lat":51.491278,"lon":0.148098,"name":"Gilbert Road","parentId":"490G00007175","stationId":"490G00007175","stopLetter":"J","topMostParentId":"490G00007175"},{"icsId":"1012627","id":"490012627W","lat":51.491145,"lon":0.144029,"name":"St Augustine's Road","parentId":"490G00012627","stationId":"490G00012627","stopLetter":"K","topMostParentId":"490G00012627"},{"icsId":"1008837","id":"490008837W","lat":51.490457,"lon":0.139358,"name":"Kingswood Avenue","parentId":"490G00008837","stationId":"490G00008837","stopLetter":"Y","topMostParentId":"490G00008837"},{"icsId":"1013841","id":"490013841W","lat":51.490215,"lon":0.136379,"name":"Tunstock Way","parentId":"490G00013841","stationId":"490G00013841","stopLetter":"->W","topMostParentId":"490G00013841"},{"icsId":"1006959","id":"490009093W","lat":51.490299,"lon":0.131284,"name":"Lesnes Abbey","parentId":"490G00006959","stationId":"490G00006959","stopLetter":"->W","topMostParentId":"490G00006959"},{"icsId":"1006958","id":"490006958W","lat":51.489905,"lon":0.126685,"name":"Fossington Road","parentId":"490G00006958","stationId":"490G00006958","topMostParentId":"490G00006958"},{"icsId":"1006877","id":"490006877L","lat":51.489707,"lon":0.122743,"name":"Florence Road","parentId":"490G000518","stationId":"490G000518","stopLetter":"L","topMostParentId":"490G000518"},{"icsId":"1003039","id":"490003039G","lat":51.489362,"lon":0.12143,"name":"Abbey Wood Road","parentId":"490G000378","stationId":"490G000378","stopLetter":"G","topMostParentId":"490G000378"},{"icsId":"1001001","id":"490001001Z","lat":51.491181,"lon":0.121789,"name":"Abbey Wood Station","parentId":"490G1001Z","stationId":"490G1001Z","stopLetter":"->N","topMostParentId":"910GABWD"},{"icsId":"1019881","id":"490013257A","lat":51.494494,"lon":0.121078,"name":"Harrow Manorway / Lensbury Way","parentId":"490G00019881","stationId":"490G00019881","stopLetter":"A","topMostParentId":"490G00019881"},{"icsId":"1010190","id":"490010190N","lat":51.497832,"lon":0.121031,"name":"Newacres Library","parentId":"490G00010190","stationId":"490G00010190","stopLetter":"->N","topMostParentId":"490G00010190"},{"icsId":"1019078","id":"490004130N","lat":51.503435,"lon":0.118986,"name":"Carlyle Road / Bentham Road","parentId":"490G00019078","stationId":"490G00019078","stopLetter":"SK","topMostParentId":"490G00019078"},{"icsId":"1011113","id":"490011113E","lat":51.505457,"lon":0.120088,"name":"Poplar Place","parentId":"490G00011113","stationId":"490G00011113","stopLetter":"SD","topMostParentId":"490G00011113"},{"icsId":"1005908","id":"490005908E","lat":51.506583,"lon":0.124435,"name":"Curlew Close","parentId":"490G00005908","stationId":"490G00005908","stopLetter":"NA","topMostParentId":"490G00005908"},{"icsId":"1009206","id":"490009206E","lat":51.5067,"lon":0.126444,"name":"Lister Walk","parentId":"490G00009206","stationId":"490G00009206","stopLetter":"NB","topMostParentId":"490G00009206"},{"icsId":"1009550","id":"490009550N","lat":51.509604,"lon":0.124489,"name":"Manordene Road","parentId":"490G00009550","stationId":"490G00009550","stopLetter":"NC","topMostParentId":"490G00009550"},{"icsId":"1010268","id":"490010268W","lat":51.509232,"lon":0.120192,"name":"Nickelby Close","parentId":"490G00010268","stationId":"490G00010268","stopLetter":"ND","topMostParentId":"490G00010268"},{"icsId":"1008405","id":"490008405W","lat":51.508959,"lon":0.116389,"name":"Hoveton Road","parentId":"490G00008405","stationId":"490G00008405","topMostParentId":"490G00008405"},{"icsId":"1009198","id":"490013216E","lat":51.507388,"lon":0.113247,"name":"Linton Mead Primary School","parentId":"490G00009198","stationId":"490G00009198","stopLetter":"E","topMostParentId":"490G00009198"},{"icsId":"1013214","id":"490013214C","lat":51.507463,"lon":0.108581,"name":"Thamesmead Town Centre","parentId":"490G00013214","stationId":"490G00013214","stopLetter":"C","topMostParentId":"490G00013214"}]}]}