{"direction":"inbound","lineId":"607","lineName":"607","mode":"bus","stopPointSequences":[{"stopPoint":[{"icsId":"1003375","id":"490003375WH","lat":51.508633,"lon":-0.223806,"name":"White City Bus Station","parentId":"490G00003375","stationId":"490G00003375","stopLetter":"WH","topMostParentId":"490G00003375"},{"icsId":"1000203","id":"490000203C","lat":51.505127,"lon":-0.217948,"name":"Shepherd's Bush Station","parentId":"490G00203A","stationId":"490G00203A","stopLetter":"C","topMostParentId":"HUBSPB","zone":"2"},{"icsId":"1012068","id":"490012068T","lat":51.504047,"lon":-0.224374,"name":"Shepherd's Bush Green","parentId":"490G000742","stationId":"490G000742","stopLetter":"P","topMostParentId":"490G000742"},{"icsId":"1012066","id":"490012066A","lat":51.505594,"lon":-0.227368,"name":"Shepherd's Bush Market Station","parentId":"490G000741","stationId":"490G000741","stopLetter":"Q","topMostParentId":"490G000741"},{"icsId":"1003110","id":"490003110W","lat":51.506391,"lon":-0.236704,"name":"Adelaide Grove","parentId":"490G00003110","stationId":"490G00003110","stopLetter":"LH","topMostParentId":"490G00003110"},{"icsId":"1004438","id":"490004438W","lat":51.506629,"lon":-0.251407,"name":"Bromyard Avenue","parentId":"490G00004438","stationId":"490G00004438","stopLetter":"VL","topMostParentId":"490G00004438"},{"icsId":"1001002","id":"490001002J","lat":51.506475,"lon":-0.26405,"name":"Acton Central Station","parentId":"490G01002H","stationId":"490G01002H","stopLetter":"J","topMostParentId":"910GACTNCTL"},{"icsId":"1003083","id":"490003083G","lat":51.5067,"lon":-0.268912,"name":"Acton Old Town Hall","parentId":"490G00003083","stationId":"490G00003083","stopLetter":"G","topMostParentId":"490G00003083"},{"icsId":"1000063","id":"490000063U","lat":51.51011,"lon":-0.287445,"name":"Ealing Common Station","parentId":"490G00063U","stationId":"490G00063U","stopLetter":"EK","topMostParentId":"940GZZLUECM","zone":"3"},{"icsId":"1000062","id":"490000062K","lat":51.514025,"lon":-0.300629,"name":"Ealing Broadway Station","parentId":"490G00062H","stationId":"490G00062H","stopLetter":"K","topMostParentId":"HUBEAL","zone":"3"},{"icsId":"1005227","id":"490005227M","lat":51.512905,"lon":-0.305297,"name":"Christchurch","parentId":"490G000455","stationId":"490G000455","stopLetter":"M","topMostParentId":"490G000455"},{"icsId":"1014430","id":"490014430X","lat":51.509802,"lon":-0.325904,"name":"West Ealing Broadway","parentId":"490G00014430","stationId":"490G00014430","stopLetter":"X","topMostParentId":"490G00014430"},{"icsId":"1007760","id":"490007760J","lat":51.508728,"lon":-0.336996,"name":"Hanwell Broadway","parentId":"490G00007760","stationId":"490G00007760","stopLetter":"J","topMostParentId":"490G00007760"},{"icsId":"1006292","id":"490015230Q","lat":51.508741,"lon":-0.347429,"name":"Ealing Hospital","parentId":"490G00006292","stationId":"490G00006292","stopLetter":"Q","topMostParentId":"490G00006292"},{"icsId":"1008498","id":"490008498W","lat":51.509686,"lon":-0.357741,"name":"Iron Bridge","parentId":"490G00008498","stationId":"490G00008498","stopLetter":"UK","topMostParentId":"490G00008498"},{"icsId":"1013594","id":"490013594K","lat":51.510852,"lon":-0.373018,"name":"Southall Police Station","parentId":"490G00013594","stationId":"490G00013594","stopLetter":"K","topMostParentId":"490G00013594"},{"icsId":"1013805","id":"490013805W","lat":51.512479,"lon":-0.386622,"name":"Trinity Road","parentId":"490G00013805","stationId":"490G00013805","stopLetter":"S","topMostParentId":"490G00013805"},{"icsId":"1013384","id":"490013384S","lat":51.51769,"lon":-0.40604,"name":"The Grapes","parentId":"490G00013384","stationId":"490G00013384","stopLetter":"S","topMostParentId":"490G00013384"},{"icsId":"1008962","id":"490008962F","lat":51.522403,"lon":-0.420794,"name":"Uxbridge County Court","parentId":"490G00008962","stationId":"490G00008962","stopLetter":"F","topMostParentId":"490G00008962"},{"icsId":"1007946","id":"490015348W","lat":51.524899,"lon":-0.432586,"name":"Hayes End","parentId":"490G00007946","stationId":"490G00007946","stopLetter":"XF","topMostParentId":"490G00007946"},{"icsId":"1009069","id":"490009069W","lat":51.530061,"lon":-0.447474,"name":"Lees Road","parentId":"490G00009069","stationId":"490G00009069","stopLetter":"UJ","topMostParentId":"490G00009069"},{"icsId":"1013396","id":"490013396N","lat":51.536581,"lon":-0.470784,"name":"The Greenway","parentId":"490G00013396","stationId":"490G00013396","stopLetter":"BE","topMostParentId":"490G00013396"},{"icsId":"1010794","id":"490010794N","lat":51.544676,"lon":-0.473051,"name":"Park Road","parentId":"490G00010794","stationId":"490G00010794","topMostParentId":"490G00010794"},{"icsId":"1015585","id":"490000246E","lat":51.547915,"lon":-0.478048,"name":"Belmont Road","parentId":"490G00015585","stationId":"490G00015585","stopLetter":"E","topMostParentId":"490G00015585"}]}]}