{"direction":"inbound","lineId":"611","lineName":"611","mode":"bus","stopPointSequences":[{"stopPoint":[{"icsId":"1006353","id":"490006353E1","lat":51.592869,"lon":-0.181816,"name":"East Finchley Cemetery","parentId":"490G00006353","stationId":"490G00006353","stopLetter":"H","topMostParentId":"490G00006353"},{"icsId":"1003670","id":"490003670W","lat":51.594582,"lon":-0.186729,"name":"Basing Way","parentId":"490G00003670","stationId":"490G00003670","stopLetter":"D","topMostParentId":"490G00003670"},{"icsId":"1009594","id":"490009594W1","lat":51.595858,"lon":-0.189566,"name":"Manor View","parentId":"490G00009594","stationId":"490G00009594","stopLetter":"E","topMostParentId":"490G00009594"},{"icsId":"1008311","id":"490008311W","lat":51.596382,"lon":-0.192693,"name":"Holmwood Gardens","parentId":"490G00008311","stationId":"490G00008311","stopLetter":"F","topMostParentId":"490G00008311"},{"icsId":"1005254","id":"490005254W","lat":51.596713,"lon":-0.197228,"name":"Church End","parentId":"490G00005254","stationId":"490G00005254","stopLetter":"G","topMostParentId":"490G00005254"},{"icsId":"1010079","id":"490010079S","lat":51.594112,"lon":-0.198875,"name":"Mountfield Road","parentId":"490G00010079","stationId":"490G00010079","stopLetter":"H","topMostParentId":"490G00010079"},{"icsId":"1005488","id":"490005488S","lat":51.591917,"lon":-0.199395,"name":"Allandale Avenue","parentId":"490G00005488","stationId":"490G00005488","stopLetter":"TA","topMostParentId":"490G00005488"},{"icsId":"1012257","id":"490012257W","lat":51.587872,"lon":-0.207711,"name":"Southbourne Crescent","parentId":"490G00012257","stationId":"490G00012257","stopLetter":"TM","topMostParentId":"490G00012257"},{"icsId":"1004323","id":"490004323S","lat":51.585994,"lon":-0.209546,"name":"Bridge Lane","parentId":"490G00004323","stationId":"490G00004323","stopLetter":"->S","topMostParentId":"490G00004323"},{"icsId":"1007269","id":"490007269W","lat":51.580152,"lon":-0.212691,"name":"Golders Green Road","parentId":"490G00007269","stationId":"490G00007269","stopLetter":"U","topMostParentId":"490G00007269"},{"icsId":"1000030","id":"490007994Y","lat":51.577801,"lon":-0.215425,"name":"Brent Cross Station","parentId":"490G00030Q","stationId":"490G00030Q","stopLetter":"Y","topMostParentId":"940GZZLUBTX","zone":"3"},{"icsId":"1011191","id":"490011191F","lat":51.576424,"lon":-0.220082,"name":"Prince Charles Drive","parentId":"490G00011191","stationId":"490G00011191","stopLetter":"F","topMostParentId":"490G00011191"},{"icsId":"1004282","id":"490004282A","lat":51.575649,"lon":-0.223519,"name":"Brent Cross Shopping Centre","parentId":"490G00004282","stationId":"490G00004282","stopLetter":"A","topMostParentId":"490G00004282"},{"icsId":"1013675","id":"490013675S","lat":51.572667,"lon":-0.225554,"name":"Tilling Road","parentId":"490G00013675","stationId":"490G00013675","stopLetter":"S","topMostParentId":"490G00013675"},{"icsId":"1012589","id":"490012589W","lat":51.570332,"lon":-0.233495,"name":"Staples Corner","parentId":"490G00012589","stationId":"490G00012589","stopLetter":"SK","topMostParentId":"490G00012589"},{"icsId":"1014274","id":"490014274W","lat":51.569766,"lon":-0.237124,"name":"Waterloo Road","parentId":"490G00014274","stationId":"490G00014274","stopLetter":"SM","topMostParentId":"490G00014274"},{"icsId":"1004483","id":"490004483W","lat":51.567889,"lon":-0.242665,"name":"Brook Road","parentId":"490G00004483","stationId":"490G00004483","stopLetter":"->W","topMostParentId":"490G00004483"},{"icsId":"1007991","id":"490007991W","lat":51.566621,"lon":-0.246264,"name":"Heather Road","parentId":"490G00007991","stationId":"490G00007991","stopLetter":"->W","topMostParentId":"490G00007991"},{"icsId":"1018964","id":"490003061S","lat":51.565156,"lon":-0.249942,"name":"Randall Avenue","parentId":"490G00018964","stationId":"490G00018964","topMostParentId":"490G00018964"},{"icsId":"1010162","id":"490010330JJ","lat":51.56117,"lon":-0.252764,"name":"Neasden Shopping Centre","parentId":"490G00010162","stationId":"490G00010162","stopLetter":"JJ","topMostParentId":"490G00010162"},{"icsId":"1014082","id":"490014082LL","lat":51.556759,"lon":-0.253048,"name":"Village Way","parentId":"490G00014082","stationId":"490G00014082","stopLetter":"LL","topMostParentId":"490G00014082"},{"icsId":"1014856","id":"490014856G","lat":51.552249,"lon":-0.257563,"name":"Woodheyes Road","parentId":"490G00014856","stationId":"490G00014856","stopLetter":"G","topMostParentId":"490G00014856"},{"icsId":"1004286","id":"490004286M","lat":51.551049,"lon":-0.261546,"name":"Brentfield Road","parentId":"490G00004286","stationId":"490G00004286","stopLetter":"M","topMostParentId":"490G00004286"},{"icsId":"1010313","id":"490010313S","lat":51.549635,"lon":-0.262595,"name":"Normansmead","parentId":"490G00010313","stationId":"490G00010313","stopLetter":"S","topMostParentId":"490G00010313"},{"icsId":"1005538","id":"490005538W","lat":51.547569,"lon":-0.265155,"name":"Conduit Way","parentId":"490G00005538","stationId":"490G00005538","stopLetter":"->W","topMostParentId":"490G00005538"},{"icsId":"1007855","id":"490007855H","lat":51.545023,"lon":-0.271193,"name":"Harrow Road","parentId":"490G00007855","stationId":"490G00007855","stopLetter":"H","topMostParentId":"490G00007855"},{"icsId":"1010347","id":"490010337S","lat":51.54509,"lon":-0.273888,"name":"Point Place","parentId":"490G00010347","stationId":"490G00010347","stopLetter":"G","topMostParentId":"490G00010347"},{"icsId":"1000224","id":"490000224A","lat":51.544029,"lon":-0.27511,"name":"Stonebridge Park Station","parentId":"490G00224L","stationId":"490G00224L","stopLetter":"A","topMostParentId":"HUBSBP","zone":"3"}]}]}