{"direction":"inbound","lineId":"612","lineName":"612","mode":"bus","stopPointSequences":[{"stopPoint":[{"icsId":"1014136","id":"490014136W","lat":51.368782,"lon":-0.14834,"name":"Wallington County Grammar School","parentId":"490G00014136","stationId":"490G00014136","stopLetter":"GV","topMostParentId":"490G00014136"},{"icsId":"1014137","id":"490014137W","lat":51.367528,"lon":-0.152614,"name":"Croydon Road / Wallington Green","parentId":"490G00014137","stationId":"490G00014137","stopLetter":"GW","topMostParentId":"490G00014137"},{"icsId":"1011352","id":"490011352S","lat":51.363776,"lon":-0.151328,"name":"Queens Road","parentId":"490G00011352","stationId":"490G00011352","stopLetter":"GD","topMostParentId":"490G00011352"},{"icsId":"1001306","id":"490001306A","lat":51.361395,"lon":-0.150376,"name":"Wallington Station  / Manor Road","parentId":"490G01306B","stationId":"490G01306B","stopLetter":"A","topMostParentId":"910GWALNGTN"},{"icsId":"1001306","id":"490001306D","lat":51.360502,"lon":-0.150756,"name":"Wallington Station","parentId":"490G01306B","stationId":"490G01306B","stopLetter":"D","topMostParentId":"910GWALNGTN"},{"icsId":"1003775","id":"490003775J","lat":51.359045,"lon":-0.14958,"name":"Wallington Town Centre","parentId":"490G000407","stationId":"490G000407","stopLetter":"J","topMostParentId":"490G000407"},{"icsId":"1012466","id":"490012466H","lat":51.356726,"lon":-0.149099,"name":"Woodcote Road / Stafford Road","parentId":"490G00012466","stationId":"490G00012466","stopLetter":"H","topMostParentId":"490G00012466"},{"icsId":"1004100","id":"490004100S","lat":51.352943,"lon":-0.148131,"name":"Blenheim Gardens","parentId":"490G00004100","stationId":"490G00004100","stopLetter":"P","topMostParentId":"490G00004100"},{"icsId":"1007680","id":"490007680S","lat":51.350619,"lon":-0.147894,"name":"Hall Road","parentId":"490G00007680","stationId":"490G00007680","stopLetter":"Q","topMostParentId":"490G00007680"},{"icsId":"1014138","id":"490014138S","lat":51.348017,"lon":-0.147712,"name":"Woodcote Green","parentId":"490G00014138","stationId":"490G00014138","stopLetter":"R","topMostParentId":"490G00014138"},{"icsId":"1009358","id":"490009358S","lat":51.344835,"lon":-0.146663,"name":"Lordsbury Field","parentId":"490G00009358","stationId":"490G00009358","stopLetter":"S","topMostParentId":"490G00009358"},{"icsId":"1006747","id":"490006747S","lat":51.341847,"lon":-0.145362,"name":"Farm Lane","parentId":"490G00006747","stationId":"490G00006747","stopLetter":"T","topMostParentId":"490G00006747"},{"icsId":"1012205","id":"490012205E","lat":51.339986,"lon":-0.143154,"name":"Smitham Bottom Lane","parentId":"490G00012205","stationId":"490G00012205","stopLetter":"A","topMostParentId":"490G00012205"},{"icsId":"1015514","id":"490015514E","lat":51.34199,"lon":-0.140216,"name":"Woodcote Lane","parentId":"490G00015514","stationId":"490G00015514","stopLetter":"B","topMostParentId":"490G00015514"},{"icsId":"1014828","id":"490014828E","lat":51.343323,"lon":-0.134706,"name":"Woodcote Drive","parentId":"490G00014828","stationId":"490G00014828","stopLetter":"->E","topMostParentId":"490G00014828"},{"icsId":"1013272","id":"490013272E","lat":51.342856,"lon":-0.130791,"name":"The Bridle Road","parentId":"490G00013272","stationId":"490G00013272","stopLetter":"->E","topMostParentId":"490G00013272"},{"icsId":"1011062","id":"490011062S","lat":51.340977,"lon":-0.124061,"name":"Plough Lane","parentId":"490G00011062","stationId":"490G00011062","stopLetter":"->S","topMostParentId":"490G00011062"},{"icsId":"1011272","id":"490011272A","lat":51.339617,"lon":-0.120011,"name":"Purley Library","parentId":"490G00011272","stationId":"490G00011272","stopLetter":"A","topMostParentId":"490G00011272"},{"icsId":"1011258","id":"490011258C","lat":51.339274,"lon":-0.117124,"name":"Purley Cross","parentId":"490G00011258","stationId":"490G00011258","stopLetter":"C","topMostParentId":"490G00011258"},{"icsId":"1011277","id":"490011270M","lat":51.337837,"lon":-0.116107,"name":"Purley Station  / Purley High Street","parentId":"490G00011277","stationId":"490G00011277","stopLetter":"M","topMostParentId":"490G00011277"},{"icsId":"1006975","id":"490006975N","lat":51.335713,"lon":-0.113222,"name":"Foxley Hill Road","parentId":"490G00006975","stationId":"490G00006975","stopLetter":"N","topMostParentId":"490G00006975"},{"icsId":"1006177","id":"490006177E","lat":51.332272,"lon":-0.107277,"name":"Downs Court Road / Selcroft Road","parentId":"490G00006177","stationId":"490G00006177","stopLetter":"->E","topMostParentId":"490G00006177"},{"icsId":"1011569","id":"490011569E","lat":51.330681,"lon":-0.101227,"name":"Riddlesdown Road","parentId":"490G00011569","stationId":"490G00011569","stopLetter":"->E","topMostParentId":"490G00011569"},{"icsId":"1011570","id":"490011570A","lat":51.330366,"lon":-0.098455,"name":"Riddlesdown School / Riddlesdown Stn","parentId":"490G00011570","stationId":"490G00011570","stopLetter":"A","topMostParentId":"490G00011570"},{"icsId":"1009407","id":"490009407E","lat":51.330172,"lon":-0.094788,"name":"Lower Barn Road","parentId":"490G00009407","stationId":"490G00009407","stopLetter":"->E","topMostParentId":"490G00009407"},{"icsId":"1011568","id":"490011568E","lat":51.330417,"lon":-0.090486,"name":"Riddlesdown","parentId":"490G00011568","stationId":"490G00011568","stopLetter":"->E","topMostParentId":"490G00011568"},{"icsId":"1009954","id":"490009954E","lat":51.33086,"lon":-0.087367,"name":"Mitchley Hill","parentId":"490G00009954","stationId":"490G00009954","stopLetter":"->E","topMostParentId":"490G00009954"},{"icsId":"1004161","id":"490004161E","lat":51.33336,"lon":-0.083488,"name":"Borrowdale Drive","parentId":"490G00004161","stationId":"490G00004161","stopLetter":"->E","topMostParentId":"490G00004161"},{"icsId":"1011895","id":"490011895E","lat":51.335391,"lon":-0.079555,"name":"Sanderstead Clinic","parentId":"490G00011895","stationId":"490G00011895","topMostParentId":"490G00011895"},{"icsId":"1011894","id":"490011894E","lat":51.336672,"lon":-0.076516,"name":"Sanderstead / All Saints Church","parentId":"490G00011894","stationId":"490G00011894","stopLetter":"->E","topMostParentId":"490G00011894"},{"icsId":"1007775","id":"490007775E","lat":51.338875,"lon":-0.07325,"name":"Harbledown Road","parentId":"490G00007775","stationId":"490G00007775","topMostParentId":"490G00007775"},{"icsId":"1011898","id":"490011898E","lat":51.339819,"lon":-0.070512,"name":"Sanderstead Plantation","parentId":"490G00011898","stationId":"490G00011898","stopLetter":"->E","topMostParentId":"490G00011898"},{"icsId":"1016426","id":"490016426E","lat":51.341253,"lon":-0.066374,"name":"Ferns Close","parentId":"490G00016426","stationId":"490G00016426","stopLetter":"G","topMostParentId":"490G00016426"},{"icsId":"1011992","id":"490011992E","lat":51.342571,"lon":-0.063963,"name":"Farley Road","parentId":"490G00011992","stationId":"490G00011992","stopLetter":"Z","topMostParentId":"490G00011992"}]}]}