{"direction":"inbound","lineId":"621","lineName":"621","mode":"bus","stopPointSequences":[{"stopPoint":[{"icsId":"1016229","id":"490016229E","lat":51.451666,"lon":0.076633,"name":"Bexley Road / Crown Woods School","parentId":"490G00016229","stationId":"490G00016229","stopLetter":"AY","topMostParentId":"490G00016229"},{"icsId":"1003504","id":"490003504N","lat":51.452167,"lon":0.078814,"name":"Avery Hill / Riefield Road","parentId":"490G00003504","stationId":"490G00003504","stopLetter":"AW","topMostParentId":"490G00003504"},{"icsId":"1005846","id":"490005846N","lat":51.455183,"lon":0.07708,"name":"Riefield Road / Crown Woods School","parentId":"490G00005846","stationId":"490G00005846","stopLetter":"->N","topMostParentId":"490G00005846"},{"icsId":"1006536","id":"490006536N","lat":51.457212,"lon":0.076755,"name":"Eltham Cemetery","parentId":"490G00006536","stationId":"490G00006536","stopLetter":"W","topMostParentId":"490G00006536"},{"icsId":"1014366","id":"490014366N","lat":51.459223,"lon":0.078473,"name":"Rochester Way / Falconwood Station","parentId":"490G00014366","stationId":"490G00014366","stopLetter":"R","topMostParentId":"490G00014366"},{"icsId":"1014365","id":"490014365N","lat":51.461422,"lon":0.075665,"name":"Rochester Way / Welling Way","parentId":"490G00014365","stationId":"490G00014365","stopLetter":"S","topMostParentId":"490G00014365"},{"icsId":"1010699","id":"490010699W","lat":51.462389,"lon":0.067762,"name":"Oxleas Meadow","parentId":"490G00010699","stationId":"490G00010699","stopLetter":"U","topMostParentId":"490G00010699"},{"icsId":"1007228","id":"490007228W","lat":51.461836,"lon":0.063922,"name":"Rochester Way / Glenesk Road","parentId":"490G00007228","stationId":"490G00007228","stopLetter":"V","topMostParentId":"490G00007228"},{"icsId":"1006494","id":"490006494S","lat":51.459538,"lon":0.047796,"name":"Elmbrook Gardens","parentId":"490G00006494","stationId":"490G00006494","stopLetter":"P","topMostParentId":"490G00006494"},{"icsId":"1004351","id":"490004351S","lat":51.457941,"lon":0.043996,"name":"Westhorne Avenue / Briset Road","parentId":"490G00004351","stationId":"490G00004351","stopLetter":"R","topMostParentId":"490G00004351"},{"icsId":"1007645","id":"490007645S","lat":51.455315,"lon":0.039877,"name":"Haimo Road","parentId":"490G00007645","stationId":"490G00007645","stopLetter":"WA","topMostParentId":"490G00007645"},{"icsId":"1007499","id":"490007499S","lat":51.453622,"lon":0.037412,"name":"Green Way","parentId":"490G00007499","stationId":"490G00007499","stopLetter":"WB","topMostParentId":"490G00007499"},{"icsId":"1015018","id":"490015018W2","lat":51.452742,"lon":0.034768,"name":"Eltham Road / Westhorne Avenue","parentId":"490G00015018","stationId":"490G00015018","stopLetter":"WP","topMostParentId":"490G00015018"},{"icsId":"1004909","id":"490004909W","lat":51.452847,"lon":0.029721,"name":"Cedarhurst Drive","parentId":"490G00004909","stationId":"490G00004909","stopLetter":"WR","topMostParentId":"490G00004909"},{"icsId":"1008704","id":"490008704W","lat":51.453525,"lon":0.025346,"name":"Eltham Road / Kidbrooke Park Road","parentId":"490G00008704","stationId":"490G00008704","stopLetter":"WS","topMostParentId":"490G00008704"},{"icsId":"1005664","id":"490005664W","lat":51.454128,"lon":0.021717,"name":"Courtlands Avenue","parentId":"490G00005664","stationId":"490G00005664","stopLetter":"WT","topMostParentId":"490G00005664"},{"icsId":"1014334","id":"490014334W","lat":51.45454,"lon":0.01972,"name":"Weigall Road","parentId":"490G00014334","stationId":"490G00014334","stopLetter":"WU","topMostParentId":"490G00014334"},{"icsId":"1004697","id":"490016464W","lat":51.45507,"lon":0.017138,"name":"Cambridge Drive","parentId":"490G00004697","stationId":"490G00004697","stopLetter":"X","topMostParentId":"490G00004697"},{"icsId":"1009075","id":"490009060A","lat":51.456101,"lon":0.012592,"name":"Lee Green","parentId":"490G00009075","stationId":"490G00009075","stopLetter":"J","topMostParentId":"490G00009075"},{"icsId":"1008924","id":"490008924W","lat":51.457228,"lon":0.008755,"name":"Lampmead Road","parentId":"490G00008924","stationId":"490G00008924","stopLetter":"N","topMostParentId":"490G00008924"},{"icsId":"1005918","id":"490005918W","lat":51.458619,"lon":0.005246,"name":"Dacre Park","parentId":"490G00005918","stationId":"490G00005918","stopLetter":"T","topMostParentId":"490G00005918"},{"icsId":"1004257","id":"490004257W","lat":51.4585,"lon":0.001167,"name":"Brandram Road","parentId":"490G00004257","stationId":"490G00004257","stopLetter":"U","topMostParentId":"490G00004257"},{"icsId":"1003868","id":"490003868W","lat":51.459236,"lon":-0.003494,"name":"Belmont Park","parentId":"490G00003868","stationId":"490G00003868","stopLetter":"V","topMostParentId":"490G00003868"},{"icsId":"1009656","id":"490009656W","lat":51.461351,"lon":-0.006741,"name":"Marischal Road","parentId":"490G00009656","stationId":"490G00009656","stopLetter":"W","topMostParentId":"490G00009656"},{"icsId":"1003864","id":"490003864M","lat":51.4618,"lon":-0.007787,"name":"Belmont Hill","parentId":"490G00003864","stationId":"490G00003864","stopLetter":"M","topMostParentId":"490G00003864"},{"icsId":"1009106","id":"490011522E","lat":51.462499,"lon":-0.009786,"name":"Lewisham Clock Tower","parentId":"490G00009106","stationId":"490G00009106","stopLetter":"R","topMostParentId":"490G00009106"},{"icsId":"1001177","id":"490001177U","lat":51.464955,"lon":-0.012977,"name":"Lewisham Station","parentId":"490G01177G","stationId":"490G01177G","stopLetter":"AP","topMostParentId":"HUBLEW","zone":"2+3"}]}]}