{"direction":"inbound","lineId":"624","lineName":"624","mode":"bus","stopPointSequences":[{"stopPoint":[{"icsId":"1016229","id":"490016229E","lat":51.451666,"lon":0.076633,"name":"Bexley Road / Crown Woods School","parentId":"490G00016229","stationId":"490G00016229","stopLetter":"AY","topMostParentId":"490G00016229"},{"icsId":"1003505","id":"490003505W","lat":51.451874,"lon":0.073519,"name":"University Of Greenwich / Mansion Site","parentId":"490G00003505","stationId":"490G00003505","stopLetter":"AE","topMostParentId":"490G00003505"},{"icsId":"1007227","id":"490007227W","lat":51.451408,"lon":0.066287,"name":"Bexley Road / Glenesk Road","parentId":"490G00007227","stationId":"490G00007227","stopLetter":"AF","topMostParentId":"490G00007227"},{"icsId":"1006548","id":"490006548W","lat":51.450706,"lon":0.061232,"name":"Eltham High Street / Foots Cray Road","parentId":"490G00006548","stationId":"490G00006548","stopLetter":"T","topMostParentId":"490G00006548"},{"icsId":"1000890","id":"490006533P","lat":51.450669,"lon":0.0572,"name":"Eltham High Street / St Mary's Place","parentId":"490G000209","stationId":"490G000209","stopLetter":"P","topMostParentId":"490G000209"},{"icsId":"1006539","id":"490006537M","lat":51.450745,"lon":0.053332,"name":"Eltham High Street / Passey Place","parentId":"490G00006539","stationId":"490G00006539","stopLetter":"M","topMostParentId":"490G00006539"},{"icsId":"1015432","id":"490015432K","lat":51.450293,"lon":0.051959,"name":"Eltham Church / Court Yard","parentId":"490G000894","stationId":"490G000894","stopLetter":"K","topMostParentId":"490G000894"},{"icsId":"1011752","id":"490011752S","lat":51.445937,"lon":0.05267,"name":"Royal Blackheath Golf Club","parentId":"490G00011752","stationId":"490G00011752","stopLetter":"->S","topMostParentId":"490G00011752"},{"icsId":"1001200","id":"490001200B","lat":51.440568,"lon":0.051638,"name":"Mottingham Station","parentId":"490G01200B","stationId":"490G01200B","stopLetter":"MD","topMostParentId":"910GMOTNGHM"},{"icsId":"1010067","id":"490010067S","lat":51.435797,"lon":0.04577,"name":"Mottingham Road / Court Road","parentId":"490G00010067","stationId":"490G00010067","stopLetter":"ME","topMostParentId":"490G00010067"},{"icsId":"1010064","id":"490010064S","lat":51.433154,"lon":0.048788,"name":"Mottingham / Prince Of Wales","parentId":"490G00010064","stationId":"490G00010064","stopLetter":"MF","topMostParentId":"490G00010064"},{"icsId":"1011447","id":"490011447S","lat":51.430788,"lon":0.051919,"name":"Mottingham Road / Ravensworth Road","parentId":"490G00011447","stationId":"490G00011447","stopLetter":"MH","topMostParentId":"490G00011447"},{"icsId":"1006254","id":"490006254W","lat":51.428933,"lon":0.051045,"name":"Dunkery Road / Mottingham Road","parentId":"490G00006254","stationId":"490G00006254","stopLetter":"R","topMostParentId":"490G00006254"},{"icsId":"1015403","id":"490015403W","lat":51.428778,"lon":0.049125,"name":"Dunkery Road / Ravensworth Road","parentId":"490G00015403","stationId":"490G00015403","stopLetter":"S","topMostParentId":"490G00015403"},{"icsId":"1003709","id":"490003709W","lat":51.429721,"lon":0.045556,"name":"Beaconsfield Road","parentId":"490G00003709","stationId":"490G00003709","stopLetter":"T","topMostParentId":"490G00003709"},{"icsId":"1005655","id":"490005655W","lat":51.429747,"lon":0.041989,"name":"Court Farm Road","parentId":"490G00005655","stationId":"490G00005655","stopLetter":"G","topMostParentId":"490G00005655"},{"icsId":"1006215","id":"490006215W","lat":51.429007,"lon":0.038058,"name":"Duddington Close","parentId":"490G00006215","stationId":"490G00006215","stopLetter":"H","topMostParentId":"490G00006215"},{"icsId":"1008073","id":"490008073W","lat":51.428027,"lon":0.034403,"name":"Henry Cooper Way","parentId":"490G00008073","stationId":"490G00008073","stopLetter":"J","topMostParentId":"490G00008073"},{"icsId":"1009706","id":"490009706N1","lat":51.428579,"lon":0.03368,"name":"Marvels Lane Primary School","parentId":"490G00009706","stationId":"490G00009706","stopLetter":"K","topMostParentId":"490G00009706"},{"icsId":"1013403","id":"490013403N","lat":51.431222,"lon":0.031654,"name":"Marvels Lane / Chinbrook Road","parentId":"490G00013403","stationId":"490G00013403","stopLetter":"L","topMostParentId":"490G00013403"},{"icsId":"1003290","id":"490003290W","lat":51.431572,"lon":0.02649,"name":"Amblecote Road","parentId":"490G00003290","stationId":"490G00003290","stopLetter":"E","topMostParentId":"490G00003290"},{"icsId":"1015553","id":"490015553F","lat":51.431513,"lon":0.022128,"name":"Chinbrook Road / Baring Road","parentId":"490G000909","stationId":"490G000909","stopLetter":"F","topMostParentId":"490G000909"},{"icsId":"1001124","id":"490015256D","lat":51.430643,"lon":0.019889,"name":"Grove Park Station","parentId":"490G01124B","stationId":"490G01124B","stopLetter":"D","topMostParentId":"910GGRVPK"}]}]}