{"direction":"inbound","lineId":"626","lineName":"626","mode":"bus","stopPointSequences":[{"stopPoint":[{"icsId":"1005946","id":"210021085060","lat":51.691324,"lon":-0.207447,"name":"Dame Alice Owen's School","parentId":"210G3434","stationId":"210G3434","topMostParentId":"210G3434"},{"icsId":"1007431","id":"490007431S","lat":51.668572,"lon":-0.196169,"name":"Greenacre Close","parentId":"490G00007431","stationId":"490G00007431","stopLetter":"->S","topMostParentId":"490G00007431"},{"icsId":"1007632","id":"490007632S","lat":51.664454,"lon":-0.199109,"name":"Hadley Highstone","parentId":"490G00007632","stationId":"490G00007632","stopLetter":"->S","topMostParentId":"490G00007632"},{"icsId":"1006280","id":"490006280S","lat":51.662734,"lon":-0.198989,"name":"Dury Road","parentId":"490G00006280","stationId":"490G00006280","stopLetter":"->S","topMostParentId":"490G00006280"},{"icsId":"1007631","id":"490007631S","lat":51.658472,"lon":-0.200763,"name":"Hadley Green","parentId":"490G00007631","stationId":"490G00007631","stopLetter":"->S","topMostParentId":"490G00007631"},{"icsId":"1012424","id":"490012424C","lat":51.655772,"lon":-0.201781,"name":"St Albans Road","parentId":"490G00012424","stationId":"490G00012424","stopLetter":"C","topMostParentId":"490G00012424"},{"icsId":"1003639","id":"490003639D","lat":51.654663,"lon":-0.201594,"name":"Barnet High Street","parentId":"490G00003639","stationId":"490G00003639","stopLetter":"D","topMostParentId":"490G00003639"},{"icsId":"1019009","id":"490003634G","lat":51.65281,"lon":-0.19918,"name":"Barnet High Street / Barnet Church","parentId":"490G00019009","stationId":"490G00019009","stopLetter":"G","topMostParentId":"490G00019009"},{"icsId":"1009772","id":"490009772N","lat":51.651363,"lon":-0.196896,"name":"High Barnet Station / Meadway","parentId":"490G000664","stationId":"490G000664","stopLetter":"N","topMostParentId":"490G000664"},{"icsId":"1008737","id":"490008737W2","lat":51.653301,"lon":-0.189576,"name":"King Edward Road","parentId":"490G00008737","stationId":"490G00008737","stopLetter":"->E","topMostParentId":"490G00008737"},{"icsId":"1012778","id":"490012778E","lat":51.653246,"lon":-0.186601,"name":"St Mark's Close","parentId":"490G00012778","stationId":"490G00012778","topMostParentId":"490G00012778"},{"icsId":"1005413","id":"490005413E","lat":51.652745,"lon":-0.180954,"name":"Clifford Road","parentId":"490G00005413","stationId":"490G00005413","topMostParentId":"490G00005413"},{"icsId":"1011048","id":"490011048G","lat":51.650679,"lon":-0.17881,"name":"Bulwer Road","parentId":"490G00011048","stationId":"490G00011048","stopLetter":"G","topMostParentId":"490G00011048"},{"icsId":"1001203","id":"490001201D","lat":51.649684,"lon":-0.176089,"name":"New Barnet Station  / Station Road","parentId":"490G00001203","stationId":"490G00001203","stopLetter":"D","topMostParentId":"490G00001203"},{"icsId":"1010193","id":"490010193C","lat":51.649874,"lon":-0.171572,"name":"New Barnet Sainsbury's","parentId":"490G00010193","stationId":"490G00010193","stopLetter":"C","topMostParentId":"490G00010193"},{"icsId":"1006313","id":"490006313E","lat":51.647547,"lon":-0.167647,"name":"Victoria Road","parentId":"490G00006313","stationId":"490G00006313","stopLetter":"BA","topMostParentId":"490G00006313"},{"icsId":"1005744","id":"490006284W","lat":51.643246,"lon":-0.166317,"name":"Crescent Road","parentId":"490G00005744","stationId":"490G00005744","stopLetter":"BT","topMostParentId":"490G00005744"},{"icsId":"1008933","id":"490008933W","lat":51.643451,"lon":-0.171367,"name":"York Road","parentId":"490G00008933","stationId":"490G00008933","topMostParentId":"490G00008933"},{"icsId":"1019965","id":"490009975W","lat":51.643441,"lon":-0.176513,"name":"Lyonsdown Avenue","parentId":"490G00019965","stationId":"490G00019965","stopLetter":"->W","topMostParentId":"490G00019965"},{"icsId":"1007893","id":"490007893S","lat":51.642823,"lon":-0.179559,"name":"Hasluck Gardens","parentId":"490G00007893","stationId":"490G00007893","stopLetter":"H","topMostParentId":"490G00007893"},{"icsId":"1009489","id":"490009489S","lat":51.640887,"lon":-0.180576,"name":"Lyonsdown Road","parentId":"490G00009489","stationId":"490G00009489","stopLetter":"J","topMostParentId":"490G00009489"},{"icsId":"1014131","id":"490014131S","lat":51.639288,"lon":-0.179512,"name":"Walfield Avenue","parentId":"490G00014131","stationId":"490G00014131","stopLetter":"K","topMostParentId":"490G00014131"},{"icsId":"1007031","id":"490007031S","lat":51.636522,"lon":-0.177427,"name":"Friern Mount Drive","parentId":"490G00007031","stationId":"490G00007031","stopLetter":"->S","topMostParentId":"490G00007031"},{"icsId":"1004978","id":"490004978S","lat":51.633615,"lon":-0.175535,"name":"Chandos Avenue","parentId":"490G00004978","stationId":"490G00004978","stopLetter":"L","topMostParentId":"490G00004978"},{"icsId":"1015488","id":"490015488M","lat":51.63101,"lon":-0.175133,"name":"Athenaeum Road","parentId":"490G000901","stationId":"490G000901","stopLetter":"M","topMostParentId":"490G000901"},{"icsId":"1007028","id":"490007028S","lat":51.628733,"lon":-0.174459,"name":"Whetstone High Road / Friern Barnet Lane","parentId":"490G00007028","stationId":"490G00007028","stopLetter":"E","topMostParentId":"490G00007028"},{"icsId":"1013104","id":"490007027S","lat":51.626696,"lon":-0.175306,"name":"Swan Lane","parentId":"490G00013104","stationId":"490G00013104","stopLetter":"H","topMostParentId":"490G00013104"},{"icsId":"1006060","id":"490006060S","lat":51.623844,"lon":-0.17636,"name":"Derwent Crescent","parentId":"490G00006060","stationId":"490G00006060","stopLetter":"J","topMostParentId":"490G00006060"},{"icsId":"1013099","id":"490013099S","lat":51.62025,"lon":-0.176519,"name":"Finchley Park","parentId":"490G00013099","stationId":"490G00013099","stopLetter":"K","topMostParentId":"490G00013099"},{"icsId":"1011442","id":"490011442A","lat":51.618032,"lon":-0.176723,"name":"Ravensdale Avenue","parentId":"490G00011442","stationId":"490G00011442","stopLetter":"A","topMostParentId":"490G00011442"},{"icsId":"1013149","id":"490015443D","lat":51.614799,"lon":-0.176463,"name":"Tally Ho Corner","parentId":"490G00013149","stationId":"490G00013149","stopLetter":"D","topMostParentId":"490G00013149"},{"icsId":"1015443","id":"490015518E","lat":51.613344,"lon":-0.175943,"name":"North Finchley Bus Station","parentId":"490G00015443","stationId":"490G00015443","stopLetter":"E","topMostParentId":"490G00015443"},{"icsId":"1019936","id":"490015443Z1","lat":51.612405,"lon":-0.176299,"name":"Kingsway / North Finchley","parentId":"490G00019936","stationId":"490G00019936","stopLetter":"T","topMostParentId":"490G00019936"},{"icsId":"1015271","id":"490015271S","lat":51.609994,"lon":-0.180887,"name":"Christchurch Avenue","parentId":"490G00015271","stationId":"490G00015271","stopLetter":"Q","topMostParentId":"490G00015271"},{"icsId":"1007373","id":"490007373F4","lat":51.609034,"lon":-0.182196,"name":"Granville Road","parentId":"490G00007373","stationId":"490G00007373","stopLetter":"LL","topMostParentId":"490G00007373"},{"icsId":"1006642","id":"490006642S","lat":51.606778,"lon":-0.185723,"name":"Victoria Park","parentId":"490G000508","stationId":"490G000508","stopLetter":"MM","topMostParentId":"490G000508"},{"icsId":"1009322","id":"490009322B","lat":51.604138,"lon":-0.189468,"name":"Long Lane","parentId":"490G00009322","stationId":"490G00009322","stopLetter":"B","topMostParentId":"490G00009322"},{"icsId":"1000081","id":"490000081D","lat":51.602167,"lon":-0.192246,"name":"Finchley Central Station","parentId":"490G00081W","stationId":"490G00081W","stopLetter":"D","topMostParentId":"940GZZLUFYC","zone":"4"}]}]}