{"direction":"inbound","lineId":"629","lineName":"629","mode":"bus","stopPointSequences":[{"stopPoint":[{"icsId":"1013843","id":"490013843S","lat":51.673544,"lon":-0.053107,"name":"Turkey Street Station","parentId":"490G00013843","stationId":"490G00013843","stopLetter":"C","topMostParentId":"490G00013843"},{"icsId":"1006580","id":"490006580S","lat":51.668729,"lon":-0.055005,"name":"Enfield Crematorium","parentId":"490G00006580","stationId":"490G00006580","stopLetter":"D","topMostParentId":"490G00006580"},{"icsId":"1008269","id":"490008269S","lat":51.664497,"lon":-0.056835,"name":"Hoe Lane","parentId":"490G00008269","stationId":"490G00008269","stopLetter":"X","topMostParentId":"490G00008269"},{"icsId":"1004829","id":"490004829S","lat":51.661102,"lon":-0.058209,"name":"Carterhatch Lane","parentId":"490G00004829","stationId":"490G00004829","stopLetter":"Y","topMostParentId":"490G00004829"},{"icsId":"1004830","id":"490004830S","lat":51.659284,"lon":-0.058663,"name":"Cambridge Gardens","parentId":"490G00004830","stationId":"490G00004830","stopLetter":"Z","topMostParentId":"490G00004830"},{"icsId":"1007396","id":"490007396W2","lat":51.649822,"lon":-0.061814,"name":"Great Cambridge Road","parentId":"490G00007396","stationId":"490G00007396","stopLetter":"J","topMostParentId":"490G00007396"},{"icsId":"1003937","id":"490003937W","lat":51.65051,"lon":-0.065341,"name":"Percival Road","parentId":"490G00003937","stationId":"490G00003937","stopLetter":"K","topMostParentId":"490G00003937"},{"icsId":"1004902","id":"490004902W","lat":51.651151,"lon":-0.069318,"name":"Cecil Avenue","parentId":"490G00004902","stationId":"490G00004902","stopLetter":"L","topMostParentId":"490G00004902"},{"icsId":"1008903","id":"490008903W","lat":51.652188,"lon":-0.074955,"name":"Ladysmith Road","parentId":"490G00008903","stationId":"490G00008903","stopLetter":"->W","topMostParentId":"490G00008903"},{"icsId":"1001101","id":"490001101M","lat":51.652188,"lon":-0.078815,"name":"Enfield Town Station","parentId":"490G01101L","stationId":"490G01101L","stopLetter":"M","topMostParentId":"910GENFLDTN"},{"icsId":"1006588","id":"490006588R","lat":51.651668,"lon":-0.079458,"name":"Enfield Town / Genotin Road","parentId":"490G000505","stationId":"490G000505","stopLetter":"R","topMostParentId":"490G000505"},{"icsId":"1004904","id":"490009169S","lat":51.64904,"lon":-0.079887,"name":"Cecil Road / St Annes School","parentId":"490G00004904","stationId":"490G00004904","stopLetter":"T","topMostParentId":"490G00004904"},{"icsId":"1010760","id":"490010760S","lat":51.646225,"lon":-0.080382,"name":"Park Crescent","parentId":"490G00010760","stationId":"490G00010760","stopLetter":"A","topMostParentId":"490G00010760"},{"icsId":"1004650","id":"490004650S","lat":51.644082,"lon":-0.080762,"name":"Bush Hill","parentId":"490G00004650","stationId":"490G00004650","stopLetter":"B","topMostParentId":"490G00004650"},{"icsId":"1011857","id":"490011857S","lat":51.641372,"lon":-0.078911,"name":"St Stephens Church","parentId":"490G00011857","stationId":"490G00011857","stopLetter":"C","topMostParentId":"490G00011857"},{"icsId":"1005549","id":"490005549S","lat":51.638619,"lon":-0.079937,"name":"Conifer Gardens","parentId":"490G00005549","stationId":"490G00005549","stopLetter":"D","topMostParentId":"490G00005549"},{"icsId":"1005306","id":"490005306S","lat":51.637199,"lon":-0.081067,"name":"Church Street","parentId":"490G00005306","stationId":"490G00005306","stopLetter":"A","topMostParentId":"490G00005306"},{"icsId":"1012220","id":"490012220W","lat":51.635798,"lon":-0.086704,"name":"Solna Road","parentId":"490G00012220","stationId":"490G00012220","stopLetter":"E","topMostParentId":"490G00012220"},{"icsId":"1007438","id":"490007438S1","lat":51.635486,"lon":-0.091833,"name":"Green Dragon Lane","parentId":"490G00007438","stationId":"490G00007438","stopLetter":"F","topMostParentId":"490G00007438"},{"icsId":"1006513","id":"490006513S","lat":51.633775,"lon":-0.093899,"name":"Shrubbery Gardens","parentId":"490G00006513","stationId":"490G00006513","stopLetter":"H","topMostParentId":"490G00006513"},{"icsId":"1012612","id":"490012612A","lat":51.632096,"lon":-0.094648,"name":"Station Road","parentId":"490G000763","stationId":"490G000763","stopLetter":"K","topMostParentId":"490G000763"},{"icsId":"1014755","id":"490014755S","lat":51.628822,"lon":-0.097921,"name":"Highfield Road","parentId":"490G00014755","stationId":"490G00014755","stopLetter":"L","topMostParentId":"490G00014755"},{"icsId":"1003653","id":"490003653S","lat":51.627192,"lon":-0.098336,"name":"Woodberry Avenue","parentId":"490G00003653","stationId":"490G00003653","stopLetter":"M","topMostParentId":"490G00003653"},{"icsId":"1009764","id":"490009764S","lat":51.624986,"lon":-0.100393,"name":"Meadowcroft Road","parentId":"490G00009764","stationId":"490G00009764","stopLetter":"->S","topMostParentId":"490G00009764"},{"icsId":"1004196","id":"490004196S","lat":51.6231,"lon":-0.10443,"name":"Bourne Hill","parentId":"490G00004196","stationId":"490G00004196","stopLetter":"->S","topMostParentId":"490G00004196"},{"icsId":"1006974","id":"490006974Z","lat":51.621137,"lon":-0.105913,"name":"Fox Lane","parentId":"490G00006974","stationId":"490G00006974","stopLetter":"Z","topMostParentId":"490G00006974"},{"icsId":"1009248","id":"490009248B","lat":51.618611,"lon":-0.107665,"name":"Lodge Drive","parentId":"490G00009248","stationId":"490G00009248","stopLetter":"B","topMostParentId":"490G00009248"},{"icsId":"1010736","id":"490010736H","lat":51.616739,"lon":-0.109202,"name":"Palmers Green / The Triangle","parentId":"490G000696","stationId":"490G000696","stopLetter":"H","topMostParentId":"490G000696"},{"icsId":"1004486","id":"490004486K","lat":51.615162,"lon":-0.109556,"name":"Broomfield Lane","parentId":"490G00004486","stationId":"490G00004486","stopLetter":"K","topMostParentId":"490G00004486"},{"icsId":"1015331","id":"490015399S","lat":51.613203,"lon":-0.109638,"name":"North Circular Road","parentId":"490G00015331","stationId":"490G00015331","stopLetter":"M","topMostParentId":"490G00015331"},{"icsId":"1010333","id":"490010333W","lat":51.611275,"lon":-0.109443,"name":"Tottenhall Road","parentId":"490G00010333","stationId":"490G00010333","stopLetter":"W","topMostParentId":"490G00010333"},{"icsId":"1003875","id":"490003925S","lat":51.60842,"lon":-0.11027,"name":"Berkshire Gardens","parentId":"490G00003875","stationId":"490G00003875","stopLetter":"BT","topMostParentId":"490G00003875"},{"icsId":"1009709","id":"490009709S","lat":51.60701,"lon":-0.11092,"name":"Arcadian Gardens","parentId":"490G00009709","stationId":"490G00009709","stopLetter":"BU","topMostParentId":"490G00009709"},{"icsId":"1010274","id":"490010274S","lat":51.603408,"lon":-0.111734,"name":"Nightingale Road","parentId":"490G00010274","stationId":"490G00010274","stopLetter":"BV","topMostParentId":"490G00010274"},{"icsId":"1004746","id":"490004746S","lat":51.601794,"lon":-0.112032,"name":"Canning Crescent","parentId":"490G00004746","stationId":"490G00004746","stopLetter":"BW","topMostParentId":"490G00004746"},{"icsId":"1007797","id":"490007797S","lat":51.599956,"lon":-0.111271,"name":"Haringey Civic Centre","parentId":"490G00007797","stationId":"490G00007797","stopLetter":"BY","topMostParentId":"490G00007797"},{"icsId":"1014852","id":"490014852S","lat":51.598109,"lon":-0.110452,"name":"Wood Green Bus Garage","parentId":"490G000844","stationId":"490G000844","stopLetter":"->S","topMostParentId":"490G000844"}]}]}