{"direction":"inbound","lineId":"63","lineName":"63","mode":"bus","stopPointSequences":[{"stopPoint":[{"icsId":"1001276","id":"490001276S","lat":51.5316,"lon":-0.127265,"name":"St Pancras International Station","parentId":"490G01276S","stationId":"490G01276S","stopLetter":"S","topMostParentId":"HUBKGX"},{"icsId":"1000129","id":"490000129D","lat":51.5304,"lon":-0.123076,"name":"King's Cross Station","parentId":"490G00129R","stationId":"490G00129R","stopLetter":"D","topMostParentId":"HUBKGX","zone":"1"},{"icsId":"1010929","id":"490010929L","lat":51.530704,"lon":-0.118449,"name":"King's Cross Road / Pentonville Road","parentId":"490G000700","stationId":"490G000700","stopLetter":"L","topMostParentId":"HUBKGX"},{"icsId":"1003087","id":"490008771S","lat":51.528581,"lon":-0.115639,"name":"Acton Street","parentId":"490G00003087","stationId":"490G00003087","stopLetter":"PO","topMostParentId":"490G00003087"},{"icsId":"1007613","id":"490007613S","lat":51.527336,"lon":-0.114797,"name":"Gwynne Place","parentId":"490G00007613","stationId":"490G00007613","stopLetter":"PP","topMostParentId":"490G00007613"},{"icsId":"1010089","id":"490010089S","lat":51.525489,"lon":-0.111226,"name":"Rosebery Avenue / Mount Pleasant","parentId":"490G00010089","stationId":"490G00010089","stopLetter":"CG","topMostParentId":"490G00010089"},{"icsId":"1004217","id":"490004217S","lat":51.523999,"lon":-0.109197,"name":"Bowling Green Lane","parentId":"490G00004217","stationId":"490G00004217","stopLetter":"CL","topMostParentId":"490G00004217"},{"icsId":"1015104","id":"490015104S","lat":51.521763,"lon":-0.10658,"name":"Clerkenwell Road","parentId":"490G00015104","stationId":"490G00015104","stopLetter":"H","topMostParentId":"490G00015104"},{"icsId":"1000080","id":"490000080B","lat":51.52024,"lon":-0.105821,"name":"Farringdon Station","parentId":"490G00080B","stationId":"490G00080B","stopLetter":"B","topMostParentId":"HUBZFD","zone":"1"},{"icsId":"1012217","id":"490012217S","lat":51.518089,"lon":-0.105132,"name":"Snow Hill","parentId":"490G000747","stationId":"490G000747","stopLetter":"HT","topMostParentId":"490G000747"},{"icsId":"1012640","id":"490012640L","lat":51.514912,"lon":-0.104414,"name":"Fleet Street / City Thameslink","parentId":"490G00012640","stationId":"490G00012640","stopLetter":"L","topMostParentId":"490G00012640"},{"icsId":"1020083","id":"490000023K","lat":51.513288,"lon":-0.104092,"name":"Apothecary Street","parentId":"490G00020083","stationId":"490G00020083","stopLetter":"K","topMostParentId":"HUBBFR"},{"icsId":"1020084","id":"490000023T","lat":51.51035,"lon":-0.104243,"name":"Blackfriars Station  / North Entrance","parentId":"490G00020084","stationId":"490G00020084","stopLetter":"L","topMostParentId":"490G00020084"},{"icsId":"1013934","id":"490013934S","lat":51.50821,"lon":-0.104303,"name":"Blackfriars Station / South Entrance","parentId":"490G00013934","stationId":"490G00013934","stopLetter":"D","topMostParentId":"HUBBFR"},{"icsId":"1012526","id":"490012526SC","lat":51.505721,"lon":-0.104421,"name":"Stamford Street","parentId":"490G00012526","stationId":"490G00012526","stopLetter":"SC","topMostParentId":"490G00012526"},{"icsId":"1000215","id":"490013323SB","lat":51.503258,"lon":-0.104451,"name":"Southwark Station","parentId":"490G13323SA","stationId":"490G13323SA","stopLetter":"SB","topMostParentId":"940GZZLUSWK","zone":"1"},{"icsId":"1011082","id":"490011082S","lat":51.50235,"lon":-0.104474,"name":"Pocock Street","parentId":"490G00011082","stationId":"490G00011082","stopLetter":"W","topMostParentId":"490G00011082"},{"icsId":"1012693","id":"490015140S","lat":51.499413,"lon":-0.104682,"name":"St George's Circus","parentId":"490G00012693","stationId":"490G00012693","stopLetter":"Y","topMostParentId":"490G00012693"},{"icsId":"1009281","id":"490009281E","lat":51.496103,"lon":-0.101333,"name":"Elephant & Castle / London Road","parentId":"490G000642","stationId":"490G000642","stopLetter":"E","topMostParentId":"490G000642"},{"icsId":"1009298","id":"490000073J","lat":51.494859,"lon":-0.097812,"name":"Elephant & Castle / New Kent Road","parentId":"490G000645","stationId":"490G000645","stopLetter":"J","topMostParentId":"HUBEPH"},{"icsId":"1011632","id":"490011632BA","lat":51.49422,"lon":-0.094439,"name":"Rodney Place","parentId":"490G00011632","stationId":"490G00011632","stopLetter":"BA","topMostParentId":"490G00011632"},{"icsId":"1003658","id":"490003658BB","lat":51.494316,"lon":-0.088744,"name":"Bricklayer's Arms / New Kent Road","parentId":"490G00003658","stationId":"490G00003658","stopLetter":"BB","topMostParentId":"490G00003658"}]},{"stopPoint":[{"icsId":"1003658","id":"490003658BB","lat":51.494316,"lon":-0.088744,"name":"Bricklayer's Arms / New Kent Road","parentId":"490G00003658","stationId":"490G00003658","stopLetter":"BB","topMostParentId":"490G00003658"},{"icsId":"1004315","id":"490004315S2","lat":51.493367,"lon":-0.084016,"name":"Bricklayer's Arms","parentId":"490G00004315","stationId":"490G00004315","stopLetter":"BF","topMostParentId":"490G00004315"},{"icsId":"1006379","id":"490006379BL","lat":51.491461,"lon":-0.081863,"name":"Old Kent Road / East Street","parentId":"490G00006379","stationId":"490G00006379","stopLetter":"G","topMostParentId":"490G00006379"},{"icsId":"1006266","id":"490006266EB","lat":51.488817,"lon":-0.077437,"name":"Dunton Road","parentId":"490G00006266","stationId":"490G00006266","stopLetter":"EB","topMostParentId":"490G00006266"},{"icsId":"1010282","id":"490010282SK","lat":51.486009,"lon":-0.074011,"name":"Nile Terrace","parentId":"490G00010282","stationId":"490G00010282","stopLetter":"SK","topMostParentId":"490G00010282"},{"icsId":"1014117","id":"490014117S","lat":51.483941,"lon":-0.074026,"name":"Waite Street","parentId":"490G00014117","stationId":"490G00014117","stopLetter":"Y","topMostParentId":"490G00014117"},{"icsId":"1012709","id":"490012709S","lat":51.481548,"lon":-0.073983,"name":"St George's Way","parentId":"490G00012709","stationId":"490G00012709","stopLetter":"Z","topMostParentId":"490G00012709"},{"icsId":"1015073","id":"490015073S","lat":51.479361,"lon":-0.071166,"name":"Bird In Bush Road","parentId":"490G00015073","stationId":"490G00015073","stopLetter":"L","topMostParentId":"490G00015073"},{"icsId":"1005525","id":"490005525S1","lat":51.477991,"lon":-0.070403,"name":"Commercial Way","parentId":"490G00005525","stationId":"490G00005525","stopLetter":"M","topMostParentId":"490G00005525"},{"icsId":"1004140","id":"490004140S","lat":51.47644,"lon":-0.069576,"name":"Bonar Road","parentId":"490G00004140","stationId":"490G00004140","stopLetter":"N","topMostParentId":"490G00004140"},{"icsId":"1010878","id":"490010878D","lat":51.474783,"lon":-0.068897,"name":"Peckham Library","parentId":"490G00010878","stationId":"490G00010878","stopLetter":"D","topMostParentId":"490G00010878"},{"icsId":"1010882","id":"490010882F","lat":51.474027,"lon":-0.067215,"name":"Peckham Post Office","parentId":"490G00010882","stationId":"490G00010882","stopLetter":"F","topMostParentId":"490G00010882"},{"icsId":"1007758","id":"490007758N","lat":51.471448,"lon":-0.069527,"name":"The Aylesham Centre","parentId":"490G00007758","stationId":"490G00007758","stopLetter":"N","topMostParentId":"490G00007758"},{"icsId":"1001223","id":"490001223V","lat":51.469318,"lon":-0.06799,"name":"Peckham Rye Station","parentId":"490G01223U","stationId":"490G01223U","stopLetter":"V","topMostParentId":"910GPCKHMRY"},{"icsId":"1010269","id":"490010269S1","lat":51.466137,"lon":-0.065951,"name":"Nigel Road","parentId":"490G00010269","stationId":"490G00010269","stopLetter":"EA","topMostParentId":"490G00010269"},{"icsId":"1008807","id":"490008807S2","lat":51.462621,"lon":-0.066474,"name":"Peckham Rye / East Dulwich Road","parentId":"490G00008807","stationId":"490G00008807","stopLetter":"WN","topMostParentId":"490G00008807"},{"icsId":"1013366","id":"490013366S","lat":51.460312,"lon":-0.066082,"name":"The Gardens","parentId":"490G00013366","stationId":"490G00013366","stopLetter":"WQ","topMostParentId":"490G00013366"},{"icsId":"1007032","id":"490007032S","lat":51.457393,"lon":-0.064665,"name":"Friern Road","parentId":"490G00007032","stationId":"490G00007032","stopLetter":"WP","topMostParentId":"490G00007032"},{"icsId":"1006264","id":"490006264S","lat":51.453633,"lon":-0.061888,"name":"Dunstans Road","parentId":"490G00006264","stationId":"490G00006264","stopLetter":"WR","topMostParentId":"490G00006264"},{"icsId":"1006921","id":"490006921S","lat":51.451831,"lon":-0.059517,"name":"Forest Hill Tavern","parentId":"490G00006921","stationId":"490G00006921","stopLetter":"J","topMostParentId":"490G00006921"}]},{"stopPoint":[{"icsId":"1018860","id":"4900018860W","lat":51.494683,"lon":-0.088614,"name":"St Saviours & St Olaves School","parentId":"490G00018860","stationId":"490G00018860","topMostParentId":"490G00018860"},{"icsId":"1003658","id":"490003658BB","lat":51.494316,"lon":-0.088744,"name":"Bricklayer's Arms / New Kent Road","parentId":"490G00003658","stationId":"490G00003658","stopLetter":"BB","topMostParentId":"490G00003658"}]}]}