{"direction":"inbound","lineId":"642","lineName":"642","mode":"bus","stopPointSequences":[{"stopPoint":[{"icsId":"1020098","id":"490020098W","lat":51.622629,"lon":-0.290392,"name":"London Academy","parentId":"490G00020098","stationId":"490G00020098","topMostParentId":"490G00020098"},{"icsId":"1004770","id":"490015302P","lat":51.620938,"lon":-0.291625,"name":"Willow Court","parentId":"490G00004770","stationId":"490G00004770","stopLetter":"P","topMostParentId":"490G00004770"},{"icsId":"1008552","id":"490008552S","lat":51.619364,"lon":-0.289749,"name":"St Peter's Church","parentId":"490G00008552","stationId":"490G00008552","stopLetter":"U","topMostParentId":"490G00008552"},{"icsId":"1013444","id":"490013444S","lat":51.616394,"lon":-0.286495,"name":"Park Grove","parentId":"490G00013444","stationId":"490G00013444","topMostParentId":"490G00013444"},{"icsId":"1009916","id":"490009916S","lat":51.614133,"lon":-0.283142,"name":"Mill Ridge","parentId":"490G00009916","stationId":"490G00009916","stopLetter":"->S","topMostParentId":"490G00009916"},{"icsId":"1007577","id":"490007577U","lat":51.612312,"lon":-0.281001,"name":"Grove Road","parentId":"490G00007577","stationId":"490G00007577","stopLetter":"U","topMostParentId":"490G00007577"},{"icsId":"1014573","id":"490014573N","lat":51.61018,"lon":-0.278482,"name":"Whitchurch Lane","parentId":"490G00014573","stationId":"490G00014573","stopLetter":"N","topMostParentId":"490G00014573"},{"icsId":"1006004","id":"490006004HD","lat":51.607719,"lon":-0.2756,"name":"Deansbrook Road","parentId":"490G00006004","stationId":"490G00006004","stopLetter":"HD","topMostParentId":"490G00006004"},{"icsId":"1004113","id":"490004113E","lat":51.607636,"lon":-0.273625,"name":"Blood Transfusion Centre","parentId":"490G00004113","stationId":"490G00004113","stopLetter":"HE","topMostParentId":"490G00004113"},{"icsId":"1006002","id":"490006002E","lat":51.609019,"lon":-0.267377,"name":"Deansbrook Close","parentId":"490G00006002","stationId":"490G00006002","stopLetter":"S","topMostParentId":"490G00006002"},{"icsId":"1006006","id":"490006006E","lat":51.609439,"lon":-0.264805,"name":"Deans Lane","parentId":"490G00006006","stationId":"490G00006006","stopLetter":"T","topMostParentId":"490G00006006"},{"icsId":"1005779","id":"490005779E","lat":51.610157,"lon":-0.260473,"name":"Edwin Road","parentId":"490G00005779","stationId":"490G00005779","stopLetter":"U","topMostParentId":"490G00005779"},{"icsId":"1007375","id":"490007355E","lat":51.610268,"lon":-0.254562,"name":"Goldbeaters Grove","parentId":"490G00007375","stationId":"490G00007375","stopLetter":"V","topMostParentId":"490G00007375"},{"icsId":"1009466","id":"490009466E","lat":51.610844,"lon":-0.249167,"name":"Lyndhurst Avenue","parentId":"490G00009466","stationId":"490G00009466","stopLetter":"->E","topMostParentId":"490G00009466"},{"icsId":"1009468","id":"490009468S","lat":51.61081,"lon":-0.2481,"name":"Woodcroft Avenue","parentId":"490G00009468","stationId":"490G00009468","stopLetter":"->S","topMostParentId":"490G00009468"},{"icsId":"1019832","id":"490014664W","lat":51.606506,"lon":-0.24415,"name":"Field Mead","parentId":"490G00019832","stationId":"490G00019832","stopLetter":"->W","topMostParentId":"490G00019832"},{"icsId":"1014664","id":"490014664S","lat":51.605007,"lon":-0.243702,"name":"Wiggins Mead","parentId":"490G00014664","stationId":"490G00014664","stopLetter":"QN","topMostParentId":"490G00014664"},{"icsId":"1008052","id":"490008052S","lat":51.603273,"lon":-0.243827,"name":"Barnet College","parentId":"490G00008052","stationId":"490G00008052","stopLetter":"QP","topMostParentId":"490G00008052"},{"icsId":"1012314","id":"490012314E","lat":51.60258,"lon":-0.241962,"name":"South Mead","parentId":"490G00012314","stationId":"490G00012314","stopLetter":"QQ","topMostParentId":"490G00012314"},{"icsId":"1011749","id":"490011749S","lat":51.598052,"lon":-0.240419,"name":"Royal Air Force Museum","parentId":"490G00011749","stationId":"490G00011749","stopLetter":"QR","topMostParentId":"490G00011749"},{"icsId":"1008055","id":"490008055W","lat":51.596695,"lon":-0.244066,"name":"Beaufort Park","parentId":"490G00008055","stationId":"490G00008055","stopLetter":"QS","topMostParentId":"490G00008055"},{"icsId":"1000054","id":"490000054CA","lat":51.595651,"lon":-0.248828,"name":"Colindale Station","parentId":"490G00054CB","stationId":"490G00054CB","stopLetter":"CA","topMostParentId":"940GZZLUCND","zone":"4"},{"icsId":"1003132","id":"490003132CC","lat":51.593805,"lon":-0.252912,"name":"Ajax Avenue","parentId":"490G00003132","stationId":"490G00003132","stopLetter":"CC","topMostParentId":"490G00003132"},{"icsId":"1005481","id":"490005481CE","lat":51.591622,"lon":-0.256692,"name":"Colindale Avenue","parentId":"490G00005481","stationId":"490G00005481","stopLetter":"CE","topMostParentId":"490G00005481"},{"icsId":"1005483","id":"490005483CF","lat":51.590191,"lon":-0.254769,"name":"Colindeep Lane","parentId":"490G00005483","stationId":"490G00005483","stopLetter":"CF","topMostParentId":"490G00005483"},{"icsId":"1012043","id":"490012043CG","lat":51.587942,"lon":-0.251665,"name":"Sheaveshill Avenue","parentId":"490G00012043","stationId":"490G00012043","stopLetter":"CG","topMostParentId":"490G00012043"},{"icsId":"1008762","id":"490008762S","lat":51.584729,"lon":-0.248511,"name":"Kingsbury Road","parentId":"490G00008762","stationId":"490G00008762","stopLetter":"HA","topMostParentId":"490G00008762"},{"icsId":"1014471","id":"490014471S","lat":51.581558,"lon":-0.244476,"name":"Hendon Magistrates Court","parentId":"490G00014471","stationId":"490G00014471","stopLetter":"HB","topMostParentId":"490G00014471"},{"icsId":"1014561","id":"490014561S","lat":51.579324,"lon":-0.2412,"name":"West Hendon Broadway / Herbert Road","parentId":"490G00014561","stationId":"490G00014561","stopLetter":"HC","topMostParentId":"490G00014561"}]}]}