{"direction":"inbound","lineId":"654","lineName":"654","mode":"bus","stopPointSequences":[{"stopPoint":[{"icsId":"1011378","id":"490011378S","lat":51.375808,"lon":0.115961,"name":"Quilter Road","parentId":"490G00011378","stationId":"490G00011378","stopLetter":"L","topMostParentId":"490G00011378"},{"icsId":"1013680","id":"490013680W","lat":51.377278,"lon":0.114778,"name":"Ramsden Road / Tintagel Road","parentId":"490G00013680","stationId":"490G00013680","stopLetter":"R","topMostParentId":"490G00013680"},{"icsId":"1006281","id":"490006281W","lat":51.377593,"lon":0.112278,"name":"Dyke Drive","parentId":"490G00006281","stationId":"490G00006281","stopLetter":"S","topMostParentId":"490G00006281"},{"icsId":"1000454","id":"490007184W","lat":51.378082,"lon":0.109541,"name":"Ramsden Road / Court Road","parentId":"490G00000454","stationId":"490G00000454","stopLetter":"T","topMostParentId":"490G00000454"},{"icsId":"1005675","id":"490005675S","lat":51.369619,"lon":0.109598,"name":"Court Road / Spur Road","parentId":"490G00005675","stationId":"490G00005675","stopLetter":"->S","topMostParentId":"490G00005675"},{"icsId":"1007264","id":"490007264S","lat":51.365786,"lon":0.110197,"name":"Goddington Lane","parentId":"490G00007264","stationId":"490G00007264","stopLetter":"->S","topMostParentId":"490G00007264"},{"icsId":"1006654","id":"490006654S","lat":51.362501,"lon":0.113853,"name":"The Highway / Court Road","parentId":"490G00006654","stationId":"490G00006654","topMostParentId":"490G00006654"},{"icsId":"1013419","id":"490013419S","lat":51.360351,"lon":0.112361,"name":"The Highway School","parentId":"490G00013419","stationId":"490G00013419","stopLetter":"L","topMostParentId":"490G00013419"},{"icsId":"1015896","id":"490015896W","lat":51.357843,"lon":0.109358,"name":"Stirling Drive","parentId":"490G00015896","stationId":"490G00015896","stopLetter":"M","topMostParentId":"490G00015896"},{"icsId":"1001060","id":"490001060B","lat":51.357142,"lon":0.105793,"name":"Chelsfield Station","parentId":"490G01060B","stationId":"490G01060B","stopLetter":"B","topMostParentId":"910GCHLSFLD"},{"icsId":"1014893","id":"490014893W","lat":51.358184,"lon":0.102364,"name":"Woodside","parentId":"490G00014893","stationId":"490G00014893","stopLetter":"->W","topMostParentId":"490G00014893"},{"icsId":"1005446","id":"490005446W","lat":51.359514,"lon":0.098403,"name":"Cloonmore Avenue","parentId":"490G00005446","stationId":"490G00005446","topMostParentId":"490G00005446"},{"icsId":"1005748","id":"490005748N","lat":51.360763,"lon":0.088922,"name":"Crescent Way","parentId":"490G00005748","stationId":"490G00005748","stopLetter":"J","topMostParentId":"490G00005748"},{"icsId":"1010639","id":"490010639N","lat":51.363253,"lon":0.091507,"name":"Sevenoaks Road / Cloonmore Avenue","parentId":"490G00010639","stationId":"490G00010639","stopLetter":"K","topMostParentId":"490G00010639"},{"icsId":"1012592","id":"490012592N","lat":51.365699,"lon":0.094017,"name":"Sevenoaks Road / Orpington Hospital","parentId":"490G00012592","stationId":"490G00012592","stopLetter":"L","topMostParentId":"490G00012592"},{"icsId":"1013749","id":"490013749N","lat":51.367384,"lon":0.095315,"name":"Sevenoaks Road / Tower Road","parentId":"490G00013749","stationId":"490G00013749","stopLetter":"N","topMostParentId":"490G00013749"},{"icsId":"1008209","id":"490008209K","lat":51.371216,"lon":0.096812,"name":"Hillcrest Road","parentId":"490G00008209","stationId":"490G00008209","stopLetter":"K","topMostParentId":"490G00008209"},{"icsId":"1019893","id":"490015411L","lat":51.372485,"lon":0.097229,"name":"Sevenoaks Road / Orpington War Memorial","parentId":"490G00019893","stationId":"490G00019893","stopLetter":"L","topMostParentId":"490G00019893"},{"icsId":"1015411","id":"490015411P","lat":51.37329,"lon":0.098459,"name":"Spur Road / Orpington War Memorial","parentId":"490G00015411","stationId":"490G00015411","stopLetter":"P","topMostParentId":"490G00015411"},{"icsId":"1019892","id":"490015411S","lat":51.374282,"lon":0.098317,"name":"High Street / Orpington War Memorial","parentId":"490G00019892","stationId":"490G00019892","stopLetter":"S","topMostParentId":"490G00019892"},{"icsId":"1013818","id":"490013818J","lat":51.371761,"lon":0.091449,"name":"Tubbenden Lane","parentId":"490G00013818","stationId":"490G00013818","stopLetter":"J","topMostParentId":"490G00013818"},{"icsId":"1001220","id":"490001220A","lat":51.372711,"lon":0.087095,"name":"Orpington Station","parentId":"490G01220B","stationId":"490G01220B","stopLetter":"A","topMostParentId":"910GORPNGTN"},{"icsId":"1011150","id":"490011150W","lat":51.373119,"lon":0.078809,"name":"Pound Court Drive","parentId":"490G00011150","stationId":"490G00011150","stopLetter":"CA","topMostParentId":"490G00011150"},{"icsId":"1005790","id":"490005788W","lat":51.373314,"lon":0.073933,"name":"Crofton Road / Crofton Lane","parentId":"490G00005790","stationId":"490G00005790","stopLetter":"CB","topMostParentId":"490G00005790"},{"icsId":"1010512","id":"490010512W1","lat":51.373393,"lon":0.071494,"name":"Oakwood Road / St Paul's Church","parentId":"490G00010512","stationId":"490G00010512","stopLetter":"CC","topMostParentId":"490G00010512"},{"icsId":"1007255","id":"490007255W","lat":51.371163,"lon":0.063821,"name":"Glyndebourne Park","parentId":"490G00007255","stationId":"490G00007255","stopLetter":"CD","topMostParentId":"490G00007255"},{"icsId":"1012600","id":"490012600W","lat":51.368569,"lon":0.057886,"name":"Crofton Road / Starts Hill Road","parentId":"490G00012600","stationId":"490G00012600","stopLetter":"HL","topMostParentId":"490G00012600"},{"icsId":"1009243","id":"490009243W","lat":51.366787,"lon":0.054387,"name":"Locksbottom / St Michael's Church","parentId":"490G00009243","stationId":"490G00009243","stopLetter":"HK","topMostParentId":"490G00009243"},{"icsId":"1008683","id":"490008683W","lat":51.367189,"lon":0.046345,"name":"Keston Park Close","parentId":"490G00008683","stationId":"490G00008683","stopLetter":"KS","topMostParentId":"490G00008683"},{"icsId":"1013438","id":"490013438W","lat":51.367184,"lon":0.040426,"name":"Croydon Road / The Keston Mark","parentId":"490G00013438","stationId":"490G00013438","stopLetter":"KT","topMostParentId":"490G00013438"},{"icsId":"1008681","id":"490008681W","lat":51.367272,"lon":0.037456,"name":"Keston Methodist Church","parentId":"490G00008681","stationId":"490G00008681","stopLetter":"KU","topMostParentId":"490G00008681"},{"icsId":"1003675","id":"490003675W","lat":51.367748,"lon":0.027622,"name":"Baston Road","parentId":"490G00003675","stationId":"490G00003675","stopLetter":"KV","topMostParentId":"490G00003675"},{"icsId":"1007871","id":"490007871W","lat":51.368599,"lon":0.012732,"name":"Hartfield Crescent","parentId":"490G00007871","stationId":"490G00007871","stopLetter":"->W","topMostParentId":"490G00007871"},{"icsId":"1005544","id":"490005544W","lat":51.370107,"lon":0.002928,"name":"Coney Hall","parentId":"490G00005544","stationId":"490G00005544","stopLetter":"R","topMostParentId":"490G00005544"},{"icsId":"1003099","id":"490003099W","lat":51.370518,"lon":-0.002198,"name":"Addington Road / Glebe Way","parentId":"490G00003099","stationId":"490G00003099","stopLetter":"L","topMostParentId":"490G00003099"},{"icsId":"1009032","id":"490009032W","lat":51.368889,"lon":-0.004797,"name":"Layhams Road","parentId":"490G00009032","stationId":"490G00009032","stopLetter":"M","topMostParentId":"490G00009032"},{"icsId":"1003095","id":"490003095W","lat":51.363914,"lon":-0.018431,"name":"Addington Road / Pumping Station","parentId":"490G00003095","stationId":"490G00003095","stopLetter":"->W","topMostParentId":"490G00003095"},{"icsId":"1003101","id":"490003101E","lat":51.356606,"lon":-0.032463,"name":"Addington Village Interchange","parentId":"490G000380","stationId":"490G000380","stopLetter":"E","topMostParentId":"490G000380"}]}]}