{"direction":"inbound","lineId":"66","lineName":"66","mode":"bus","stopPointSequences":[{"stopPoint":[{"icsId":"1000137","id":"490000137T","lat":51.56875,"lon":0.00905,"name":"Leytonstone Station","parentId":"490G00137T","stationId":"490G00137T","stopLetter":"T","topMostParentId":"940GZZLULYS","zone":"3+4"},{"icsId":"1008852","id":"490008852M","lat":51.569135,"lon":0.011779,"name":"Kirkdale Road","parentId":"490G00008852","stationId":"490G00008852","stopLetter":"M","topMostParentId":"490G00008852"},{"icsId":"1007490","id":"490007490N","lat":51.570468,"lon":0.014291,"name":"Green Man Roundabout","parentId":"490G00007490","stationId":"490G00007490","stopLetter":"N","topMostParentId":"490G00007490"},{"icsId":"1018837","id":"490018837N","lat":51.576857,"lon":0.019813,"name":"Gordon Road","parentId":"490G00018837","stationId":"490G00018837","topMostParentId":"490G00018837"},{"id":"490001970Y","lat":51.579314,"lon":0.021784,"name":"Homesdale Close","parentId":"490G000294","stationId":"490G000294","topMostParentId":"490G000294"},{"icsId":"1008092","id":"490008092S","lat":51.579983,"lon":0.023661,"name":"High Street / Hermon Hill","parentId":"490G00008092","stationId":"490G00008092","stopLetter":"SD","topMostParentId":"490G00008092"},{"icsId":"1014206","id":"490014206S","lat":51.577988,"lon":0.02617,"name":"Wanstead Place","parentId":"490G00014206","stationId":"490G00014206","stopLetter":"SE","topMostParentId":"490G00014206"},{"icsId":"1014821","id":"490000250D","lat":51.576753,"lon":0.027385,"name":"Wanstead High St / Wanstead Station","parentId":"490G00014821","stationId":"490G00014821","stopLetter":"D","topMostParentId":"490G00014821"},{"icsId":"1010467","id":"490010467E","lat":51.576991,"lon":0.03389,"name":"Nutter Lane","parentId":"490G00010467","stationId":"490G00010467","stopLetter":"R","topMostParentId":"490G00010467"},{"icsId":"1006659","id":"490006659E","lat":51.57618,"lon":0.047449,"name":"Redbridge Station","parentId":"490G00006659","stationId":"490G00006659","stopLetter":"RH","topMostParentId":"490G00006659"},{"icsId":"1013332","id":"490013332E","lat":51.576418,"lon":0.053926,"name":"The Drive","parentId":"490G00013332","stationId":"490G00013332","stopLetter":"RJ","topMostParentId":"490G00013332"},{"icsId":"1003829","id":"490003829E","lat":51.576628,"lon":0.058828,"name":"Beehive Lane","parentId":"490G00003829","stationId":"490G00003829","stopLetter":"EA","topMostParentId":"490G00003829"},{"icsId":"1000085","id":"490000085G","lat":51.576661,"lon":0.064631,"name":"Gants Hill Station","parentId":"490G00085G","stationId":"490G00085G","stopLetter":"EB","topMostParentId":"940GZZLUGTH","zone":"4"},{"icsId":"1015201","id":"490015201K","lat":51.576394,"lon":0.06804,"name":"Parham Drive","parentId":"490G000877","stationId":"490G000877","stopLetter":"EC","topMostParentId":"490G000877"},{"icsId":"1003452","id":"490003452E","lat":51.575282,"lon":0.073993,"name":"Ashurst Drive","parentId":"490G00003452","stationId":"490G00003452","stopLetter":"ED","topMostParentId":"490G00003452"},{"icsId":"1019805","id":"490009930E","lat":51.574669,"lon":0.077645,"name":"Denham Drive","parentId":"490G00019805","stationId":"490G00019805","stopLetter":"EE","topMostParentId":"490G00019805"},{"icsId":"1008371","id":"490008371E","lat":51.573746,"lon":0.083029,"name":"Horns Road","parentId":"490G00008371","stationId":"490G00008371","stopLetter":"NL","topMostParentId":"490G00008371"},{"icsId":"1008752","id":"490008752E","lat":51.574722,"lon":0.087837,"name":"King George Avenue","parentId":"490G000622","stationId":"490G000622","stopLetter":"ND","topMostParentId":"490G000622"},{"icsId":"1000154","id":"490000154A","lat":51.575602,"lon":0.090446,"name":"Newbury Park Station","parentId":"490G00154B","stationId":"490G00154B","stopLetter":"NA","topMostParentId":"940GZZLUNBP","zone":"4"},{"icsId":"1010504","id":"490010504E","lat":51.57602,"lon":0.094708,"name":"Oaks Lane","parentId":"490G00010504","stationId":"490G00010504","stopLetter":"NC","topMostParentId":"490G00010504"},{"icsId":"1003171","id":"490003171E","lat":51.577566,"lon":0.098315,"name":"Aldborough Road North","parentId":"490G000383","stationId":"490G000383","stopLetter":"NG","topMostParentId":"490G000383"},{"icsId":"1011412","id":"490011412E","lat":51.580353,"lon":0.103842,"name":"Ramsgill Drive","parentId":"490G00011412","stationId":"490G00011412","stopLetter":"->E","topMostParentId":"490G00011412"},{"icsId":"1003696","id":"490003696E","lat":51.581923,"lon":0.108057,"name":"Bawdsey Avenue","parentId":"490G00003696","stationId":"490G00003696","stopLetter":"->E","topMostParentId":"490G00003696"},{"icsId":"1003620","id":"490003620D","lat":51.582624,"lon":0.11561,"name":"Barley Lane","parentId":"490G00003620","stationId":"490G00003620","stopLetter":"D","topMostParentId":"490G00003620"},{"icsId":"1012232","id":"490012232E","lat":51.581722,"lon":0.128198,"name":"Somerville Road","parentId":"490G00012232","stationId":"490G00012232","stopLetter":"EA","topMostParentId":"490G00012232"},{"icsId":"1006391","id":"490006375E","lat":51.581325,"lon":0.135671,"name":"Padnall Road","parentId":"490G00006391","stationId":"490G00006391","stopLetter":"EB","topMostParentId":"490G00006391"},{"icsId":"1014551","id":"490014551E","lat":51.581239,"lon":0.139376,"name":"Whalebone Lane North","parentId":"490G00014551","stationId":"490G00014551","stopLetter":"EC","topMostParentId":"490G00014551"},{"icsId":"1009722","id":"490009720E","lat":51.582804,"lon":0.166341,"name":"Mawney Road","parentId":"490G00009722","stationId":"490G00009722","stopLetter":"M","topMostParentId":"490G00009722"},{"icsId":"1008747","id":"490008747E","lat":51.584872,"lon":0.169789,"name":"King George Close","parentId":"490G00008747","stationId":"490G00008747","stopLetter":"NH","topMostParentId":"490G00008747"},{"icsId":"1011658","id":"490011658S","lat":51.583717,"lon":0.174829,"name":"Romford Bus Garage","parentId":"490G00011658","stationId":"490G00011658","stopLetter":"NS","topMostParentId":"490G00011658"},{"icsId":"1004467","id":"490013240S","lat":51.581865,"lon":0.176776,"name":"The Avenue","parentId":"490G00004467","stationId":"490G00004467","stopLetter":"J","topMostParentId":"490G00004467"},{"icsId":"1011659","id":"490011659E","lat":51.580704,"lon":0.182133,"name":"Romford Market","parentId":"490G00011659","stationId":"490G00011659","stopLetter":"E","topMostParentId":"490G00011659"},{"icsId":"1014452","id":"490014448S","lat":51.577501,"lon":0.185097,"name":"Western Road","parentId":"490G00014452","stationId":"490G00014452","stopLetter":"QQ","topMostParentId":"490G00014452"},{"icsId":"1001243","id":"490001243W","lat":51.57396,"lon":0.183037,"name":"Romford Station","parentId":"490G01243W","stationId":"490G01243W","topMostParentId":"910GROMFORD"}]}]}