{"direction":"inbound","lineId":"679","lineName":"679","mode":"bus","stopPointSequences":[{"stopPoint":[{"icsId":"1007291","id":"490007289H","lat":51.563076,"lon":0.11147,"name":"Goodmayes Lane","parentId":"490G00007291","stationId":"490G00007291","stopLetter":"H","topMostParentId":"490G00007291"},{"icsId":"1009475","id":"490009475W","lat":51.561916,"lon":0.103957,"name":"Lynford Gardens","parentId":"490G00009475","stationId":"490G00009475","stopLetter":"S","topMostParentId":"490G00009475"},{"icsId":"1012000","id":"490012000W","lat":51.560849,"lon":0.098772,"name":"Seven Kings Road","parentId":"490G00012000","stationId":"490G00012000","stopLetter":"C","topMostParentId":"490G00012000"},{"icsId":"1012330","id":"490012330W","lat":51.55928,"lon":0.091977,"name":"South Park Drive","parentId":"490G00012330","stationId":"490G00012330","stopLetter":"D","topMostParentId":"490G00012330"},{"icsId":"1007312","id":"490007312W","lat":51.558955,"lon":0.085989,"name":"Gordon Road","parentId":"490G00007312","stationId":"490G00007312","stopLetter":"Q","topMostParentId":"490G00007312"},{"icsId":"1008469","id":"490008469Z","lat":51.559662,"lon":0.081073,"name":"Winston Way Primary School","parentId":"490G00008469","stationId":"490G00008469","stopLetter":"Z","topMostParentId":"490G00008469"},{"icsId":"1007657","id":"490007657W","lat":51.55957,"lon":0.077173,"name":"Hainault Street","parentId":"490G00007657","stationId":"490G00007657","stopLetter":"W","topMostParentId":"490G00007657"},{"icsId":"1008466","id":"490008466Q1","lat":51.557867,"lon":0.074311,"name":"Redbridge Central Library","parentId":"490G00008466","stationId":"490G00008466","stopLetter":"Q","topMostParentId":"490G00008466"},{"icsId":"1008470","id":"490008470M","lat":51.558137,"lon":0.071741,"name":"High Road Ilford","parentId":"490G000606","stationId":"490G000606","stopLetter":"M","topMostParentId":"490G000606"},{"icsId":"1001157","id":"490001157G","lat":51.558805,"lon":0.070069,"name":"Ilford Station","parentId":"490G01157G","stationId":"490G01157G","stopLetter":"G","topMostParentId":"910GILFORD"},{"icsId":"1013966","id":"490013311U","lat":51.563248,"lon":0.067458,"name":"Beal Road","parentId":"490G00013966","stationId":"490G00013966","stopLetter":"VL","topMostParentId":"490G00013966"},{"icsId":"1013331","id":"490013331W","lat":51.564484,"lon":0.066244,"name":"Northbrook Road","parentId":"490G00013331","stationId":"490G00013331","stopLetter":"VM","topMostParentId":"490G00013331"},{"icsId":"1013988","id":"490013988N","lat":51.567676,"lon":0.065249,"name":"Valentines Park","parentId":"490G00013988","stationId":"490G00013988","stopLetter":"VP","topMostParentId":"490G00013988"},{"icsId":"1003947","id":"490003947N","lat":51.570244,"lon":0.063893,"name":"Bethell Avenue","parentId":"490G00003947","stationId":"490G00003947","stopLetter":"VR","topMostParentId":"490G00003947"},{"icsId":"1003828","id":"490003828N","lat":51.572831,"lon":0.065107,"name":"Beehive Lane","parentId":"490G00003828","stationId":"490G00003828","stopLetter":"CM","topMostParentId":"490G00003828"},{"icsId":"1015202","id":"490015202M","lat":51.575899,"lon":0.06604,"name":"Gants Hill Station / Cranbrook Road","parentId":"490G000878","stationId":"490G000878","stopLetter":"CN","topMostParentId":"490G000878"},{"icsId":"1015199","id":"490015199B","lat":51.577397,"lon":0.065256,"name":"Gants Hill Station  / Woodford Avenue","parentId":"490G000876","stationId":"490G000876","stopLetter":"WS","topMostParentId":"490G000876"},{"icsId":"1014972","id":"490014972W","lat":51.579402,"lon":0.062172,"name":"Wycombe Road","parentId":"490G00014972","stationId":"490G00014972","stopLetter":"WT","topMostParentId":"490G00014972"},{"icsId":"1007388","id":"490008200W","lat":51.580977,"lon":0.059025,"name":"Beehive Lane","parentId":"490G00007388","stationId":"490G00007388","stopLetter":"WJ","topMostParentId":"490G00007388"},{"icsId":"1007380","id":"490007380N","lat":51.582661,"lon":0.056834,"name":"Grasmere Gardens","parentId":"490G00007380","stationId":"490G00007380","stopLetter":"WK","topMostParentId":"490G00007380"},{"icsId":"1014846","id":"490014846N","lat":51.585092,"lon":0.054649,"name":"Woodford Bridge Road","parentId":"490G00014846","stationId":"490G00014846","stopLetter":"WL","topMostParentId":"490G00014846"},{"icsId":"1011631","id":"490011628W","lat":51.590894,"lon":0.046841,"name":"Roding Lane South","parentId":"490G00011631","stationId":"490G00011631","stopLetter":"WN","topMostParentId":"490G00011631"},{"icsId":"1010419","id":"490010418W","lat":51.592255,"lon":0.043018,"name":"Woodford Trading Estate","parentId":"490G00010419","stationId":"490G00010419","stopLetter":"Q","topMostParentId":"490G00010419"},{"icsId":"1005002","id":"490005157W","lat":51.593176,"lon":0.039176,"name":"Charlie Browns Roundabout","parentId":"490G00005002","stationId":"490G00005002","stopLetter":"R","topMostParentId":"490G00005002"},{"icsId":"1005157","id":"490005002W","lat":51.593855,"lon":0.034774,"name":"Chigwell Road","parentId":"490G00005157","stationId":"490G00005157","stopLetter":"S","topMostParentId":"490G00005157"},{"icsId":"1020015","id":"490010116W","lat":51.595228,"lon":0.030778,"name":"Mulberry Way","parentId":"490G00020015","stationId":"490G00020015","stopLetter":"T","topMostParentId":"490G00020015"},{"icsId":"1007137","id":"490007137P","lat":51.595502,"lon":0.020135,"name":"High Road South Woodford","parentId":"490G00007137","stationId":"490G00007137","stopLetter":"P","topMostParentId":"490G00007137"},{"icsId":"1014288","id":"490015469W","lat":51.595082,"lon":0.012623,"name":"Waterworks Corner","parentId":"490G00014288","stationId":"490G00014288","stopLetter":"Q","topMostParentId":"490G00014288"},{"icsId":"1014288","id":"490014288N","lat":51.597498,"lon":0.011747,"name":"Waterworks Corner","parentId":"490G00014288","stationId":"490G00014288","stopLetter":"K","topMostParentId":"490G00014288"},{"icsId":"1005061","id":"490005061N","lat":51.599405,"lon":0.01277,"name":"Chelmsford Road","parentId":"490G00005061","stationId":"490G00005061","stopLetter":"P","topMostParentId":"490G00005061"},{"icsId":"1013467","id":"490013467N","lat":51.600992,"lon":0.014097,"name":"Oak Hill","parentId":"490G00013467","stationId":"490G00013467","stopLetter":"Q","topMostParentId":"490G00013467"},{"icsId":"1012623","id":"490012623N","lat":51.602922,"lon":0.015857,"name":"St Aubyn's School","parentId":"490G00012623","stationId":"490G00012623","stopLetter":"R","topMostParentId":"490G00012623"},{"icsId":"1005177","id":"490005269N","lat":51.60636,"lon":0.018855,"name":"Chingford Lane","parentId":"490G00005177","stationId":"490G00005177","stopLetter":"S","topMostParentId":"490G00005177"},{"icsId":"1014847","id":"490014847N","lat":51.609083,"lon":0.021055,"name":"Woodford Green / Broadmead Road","parentId":"490G000842","stationId":"490G000842","stopLetter":"U","topMostParentId":"490G000842"},{"icsId":"1009973","id":"490009973N","lat":51.613485,"lon":0.023923,"name":"Monkhams Lane","parentId":"490G00009973","stationId":"490G00009973","stopLetter":"V","topMostParentId":"490G00009973"},{"icsId":"1015121","id":"490015121N","lat":51.615891,"lon":0.025186,"name":"St Thomas Of Canterbury Church","parentId":"490G00015121","stationId":"490G00015121","stopLetter":"FH","topMostParentId":"490G00015121"}]}]}