{"direction":"inbound","lineId":"70","lineName":"70","mode":"bus","stopPointSequences":[{"stopPoint":[{"icsId":"1000212","id":"490000212S","lat":51.494506,"lon":-0.174583,"name":"South Kensington Station","parentId":"490G00212G","stationId":"490G00212G","stopLetter":"S","topMostParentId":"940GZZLUSKS","zone":"1"},{"icsId":"1011324","id":"490011324W","lat":51.493908,"lon":-0.177228,"name":"Queensberry Place","parentId":"490G00011324","stationId":"490G00011324","stopLetter":"V","topMostParentId":"490G00011324"},{"icsId":"1005797","id":"490005797N","lat":51.494999,"lon":-0.179115,"name":"Natural History Museum / Cromwell Road","parentId":"490G00005797","stationId":"490G00005797","stopLetter":"GT","topMostParentId":"490G00005797"},{"icsId":"1006552","id":"490006552N","lat":51.498112,"lon":-0.179784,"name":"Imperial College / Elvaston Place","parentId":"490G00006552","stationId":"490G00006552","stopLetter":"RV","topMostParentId":"490G00006552"},{"icsId":"1011334","id":"490011334W","lat":51.501375,"lon":-0.180878,"name":"Kensington Road / Royal Albert Hall","parentId":"490G00011334","stationId":"490G00011334","stopLetter":"RD","topMostParentId":"490G00011334"},{"icsId":"1010728","id":"490010728W","lat":51.50147,"lon":-0.182949,"name":"Palace Gate","parentId":"490G00010728","stationId":"490G00010728","stopLetter":"RE","topMostParentId":"490G00010728"},{"icsId":"1011761","id":"490011761N","lat":51.502246,"lon":-0.18776,"name":"Kensington Palace","parentId":"490G00011761","stationId":"490G00011761","stopLetter":"N","topMostParentId":"490G00011761"},{"icsId":"1008288","id":"490008288H","lat":51.503097,"lon":-0.191645,"name":"Kensington Church Street / Holland St","parentId":"490G00008288","stationId":"490G00008288","stopLetter":"H","topMostParentId":"490G00008288"},{"icsId":"1012055","id":"490012055N","lat":51.506126,"lon":-0.194479,"name":"Sheffield Terrace","parentId":"490G00012055","stationId":"490G00012055","stopLetter":"X","topMostParentId":"490G00012055"},{"icsId":"1000167","id":"490000167F","lat":51.508087,"lon":-0.195108,"name":"Notting Hill Gate Station","parentId":"490G00167G","stationId":"490G00167G","stopLetter":"F","topMostParentId":"940GZZLUNHG","zone":"1+2"},{"icsId":"1015463","id":"490015463M","lat":51.509716,"lon":-0.193429,"name":"Palace Gardens Terrace","parentId":"490G000897","stationId":"490G000897","stopLetter":"M","topMostParentId":"490G000897"},{"icsId":"1010632","id":"490010632T","lat":51.510183,"lon":-0.189275,"name":"Orme Square","parentId":"490G00010632","stationId":"490G00010632","stopLetter":"T","topMostParentId":"490G00010632"},{"icsId":"1000187","id":"490000187B","lat":51.510671,"lon":-0.187123,"name":"Queensway Station","parentId":"490G00187B","stationId":"490G00187B","stopLetter":"B","topMostParentId":"940GZZLUQWY","zone":"1"},{"icsId":"1000018","id":"490000018P","lat":51.512604,"lon":-0.18768,"name":"Bayswater Station","parentId":"490G00018P","stationId":"490G00018P","stopLetter":"P","topMostParentId":"940GZZLUBWT","zone":"1"},{"icsId":"1014602","id":"490014602M","lat":51.513964,"lon":-0.187857,"name":"Whiteleys","parentId":"490G00014602","stationId":"490G00014602","stopLetter":"M","topMostParentId":"490G00014602"},{"icsId":"1011365","id":"490011365G","lat":51.515666,"lon":-0.189159,"name":"Westbourne Grove / Queensway","parentId":"490G00011365","stationId":"490G00011365","stopLetter":"G","topMostParentId":"490G00011365"},{"icsId":"1019713","id":"490014402A","lat":51.515835,"lon":-0.195421,"name":"Artesian Road","parentId":"490G00019713","stationId":"490G00019713","stopLetter":"PC","topMostParentId":"490G00019713"},{"icsId":"1012948","id":"490012948N","lat":51.518573,"lon":-0.196293,"name":"St Stephens Gardens","parentId":"490G00012948","stationId":"490G00012948","stopLetter":"->N","topMostParentId":"490G00012948"},{"icsId":"1007429","id":"490007420M","lat":51.518372,"lon":-0.199054,"name":"Great Western Road","parentId":"490G00007429","stationId":"490G00007429","stopLetter":"M","topMostParentId":"490G00007429"},{"icsId":"1011158","id":"490011158W","lat":51.51755,"lon":-0.202301,"name":"Powis Gardens","parentId":"490G00011158","stationId":"490G00011158","stopLetter":"PD","topMostParentId":"490G00011158"},{"icsId":"1011137","id":"490011137W","lat":51.516872,"lon":-0.205023,"name":"Portobello Road","parentId":"490G00011137","stationId":"490G00011137","stopLetter":"PE","topMostParentId":"490G00011137"},{"icsId":"1000131","id":"490000131A","lat":51.517273,"lon":-0.210066,"name":"Ladbroke Grove Station","parentId":"490G00131A","stationId":"490G00131A","stopLetter":"A","topMostParentId":"940GZZLULAD","zone":"2"},{"icsId":"1005139","id":"490005139D","lat":51.519786,"lon":-0.211539,"name":"Chesterton Road","parentId":"490G00005139","stationId":"490G00005139","stopLetter":"D","topMostParentId":"490G00005139"},{"icsId":"1008898","id":"490008898F","lat":51.521337,"lon":-0.212415,"name":"St Charles Square","parentId":"490G00008898","stationId":"490G00008898","stopLetter":"F","topMostParentId":"490G00008898"},{"icsId":"1003619","id":"490003619M","lat":51.523433,"lon":-0.213644,"name":"Barlby Road","parentId":"490G00003619","stationId":"490G00003619","stopLetter":"M","topMostParentId":"490G00003619"},{"icsId":"1004737","id":"490004737R","lat":51.525547,"lon":-0.214874,"name":"Kensal House","parentId":"490G00004737","stationId":"490G00004737","stopLetter":"R","topMostParentId":"490G00004737"},{"icsId":"1008897","id":"490008897T","lat":51.525692,"lon":-0.215517,"name":"Ladbroke Grove Sainsbury's","parentId":"490G00008897","stationId":"490G00008897","stopLetter":"T","topMostParentId":"490G00008897"},{"icsId":"1004737","id":"490004737S","lat":51.525489,"lon":-0.214616,"name":"Kensal House","parentId":"490G00004737","stationId":"490G00004737","stopLetter":"S","topMostParentId":"490G00004737"},{"icsId":"1003618","id":"490003618Q","lat":51.523687,"lon":-0.217325,"name":"Barlby Gardens","parentId":"490G00003618","stationId":"490G00003618","stopLetter":"Q","topMostParentId":"490G00003618"},{"icsId":"1005936","id":"490005936W","lat":51.522114,"lon":-0.222071,"name":"Dalgarno Gardens","parentId":"490G00005936","stationId":"490G00005936","stopLetter":"K","topMostParentId":"490G00005936"},{"icsId":"1008175","id":"490008175W","lat":51.520812,"lon":-0.224024,"name":"Highlever Road","parentId":"490G00008175","stationId":"490G00008175","stopLetter":"L","topMostParentId":"490G00008175"},{"icsId":"1010398","id":"490011962W","lat":51.519876,"lon":-0.225762,"name":"North Pole Road","parentId":"490G00010398","stationId":"490G00010398","stopLetter":"S","topMostParentId":"490G00010398"},{"icsId":"1004895","id":"490004895S","lat":51.517916,"lon":-0.22751,"name":"Caverswall Street","parentId":"490G00004895","stationId":"490G00004895","stopLetter":"K","topMostParentId":"490G00004895"},{"icsId":"1014869","id":"490014869W","lat":51.516659,"lon":-0.228885,"name":"Latymer Upper School / Playing Fields","parentId":"490G00014869","stationId":"490G00014869","stopLetter":"D","topMostParentId":"490G00014869"},{"icsId":"1007707","id":"490007707FF","lat":51.515998,"lon":-0.236347,"name":"Hammersmith Hospital","parentId":"490G00007707","stationId":"490G00007707","stopLetter":"F","topMostParentId":"490G00007707"},{"icsId":"1014971","id":"490014971G","lat":51.515505,"lon":-0.243587,"name":"Wulfstan Street","parentId":"490G00014971","stationId":"490G00014971","stopLetter":"G","topMostParentId":"490G00014971"},{"icsId":"1000065","id":"490000065H","lat":51.515184,"lon":-0.248586,"name":"East Acton Station","parentId":"490G00065H","stationId":"490G00065H","stopLetter":"H","topMostParentId":"940GZZLUEAN","zone":"2"},{"icsId":"1014446","id":"490014446I","lat":51.514264,"lon":-0.249039,"name":"Westway","parentId":"490G00014446","stationId":"490G00014446","stopLetter":"D","topMostParentId":"490G00014446"},{"icsId":"1011944","id":"490011937J","lat":51.513401,"lon":-0.248453,"name":"East Acton Lane / Old Oak Road","parentId":"490G00011944","stationId":"490G00011944","stopLetter":"J","topMostParentId":"490G00011944"},{"icsId":"1008744","id":"490008744X","lat":51.512659,"lon":-0.251118,"name":"King Fahad Academy","parentId":"490G00008744","stationId":"490G00008744","stopLetter":"P","topMostParentId":"490G00008744"},{"icsId":"1012067","id":"490012067W","lat":51.512021,"lon":-0.254803,"name":"Beechwood Grove","parentId":"490G00012067","stationId":"490G00012067","stopLetter":"W","topMostParentId":"490G00012067"},{"icsId":"1012016","id":"490012016S","lat":51.511117,"lon":-0.256884,"name":"Shaa Road","parentId":"490G00012016","stationId":"490G00012016","stopLetter":"EX","topMostParentId":"490G00012016"},{"icsId":"1015431","id":"490015431S","lat":51.507008,"lon":-0.256897,"name":"Acton Park / Greenview Close","parentId":"490G00015431","stationId":"490G00015431","stopLetter":"EY","topMostParentId":"490G00015431"},{"icsId":"1003084","id":"490003084W","lat":51.506367,"lon":-0.260999,"name":"Acton Park","parentId":"490G00003084","stationId":"490G00003084","stopLetter":"VQ","topMostParentId":"490G00003084"},{"icsId":"1001002","id":"490001002J","lat":51.506475,"lon":-0.26405,"name":"Acton Central Station","parentId":"490G01002H","stationId":"490G01002H","stopLetter":"J","topMostParentId":"910GACTNCTL"},{"icsId":"1003083","id":"490003083G","lat":51.5067,"lon":-0.268912,"name":"Acton Old Town Hall","parentId":"490G00003083","stationId":"490G00003083","stopLetter":"G","topMostParentId":"490G00003083"},{"icsId":"1007604","id":"490007604C","lat":51.507997,"lon":-0.273935,"name":"Steyne Road","parentId":"490G00007604","stationId":"490G00007604","stopLetter":"C","topMostParentId":"490G00007604"},{"icsId":"1003077","id":"490003077P","lat":51.506065,"lon":-0.278288,"name":"Mill Hill Road","parentId":"490G00003077","stationId":"490G00003077","stopLetter":"P","topMostParentId":"490G00003077"},{"icsId":"1020303","id":"490020303S","lat":51.502332,"lon":-0.278861,"name":"Acton Town Station  / Enfield Road","parentId":"490G00020303","stationId":"490G00020303","stopLetter":"->S","topMostParentId":"490G00020303"},{"icsId":"1011708","id":"490011708S","lat":51.499344,"lon":-0.276222,"name":"Roslin Road","parentId":"490G00011708","stationId":"490G00011708","stopLetter":"M","topMostParentId":"490G00011708"},{"icsId":"1015590","id":"490015590S","lat":51.498743,"lon":-0.275077,"name":"Colville Road","parentId":"490G00015590","stationId":"490G00015590","stopLetter":"N","topMostParentId":"490G00015590"},{"icsId":"1015579","id":"490015579S","lat":51.498152,"lon":-0.273472,"name":"Stanhope Way / Acton Works","parentId":"490G00015579","stationId":"490G00015579","stopLetter":"P","topMostParentId":"490G00015579"},{"icsId":"1020107","id":"490020107N","lat":51.496093,"lon":-0.273449,"name":"Chiswick Business Park","parentId":"490G00020107","stationId":"490G00020107","stopLetter":"->N","topMostParentId":"490G00020107"}]}]}