{"direction":"inbound","lineId":"71","lineName":"71","mode":"bus","stopPointSequences":[{"stopPoint":[{"icsId":"1005800","id":"490005800A15","lat":51.412422,"lon":-0.298273,"name":"Cromwell Road Bus Station","parentId":"490G000476","stationId":"490G000476","stopLetter":"A15","topMostParentId":"490G000476"},{"icsId":"1006412","id":"490006412D2","lat":51.409926,"lon":-0.30232,"name":"Eden Street","parentId":"490G00006412","stationId":"490G00006412","stopLetter":"D2","topMostParentId":"490G00006412"},{"icsId":"1004478","id":"490004478F","lat":51.408379,"lon":-0.303485,"name":"Brook Street","parentId":"490G00004478","stationId":"490G00004478","stopLetter":"F","topMostParentId":"490G00004478"},{"icsId":"1008829","id":"490008829S","lat":51.40426,"lon":-0.30414,"name":"Kingston University / County Hall","parentId":"490G00008829","stationId":"490G00008829","stopLetter":"UA","topMostParentId":"490G00008829"},{"icsId":"1013034","id":"490013034S","lat":51.400598,"lon":-0.303974,"name":"Surbiton Crescent","parentId":"490G00013034","stationId":"490G00013034","stopLetter":"B","topMostParentId":"490G00013034"},{"icsId":"1009627","id":"490009627S","lat":51.398908,"lon":-0.304597,"name":"Maple Road","parentId":"490G00009627","stationId":"490G00009627","stopLetter":"C","topMostParentId":"490G00009627"},{"icsId":"1013315","id":"490013315S","lat":51.395671,"lon":-0.304041,"name":"The Crescent","parentId":"490G00013315","stationId":"490G00013315","stopLetter":"NH","topMostParentId":"490G00013315"},{"icsId":"1015165","id":"490015165B","lat":51.393739,"lon":-0.304112,"name":"Surbiton Station","parentId":"490G000865","stationId":"490G000865","stopLetter":"NK","topMostParentId":"490G000865"},{"icsId":"1000446","id":"490001285D","lat":51.392547,"lon":-0.305651,"name":"Victoria Road / Surbiton Station","parentId":"490G000095","stationId":"490G000095","stopLetter":"NP","topMostParentId":"490G000095"},{"icsId":"1013036","id":"490013036G","lat":51.391606,"lon":-0.307727,"name":"Surbiton Sainsbury's","parentId":"490G00013036","stationId":"490G00013036","stopLetter":"NR","topMostParentId":"490G00013036"},{"icsId":"1009395","id":"490009395S","lat":51.390257,"lon":-0.307101,"name":"Lovelace Gardens","parentId":"490G00009395","stationId":"490G00009395","stopLetter":"SD","topMostParentId":"490G00009395"},{"icsId":"1010075","id":"490010075S","lat":51.388816,"lon":-0.303849,"name":"Mountcombe Close","parentId":"490G00010075","stationId":"490G00010075","stopLetter":"SE","topMostParentId":"490G00010075"},{"icsId":"1018574","id":"490018574S","lat":51.387356,"lon":-0.301733,"name":"Langley Road","parentId":"490G00018574","stationId":"490G00018574","stopLetter":"SF","topMostParentId":"490G00018574"},{"icsId":"1008949","id":"490008949S","lat":51.385738,"lon":-0.300528,"name":"Langley Avenue","parentId":"490G00008949","stationId":"490G00008949","stopLetter":"SG","topMostParentId":"490G00008949"},{"icsId":"1006089","id":"490006089S","lat":51.383747,"lon":-0.300329,"name":"Ditton Road","parentId":"490G00006089","stationId":"490G00006089","stopLetter":"HA","topMostParentId":"490G00006089"},{"icsId":"1013457","id":"490013457HU","lat":51.380939,"lon":-0.301381,"name":"Ash Tree Close","parentId":"490G00013457","stationId":"490G00013457","stopLetter":"HU","topMostParentId":"490G00013457"},{"icsId":"1013628","id":"490013628S","lat":51.378919,"lon":-0.302203,"name":"Thornhill Road","parentId":"490G00013628","stationId":"490G00013628","stopLetter":"HB","topMostParentId":"490G00013628"},{"icsId":"1007205","id":"490007205S","lat":51.375825,"lon":-0.303409,"name":"Southborough High School","parentId":"490G00007205","stationId":"490G00007205","stopLetter":"HC","topMostParentId":"490G00007205"},{"icsId":"1006501","id":"490006501S","lat":51.373225,"lon":-0.304626,"name":"Elmcroft Drive","parentId":"490G00006501","stationId":"490G00006501","stopLetter":"HD","topMostParentId":"490G00006501"},{"icsId":"1013474","id":"490013474S","lat":51.370498,"lon":-0.305718,"name":"The North Star","parentId":"490G00013474","stationId":"490G00013474","stopLetter":"HE","topMostParentId":"490G00013474"},{"icsId":"1008338","id":"490008338S1","lat":51.368088,"lon":-0.306296,"name":"Hook Parade","parentId":"490G00008338","stationId":"490G00008338","stopLetter":"HH","topMostParentId":"490G00008338"},{"icsId":"1013597","id":"490013597Q","lat":51.36545,"lon":-0.307327,"name":"Holmwood Road","parentId":"490G00013597","stationId":"490G00013597","stopLetter":"Q","topMostParentId":"490G00013597"},{"icsId":"1009615","id":"490009615R","lat":51.363307,"lon":-0.306515,"name":"Mansfield Road","parentId":"490G00009615","stationId":"490G00009615","stopLetter":"R","topMostParentId":"490G00009615"},{"icsId":"1001061","id":"490001061S","lat":51.363675,"lon":-0.300914,"name":"Chessington North Station","parentId":"490G01061S","stationId":"490G01061S","stopLetter":"S","topMostParentId":"910GCHSSN"},{"icsId":"1013267","id":"490013267E","lat":51.363637,"lon":-0.295801,"name":"Church Rise","parentId":"490G00013267","stationId":"490G00013267","stopLetter":"A","topMostParentId":"490G00013267"},{"icsId":"1007180","id":"490007177E","lat":51.363026,"lon":-0.292707,"name":"Melford Close","parentId":"490G00007180","stationId":"490G00007180","stopLetter":"B","topMostParentId":"490G00007180"},{"icsId":"1007177","id":"490007177S","lat":51.361892,"lon":-0.292031,"name":"Gilders Road","parentId":"490G00007177","stationId":"490G00007177","stopLetter":"C","topMostParentId":"490G00007177"},{"icsId":"1005593","id":"490005593S","lat":51.359007,"lon":-0.294609,"name":"Copt Gilders","parentId":"490G00005593","stationId":"490G00005593","stopLetter":"S","topMostParentId":"490G00005593"},{"icsId":"1012841","id":"490012841W","lat":51.358622,"lon":-0.298487,"name":"Stokesby Road","parentId":"490G00012841","stationId":"490G00012841","stopLetter":"T","topMostParentId":"490G00012841"},{"icsId":"1011540","id":"490011540W","lat":51.357845,"lon":-0.302523,"name":"Reynolds Avenue","parentId":"490G00011540","stationId":"490G00011540","stopLetter":"G","topMostParentId":"490G00011540"},{"icsId":"1011982","id":"490011982H","lat":51.357036,"lon":-0.30508,"name":"Selby Close","parentId":"490G00011982","stationId":"490G00011982","stopLetter":"H","topMostParentId":"490G00011982"},{"icsId":"1001062","id":"490001062W","lat":51.356112,"lon":-0.308346,"name":"Chessington South Station","parentId":"490G01062W","stationId":"490G01062W","stopLetter":"B","topMostParentId":"910GCHSSS"},{"icsId":"1005116","id":"490005116J","lat":51.356174,"lon":-0.310757,"name":"Chessington School","parentId":"490G00005116","stationId":"490G00005116","stopLetter":"J","topMostParentId":"490G00005116"},{"icsId":"1003663","id":"490003663W","lat":51.353273,"lon":-0.312256,"name":"Barwell Business Park","parentId":"490G00003663","stationId":"490G00003663","stopLetter":"W","topMostParentId":"490G00003663"},{"icsId":"1005121","id":"490005121Z","lat":51.350993,"lon":-0.313791,"name":"Chessington World Of Adventures","parentId":"490G00005121","stationId":"490G00005121","stopLetter":"Z","topMostParentId":"490G00005121"}]}]}