{"direction":"inbound","lineId":"75","lineName":"75","mode":"bus","stopPointSequences":[{"stopPoint":[{"icsId":"1006707","id":"490006706C13","lat":51.372689,"lon":-0.096386,"name":"Park Lane / Fairfield Halls","parentId":"490G00006707","stationId":"490G00006707","stopLetter":"KA","topMostParentId":"490G00006707"},{"icsId":"1006706","id":"490006706C9","lat":51.373317,"lon":-0.096863,"name":"Fairfield Halls","parentId":"490G00006706","stationId":"490G00006706","stopLetter":"KD","topMostParentId":"490G00006706"},{"icsId":"1014614","id":"490014614E14","lat":51.376465,"lon":-0.098528,"name":"Whitgift Centre","parentId":"490G00014614","stationId":"490G00014614","stopLetter":"WM","topMostParentId":"490G00014614"},{"icsId":"1014420","id":"490014420V","lat":51.379159,"lon":-0.101118,"name":"West Croydon Bus Station","parentId":"490G000824","stationId":"490G000824","stopLetter":"B1","topMostParentId":"HUBWCY"},{"icsId":"1003793","id":"490003793N","lat":51.381371,"lon":-0.099388,"name":"Bedford Hall","parentId":"490G00003793","stationId":"490G00003793","stopLetter":"K","topMostParentId":"490G00003793"},{"icsId":"1008271","id":"490008271E","lat":51.383676,"lon":-0.099609,"name":"Hogarth Crescent","parentId":"490G00008271","stationId":"490G00008271","stopLetter":"L","topMostParentId":"490G00008271"},{"icsId":"1013376","id":"490013376N","lat":51.386354,"lon":-0.097242,"name":"Devonshire Road","parentId":"490G00013376","stationId":"490G00013376","stopLetter":"J","topMostParentId":"490G00013376"},{"icsId":"1003706","id":"490003706E","lat":51.388149,"lon":-0.093703,"name":"Beaconsfield Road","parentId":"490G00003706","stationId":"490G00003706","stopLetter":"K","topMostParentId":"490G00003706"},{"icsId":"1013549","id":"490013549N","lat":51.389277,"lon":-0.08956,"name":"Selhurst New Road","parentId":"490G00013549","stationId":"490G00013549","stopLetter":"L","topMostParentId":"490G00013549"},{"icsId":"1001245","id":"490001245N","lat":51.392109,"lon":-0.087832,"name":"Selhurst Station","parentId":"490G01245N","stationId":"490G01245N","stopLetter":"M","topMostParentId":"910GSELHRST"},{"icsId":"1015286","id":"490015286N","lat":51.394837,"lon":-0.085304,"name":"Clifton Road","parentId":"490G00015286","stationId":"490G00015286","stopLetter":"N","topMostParentId":"490G00015286"},{"icsId":"1015297","id":"490010805E","lat":51.396396,"lon":-0.082766,"name":"Park Road","parentId":"490G00015297","stationId":"490G00015297","stopLetter":"->E","topMostParentId":"490G00015297"},{"icsId":"1015287","id":"490010805E1","lat":51.397215,"lon":-0.080015,"name":"Russell Court","parentId":"490G00015287","stationId":"490G00015287","topMostParentId":"490G00015287"},{"icsId":"1012320","id":"490012320B","lat":51.397993,"lon":-0.077581,"name":"South Norwood Clock Tower","parentId":"490G00012320","stationId":"490G00012320","stopLetter":"B","topMostParentId":"490G00012320"},{"icsId":"1011128","id":"490011128F","lat":51.399046,"lon":-0.07541,"name":"Portland Road","parentId":"490G000710","stationId":"490G000710","stopLetter":"F","topMostParentId":"490G000710"},{"icsId":"1013379","id":"490013379N","lat":51.40227,"lon":-0.070774,"name":"Sunnybank","parentId":"490G00013379","stationId":"490G00013379","stopLetter":"->N","topMostParentId":"490G00013379"},{"icsId":"1011984","id":"490011984E","lat":51.404891,"lon":-0.067199,"name":"Selby Road","parentId":"490G00011984","stationId":"490G00011984","stopLetter":"A","topMostParentId":"490G00011984"},{"icsId":"1003318","id":"490003318E","lat":51.406278,"lon":-0.064638,"name":"Anerley / The Mitre","parentId":"490G00003318","stationId":"490G00003318","stopLetter":"B","topMostParentId":"490G00003318"},{"icsId":"1011884","id":"490011884AT","lat":51.407069,"lon":-0.062995,"name":"Samos Road","parentId":"490G00011884","stationId":"490G00011884","stopLetter":"C","topMostParentId":"490G00011884"},{"icsId":"1018974","id":"490003317AP","lat":51.40833,"lon":-0.060353,"name":"Croydon Road / Elmers End Road","parentId":"490G00018974","stationId":"490G00018974","stopLetter":"D","topMostParentId":"490G00018974"},{"icsId":"1003317","id":"490003317AK","lat":51.409068,"lon":-0.058798,"name":"Anerley Road / Oak Grove Road","parentId":"490G00003317","stationId":"490G00003317","stopLetter":"E","topMostParentId":"490G00003317"},{"icsId":"1003494","id":"490003494E","lat":51.41075,"lon":-0.05608,"name":"Avenue Road","parentId":"490G00003494","stationId":"490G00003494","stopLetter":"F","topMostParentId":"490G00003494"},{"icsId":"1015419","id":"490015419G","lat":51.413607,"lon":-0.052148,"name":"Penge / Pawleyne Arms","parentId":"490G00015419","stationId":"490G00015419","stopLetter":"G","topMostParentId":"490G00015419"},{"icsId":"1010906","id":"490010906L","lat":51.414317,"lon":-0.05104,"name":"Green Lane / Raleigh Road","parentId":"490G00010906","stationId":"490G00010906","stopLetter":"L","topMostParentId":"490G00010906"},{"icsId":"1013590","id":"490013554W","lat":51.415882,"lon":-0.048902,"name":"Thesiger Road","parentId":"490G00013590","stationId":"490G00013590","stopLetter":"P","topMostParentId":"490G00013590"},{"icsId":"1010908","id":"490010908N","lat":51.417379,"lon":-0.051298,"name":"Penge Lane","parentId":"490G00010908","stationId":"490G00010908","stopLetter":"R","topMostParentId":"490G00010908"},{"icsId":"1001224","id":"490001224A","lat":51.419975,"lon":-0.053273,"name":"Penge East Station","parentId":"490G01224A","stationId":"490G01224A","stopLetter":"Q","topMostParentId":"910GPNGEE"},{"icsId":"1012963","id":"490012963N","lat":51.421765,"lon":-0.052233,"name":"Studland Road","parentId":"490G00012963","stationId":"490G00012963","stopLetter":"T","topMostParentId":"490G00012963"},{"icsId":"1010226","id":"490010226G","lat":51.426228,"lon":-0.051842,"name":"Newlands Park","parentId":"490G000676","stationId":"490G000676","stopLetter":"G","topMostParentId":"490G000676"},{"icsId":"1006308","id":"490006308J","lat":51.426198,"lon":-0.048981,"name":"Earlsthorpe Road","parentId":"490G00006308","stationId":"490G00006308","stopLetter":"J","topMostParentId":"490G00006308"},{"icsId":"1004593","id":"490004593K","lat":51.428493,"lon":-0.046941,"name":"Burghill Road","parentId":"490G00004593","stationId":"490G00004593","stopLetter":"K","topMostParentId":"490G00004593"},{"icsId":"1005920","id":"490005920N","lat":51.431702,"lon":-0.046272,"name":"Dacres Road","parentId":"490G00005920","stationId":"490G00005920","stopLetter":"W","topMostParentId":"490G00005920"},{"icsId":"1008481","id":"490008481N","lat":51.434344,"lon":-0.04672,"name":"Inglemere Road","parentId":"490G00008481","stationId":"490G00008481","stopLetter":"->N","topMostParentId":"490G00008481"},{"icsId":"1012145","id":"490012145E","lat":51.435305,"lon":-0.043427,"name":"Siddons Road","parentId":"490G00012145","stationId":"490G00012145","stopLetter":"->E","topMostParentId":"490G00012145"},{"icsId":"1008716","id":"490008716E","lat":51.436725,"lon":-0.040115,"name":"Kilmorie Road","parentId":"490G00008716","stationId":"490G00008716","stopLetter":"P","topMostParentId":"490G00008716"},{"icsId":"1009455","id":"490009455E","lat":51.438033,"lon":-0.037138,"name":"Lutwyche Road","parentId":"490G00009455","stationId":"490G00009455","stopLetter":"R","topMostParentId":"490G00009455"},{"icsId":"1006510","id":"490006510E","lat":51.439384,"lon":-0.032433,"name":"Elm Lane","parentId":"490G00006510","stationId":"490G00006510","stopLetter":"S","topMostParentId":"490G00006510"},{"icsId":"1003812","id":"490003812E","lat":51.440272,"lon":-0.030682,"name":"Beechfield Road","parentId":"490G00003812","stationId":"490G00003812","stopLetter":"T","topMostParentId":"490G00003812"},{"icsId":"1004862","id":"490001053P","lat":51.444693,"lon":-0.023541,"name":"Catford & Catford Bridge Stations","parentId":"490G000444","stationId":"490G000444","stopLetter":"P","topMostParentId":"490G000444"},{"icsId":"1013283","id":"490013282H","lat":51.445708,"lon":-0.01977,"name":"The Catford Broadway","parentId":"490G00013283","stationId":"490G00013283","stopLetter":"H","topMostParentId":"490G00013283"},{"icsId":"1013282","id":"490013282A","lat":51.447111,"lon":-0.018731,"name":"The Catford Centre","parentId":"490G00013282","stationId":"490G00013282","stopLetter":"A","topMostParentId":"490G00013282"},{"icsId":"1011703","id":"490011703HE","lat":51.449254,"lon":-0.017242,"name":"Rosenthal Road","parentId":"490G00011703","stationId":"490G00011703","stopLetter":"B","topMostParentId":"490G00011703"},{"icsId":"1000914","id":"490007163HF","lat":51.451703,"lon":-0.016934,"name":"Mount Pleasant Road","parentId":"490G000231","stationId":"490G000231","stopLetter":"HF","topMostParentId":"490G000231"},{"icsId":"1009109","id":"490009109HH","lat":51.452866,"lon":-0.016582,"name":"Lewisham Hospital","parentId":"490G00009109","stationId":"490G00009109","stopLetter":"HH","topMostParentId":"490G00009109"},{"icsId":"1009113","id":"490009113HJ","lat":51.454549,"lon":-0.016106,"name":"Lewisham Park","parentId":"490G00009113","stationId":"490G00009113","stopLetter":"HJ","topMostParentId":"490G00009113"},{"icsId":"1009111","id":"490009111HK","lat":51.456949,"lon":-0.013914,"name":"Lewisham Fire Station","parentId":"490G00009111","stationId":"490G00009111","stopLetter":"HK","topMostParentId":"490G00009111"},{"icsId":"1009105","id":"490009105T","lat":51.460139,"lon":-0.011631,"name":"Lewisham Centre","parentId":"490G00009105","stationId":"490G00009105","stopLetter":"T","topMostParentId":"490G00009105"},{"icsId":"1001177","id":"490001177U","lat":51.464955,"lon":-0.012977,"name":"Lewisham Station","parentId":"490G01177G","stationId":"490G01177G","stopLetter":"AP","topMostParentId":"HUBLEW","zone":"2+3"}]}]}