{"direction":"inbound","lineId":"78","lineName":"78","mode":"bus","stopPointSequences":[{"stopPoint":[{"icsId":"1012800","id":"490012800N","lat":51.470347,"lon":-0.054067,"name":"St Mary's Road","parentId":"490G00012800","stationId":"490G00012800","stopLetter":"NZ","topMostParentId":"490G00012800"},{"icsId":"1008303","id":"490008303S","lat":51.467551,"lon":-0.054128,"name":"Hollydale Road","parentId":"490G00008303","stationId":"490G00008303","stopLetter":"NC","topMostParentId":"490G00008303"},{"icsId":"1003656","id":"490003656S","lat":51.466252,"lon":-0.056573,"name":"Barset Road","parentId":"490G00003656","stationId":"490G00003656","stopLetter":"->S","topMostParentId":"490G00003656"},{"icsId":"1010457","id":"490010457S","lat":51.465081,"lon":-0.058638,"name":"Nunhead Green","parentId":"490G00010457","stationId":"490G00010457","stopLetter":"->S","topMostParentId":"490G00010457"},{"icsId":"1004773","id":"490004773W","lat":51.463385,"lon":-0.062655,"name":"Carden Road","parentId":"490G00004773","stationId":"490G00004773","stopLetter":"EP","topMostParentId":"490G00004773"},{"icsId":"1008807","id":"490008807N2","lat":51.462885,"lon":-0.066678,"name":"Peckham Rye / East Dulwich Road","parentId":"490G00008807","stationId":"490G00008807","stopLetter":"WK","topMostParentId":"490G00008807"},{"icsId":"1010269","id":"490010269N","lat":51.465831,"lon":-0.066482,"name":"Nigel Road","parentId":"490G00010269","stationId":"490G00010269","stopLetter":"WM","topMostParentId":"490G00010269"},{"icsId":"1005382","id":"490005382N","lat":51.473309,"lon":-0.065705,"name":"Clayton Road","parentId":"490G00005382","stationId":"490G00005382","topMostParentId":"490G00005382"},{"icsId":"1010878","id":"490010878C","lat":51.474711,"lon":-0.068914,"name":"Peckham Library","parentId":"490G00010878","stationId":"490G00010878","stopLetter":"C","topMostParentId":"490G00010878"},{"icsId":"1004140","id":"490004140N","lat":51.475933,"lon":-0.06941,"name":"Bonar Road","parentId":"490G00004140","stationId":"490G00004140","stopLetter":"H","topMostParentId":"490G00004140"},{"icsId":"1005525","id":"490005525N2","lat":51.478694,"lon":-0.068343,"name":"Commercial Way","parentId":"490G00005525","stationId":"490G00005525","stopLetter":"P","topMostParentId":"490G00005525"},{"icsId":"1004027","id":"490004027N","lat":51.480823,"lon":-0.067072,"name":"Bird In Bush Road","parentId":"490G00004027","stationId":"490G00004027","stopLetter":"R","topMostParentId":"490G00004027"},{"icsId":"1010880","id":"490010880NG","lat":51.482244,"lon":-0.065989,"name":"Peckham Park Road / Old Kent Road","parentId":"490G00010880","stationId":"490G00010880","stopLetter":"NG","topMostParentId":"490G00010880"},{"icsId":"1009531","id":"490009531W","lat":51.485425,"lon":-0.070233,"name":"Malt Street","parentId":"490G00009531","stationId":"490G00009531","stopLetter":"WH","topMostParentId":"490G00009531"},{"icsId":"1013761","id":"490013761W","lat":51.486248,"lon":-0.073252,"name":"Trafalgar Avenue","parentId":"490G00013761","stationId":"490G00013761","stopLetter":"WJ","topMostParentId":"490G00013761"},{"icsId":"1006284","id":"490006266NA","lat":51.489702,"lon":-0.077126,"name":"Dunton Road / Old Kent Road","parentId":"490G00006284","stationId":"490G00006284","stopLetter":"NA","topMostParentId":"490G00006284"},{"icsId":"1009480","id":"490009480N","lat":51.491719,"lon":-0.075125,"name":"Lynton Road","parentId":"490G00009480","stationId":"490G00009480","stopLetter":"->N","topMostParentId":"490G00009480"},{"icsId":"1009307","id":"490009307N","lat":51.492846,"lon":-0.074213,"name":"Longfield Estate","parentId":"490G00009307","stationId":"490G00009307","stopLetter":"T","topMostParentId":"490G00009307"},{"icsId":"1003275","id":"490003275W","lat":51.493624,"lon":-0.07444,"name":"Alscot Road","parentId":"490G00003275","stationId":"490G00003275","stopLetter":"U","topMostParentId":"490G00003275"},{"icsId":"1012367","id":"490012367W","lat":51.495376,"lon":-0.077665,"name":"Spa Road","parentId":"490G00012367","stationId":"490G00012367","stopLetter":"V","topMostParentId":"490G00012367"},{"icsId":"1007362","id":"490007362N","lat":51.497026,"lon":-0.08124,"name":"Grange Road / Caledonian Market","parentId":"490G00007362","stationId":"490G00007362","stopLetter":"L","topMostParentId":"490G00007362"},{"icsId":"1003035","id":"490003035N","lat":51.499021,"lon":-0.0795,"name":"Abbey Street","parentId":"490G00003035","stationId":"490G00003035","stopLetter":"M","topMostParentId":"490G00003035"},{"icsId":"1006200","id":"490006200E","lat":51.502106,"lon":-0.077886,"name":"Druid Street","parentId":"490G00006200","stationId":"490G00006200","stopLetter":"E","topMostParentId":"490G00006200"},{"icsId":"1013744","id":"490013744L","lat":51.503661,"lon":-0.07674,"name":"Tower Bridge / City Hall","parentId":"490G00013744","stationId":"490G00013744","stopLetter":"L","topMostParentId":"490G00013744"},{"icsId":"1002076","id":"490002076Y","lat":51.510279,"lon":-0.075078,"name":"Tower Gateway Station","parentId":"490G02076RV","stationId":"490G02076RV","stopLetter":"TC","topMostParentId":"HUBTOG","zone":"1"},{"icsId":"1009606","id":"490009606S","lat":51.512831,"lon":-0.073327,"name":"Mansell Street","parentId":"490G000654","stationId":"490G000654","stopLetter":"S","topMostParentId":"490G000654"},{"icsId":"1006229","id":"490006229Z","lat":51.513781,"lon":-0.075867,"name":"Duke's Place","parentId":"490G000492","stationId":"490G000492","stopLetter":"->N","topMostParentId":"490G000492"},{"icsId":"1000138","id":"490000138F","lat":51.517493,"lon":-0.08064,"name":"Liverpool Street Station","parentId":"490G00138E","stationId":"490G00138E","stopLetter":"F","topMostParentId":"HUBLST","zone":"1"},{"icsId":"1012391","id":"490011187N","lat":51.520362,"lon":-0.079049,"name":"Primrose Street","parentId":"490G00012391","stationId":"490G00012391","stopLetter":"H","topMostParentId":"490G00012391"},{"icsId":"1001571","id":"490005524F","lat":51.522236,"lon":-0.078134,"name":"Shoreditch High Street Station","parentId":"490G05524E","stationId":"490G05524E","stopLetter":"F","topMostParentId":"910GSHRDHST"},{"icsId":"1005910","id":"490005910ZA","lat":51.524863,"lon":-0.080416,"name":"Curtain Road","parentId":"490G00005910","stationId":"490G00005910","stopLetter":"ZA","topMostParentId":"490G00005910"}]}]}