{"direction":"inbound","lineId":"8","lineName":"8","mode":"bus","stopPointSequences":[{"stopPoint":[{"icsId":"1018892","id":"490000235Z","lat":51.516728,"lon":-0.128466,"name":"New Oxford Street","parentId":"490G00018892","stationId":"490G00018892","stopLetter":"Z","topMostParentId":"490G00018892"},{"icsId":"1010131","id":"490010131WB","lat":51.517579,"lon":-0.124338,"name":"Museum Street","parentId":"490G00010131","stationId":"490G00010131","stopLetter":"E","topMostParentId":"490G00010131"},{"icsId":"1011244","id":"490011244J","lat":51.518332,"lon":-0.119161,"name":"Procter Street","parentId":"490G00011244","stationId":"490G00011244","stopLetter":"H","topMostParentId":"490G00011244"},{"icsId":"1004514","id":"490004514E","lat":51.518221,"lon":-0.115,"name":"Brownlow Street","parentId":"490G00004514","stationId":"490G00004514","stopLetter":"S","topMostParentId":"490G00004514"},{"icsId":"1000044","id":"490000044E","lat":51.518386,"lon":-0.112413,"name":"Chancery Lane Station","parentId":"490G00044E","stationId":"490G00044E","stopLetter":"E","topMostParentId":"940GZZLUCHL","zone":"1"},{"icsId":"1008275","id":"490008275D","lat":51.518042,"lon":-0.109458,"name":"Holborn Circus / Fetter Lane","parentId":"490G00008275","stationId":"490G00008275","stopLetter":"D","topMostParentId":"490G00008275"},{"icsId":"1015096","id":"490008275K","lat":51.517578,"lon":-0.106379,"name":"Holborn Circus","parentId":"490G00015096","stationId":"490G00015096","stopLetter":"K","topMostParentId":"490G00015096"},{"icsId":"1001067","id":"490001067Q","lat":51.516888,"lon":-0.103726,"name":"City Thameslink Station","parentId":"490G01067Q","stationId":"490G01067Q","stopLetter":"HL","topMostParentId":"910GCTMSLNK"},{"icsId":"1008748","id":"490000225S","lat":51.515719,"lon":-0.09984,"name":"King Edward Street","parentId":"490G000621","stationId":"490G000621","stopLetter":"ST","topMostParentId":"490G000621"},{"icsId":"1000225","id":"49000225SY","lat":51.514428,"lon":-0.095628,"name":"St Paul's Station","parentId":"490G00225S","stationId":"490G00225S","stopLetter":"SY","topMostParentId":"940GZZLUSPU","zone":"1"},{"icsId":"1007599","id":"490007596K","lat":51.513739,"lon":-0.091463,"name":"Bank Station  / Poultry","parentId":"490G00007599","stationId":"490G00007599","stopLetter":"K","topMostParentId":"HUBBAN"},{"icsId":"1007620","id":"490000013C","lat":51.513825,"lon":-0.08787,"name":"Bank Station  / Threadneedle Street","parentId":"490G000559","stationId":"490G000559","stopLetter":"C","topMostParentId":"HUBBAN"},{"icsId":"1010527","id":"490010527E","lat":51.514241,"lon":-0.085244,"name":"Old Broad Street","parentId":"490G00010527","stationId":"490G00010527","stopLetter":"LK","topMostParentId":"490G00010527"},{"icsId":"1004043","id":"490004043N2","lat":51.515657,"lon":-0.082216,"name":"Wormwood Street","parentId":"490G00004043","stationId":"490G00004043","stopLetter":"W","topMostParentId":"490G00004043"},{"icsId":"1000138","id":"490000138F","lat":51.517493,"lon":-0.08064,"name":"Liverpool Street Station","parentId":"490G00138E","stationId":"490G00138E","stopLetter":"F","topMostParentId":"HUBLST","zone":"1"},{"icsId":"1012391","id":"490011187N","lat":51.520362,"lon":-0.079049,"name":"Primrose Street","parentId":"490G00012391","stationId":"490G00012391","stopLetter":"H","topMostParentId":"490G00012391"},{"icsId":"1006398","id":"490006398J","lat":51.52372,"lon":-0.076543,"name":"Bethnal Grn Rd / Shoreditch High St Stn","parentId":"490G000498","stationId":"490G000498","stopLetter":"J","topMostParentId":"490G000498"},{"icsId":"1004313","id":"490004313SA","lat":51.524623,"lon":-0.072354,"name":"Brick Lane","parentId":"490G00004313","stationId":"490G00004313","stopLetter":"SA","topMostParentId":"490G00004313"},{"icsId":"1003638","id":"490003638E","lat":51.526195,"lon":-0.067342,"name":"Barnet Grove","parentId":"490G00003638","stationId":"490G00003638","stopLetter":"SC","topMostParentId":"490G00003638"},{"icsId":"1011087","id":"490011087E","lat":51.526654,"lon":-0.063531,"name":"Pollard Row","parentId":"490G00011087","stationId":"490G00011087","stopLetter":"SG","topMostParentId":"490G00011087"},{"icsId":"1014721","id":"490014721F","lat":51.527036,"lon":-0.060012,"name":"Wilmot Street","parentId":"490G00014721","stationId":"490G00014721","stopLetter":"F","topMostParentId":"490G00014721"},{"icsId":"1000022","id":"490000022D","lat":51.527466,"lon":-0.056649,"name":"Bethnal Green Station","parentId":"490G00022D","stationId":"490G00022D","stopLetter":"D","topMostParentId":"940GZZLUBLG","zone":"2"},{"icsId":"1004606","id":"490004606K","lat":51.527721,"lon":-0.052501,"name":"Burnham Street","parentId":"490G00004606","stationId":"490G00004606","stopLetter":"K","topMostParentId":"490G00004606"},{"icsId":"1004144","id":"490004144E","lat":51.529278,"lon":-0.046638,"name":"Bonner Street","parentId":"490G00004144","stationId":"490G00004144","stopLetter":"HB","topMostParentId":"490G00004144"},{"icsId":"1012204","id":"490012204E","lat":51.529889,"lon":-0.044464,"name":"Smart Street","parentId":"490G00012204","stationId":"490G00012204","stopLetter":"HC","topMostParentId":"490G00012204"},{"icsId":"1007580","id":"490007580E","lat":51.531049,"lon":-0.039584,"name":"Roman Road / Grove Road","parentId":"490G00007580","stationId":"490G00007580","stopLetter":"RJ","topMostParentId":"490G00007580"},{"icsId":"1009786","id":"490009786E","lat":51.531813,"lon":-0.035832,"name":"Medway Road","parentId":"490G00009786","stationId":"490G00009786","stopLetter":"J","topMostParentId":"490G00009786"},{"icsId":"1006904","id":"490006904E","lat":51.532233,"lon":-0.033478,"name":"Ford Road","parentId":"490G00006904","stationId":"490G00006904","stopLetter":"K","topMostParentId":"490G00006904"},{"icsId":"1012461","id":"490012461N","lat":51.534049,"lon":-0.0335,"name":"Alice Lane","parentId":"490G00012461","stationId":"490G00012461","stopLetter":"L","topMostParentId":"490G00012461"},{"icsId":"1010561","id":"490010561E","lat":51.535796,"lon":-0.029359,"name":"Parnell Road","parentId":"490G00010561","stationId":"490G00010561","stopLetter":"ON","topMostParentId":"490G00010561"},{"icsId":"1011654","id":"490011654S","lat":51.534881,"lon":-0.027337,"name":"Roman Road Market","parentId":"490G00011654","stationId":"490G00011654","stopLetter":"OL","topMostParentId":"490G00011654"},{"icsId":"1004206","id":"490004206J","lat":51.528416,"lon":-0.017221,"name":"Bow Church","parentId":"490G000421","stationId":"490G000421","stopLetter":"J","topMostParentId":"490G000421"},{"icsId":"1004205","id":"490004205C","lat":51.528548,"lon":-0.019695,"name":"Bow Bus Garage","parentId":"490G00004205","stationId":"490G00004205","stopLetter":"C","topMostParentId":"490G00004205"}]}]}