{"direction":"inbound","lineId":"81","lineName":"81","mode":"bus","stopPointSequences":[{"stopPoint":[{"icsId":"1015241","id":"490015241B","lat":51.470183,"lon":-0.355863,"name":"School Road","parentId":"490G000884","stationId":"490G000884","stopLetter":"C","topMostParentId":"490G000884"},{"icsId":"1007766","id":"490007766L","lat":51.469015,"lon":-0.358468,"name":"Fairfields Road","parentId":"490G00007766","stationId":"490G00007766","stopLetter":"L","topMostParentId":"490G00007766"},{"icsId":"1013777","id":"490013777R","lat":51.466914,"lon":-0.363841,"name":"Treaty Centre","parentId":"490G00013777","stationId":"490G00013777","stopLetter":"T","topMostParentId":"490G00013777"},{"icsId":"1008393","id":"490008391X","lat":51.468179,"lon":-0.366891,"name":"Bell Road / Bell Corner","parentId":"490G00008393","stationId":"490G00008393","stopLetter":"X","topMostParentId":"490G00008393"},{"icsId":"1012454","id":"490012454W","lat":51.468849,"lon":-0.373001,"name":"St Michael & St Martin Church","parentId":"490G00012454","stationId":"490G00012454","stopLetter":"H","topMostParentId":"490G00012454"},{"icsId":"1006406","id":"490014357W","lat":51.469919,"lon":-0.37757,"name":"Wellington Road North","parentId":"490G00006406","stationId":"490G00006406","stopLetter":"J","topMostParentId":"490G00006406"},{"icsId":"1012458","id":"490012458W","lat":51.471408,"lon":-0.381837,"name":"St Paul's Church","parentId":"490G00012458","stationId":"490G00012458","stopLetter":"K","topMostParentId":"490G00012458"},{"icsId":"1000118","id":"490000118C","lat":51.472562,"lon":-0.385352,"name":"Hounslow West Station","parentId":"490G00118B","stationId":"490G00118B","stopLetter":"C","topMostParentId":"940GZZLUHWT","zone":"5"},{"icsId":"1007425","id":"490007425W","lat":51.474634,"lon":-0.392177,"name":"Great West Road / Basildene Road","parentId":"490G00007425","stationId":"490G00007425","stopLetter":"L","topMostParentId":"490G00007425"},{"icsId":"1015462","id":"490013776W1","lat":51.476068,"lon":-0.398376,"name":"Henlys Roundabout","parentId":"490G00015462","stationId":"490G00015462","stopLetter":"CP","topMostParentId":"490G00015462"},{"icsId":"1011470","id":"490011470W","lat":51.476846,"lon":-0.401329,"name":"Rectory Road","parentId":"490G00011470","stationId":"490G00011470","stopLetter":"CQ","topMostParentId":"490G00011470"},{"icsId":"1005707","id":"490005707W","lat":51.478328,"lon":-0.406519,"name":"Cranford Library / The Parkway","parentId":"490G00005707","stationId":"490G00005707","stopLetter":"CR","topMostParentId":"490G00005707"},{"icsId":"1013235","id":"490013235W","lat":51.479113,"lon":-0.409315,"name":"The Avenue","parentId":"490G00013235","stationId":"490G00013235","stopLetter":"CS","topMostParentId":"490G00013235"},{"icsId":"1005704","id":"490005704W","lat":51.480475,"lon":-0.414336,"name":"Waye Avenue","parentId":"490G00005704","stationId":"490G00005704","stopLetter":"CT","topMostParentId":"490G00005704"},{"icsId":"1013596","id":"490013596W","lat":51.481012,"lon":-0.420798,"name":"Craneswater","parentId":"490G00013596","stationId":"490G00013596","stopLetter":"CU","topMostParentId":"490G00013596"},{"icsId":"1010677","id":"490010677W1","lat":51.480666,"lon":-0.425145,"name":"Oxford Avenue","parentId":"490G00010677","stationId":"490G00010677","stopLetter":"H","topMostParentId":"490G00010677"},{"icsId":"1007811","id":"490007811D","lat":51.480581,"lon":-0.435618,"name":"Harlington Corner","parentId":"490G00007811","stationId":"490G00007811","stopLetter":"J","topMostParentId":"490G00007811"},{"icsId":"1004149","id":"490004149W","lat":51.480979,"lon":-0.444591,"name":"Mondial Way","parentId":"490G00004149","stationId":"490G00004149","stopLetter":"BL","topMostParentId":"490G00004149"},{"icsId":"1008021","id":"490008021W","lat":51.481245,"lon":-0.451725,"name":"Sipson Road","parentId":"490G00008021","stationId":"490G00008021","stopLetter":"BP","topMostParentId":"490G00008021"},{"icsId":"1010249","id":"490008014W","lat":51.480999,"lon":-0.463096,"name":"Bath Road / Newport Road","parentId":"490G00010249","stationId":"490G00010249","stopLetter":"BT","topMostParentId":"490G00010249"},{"icsId":"1005530","id":"490005530W","lat":51.481496,"lon":-0.469488,"name":"Compass Centre","parentId":"490G00005530","stationId":"490G00005530","stopLetter":"BW","topMostParentId":"490G00005530"},{"icsId":"1007897","id":"490007897W","lat":51.481676,"lon":-0.475746,"name":"Pinglestone Close","parentId":"490G00007897","stationId":"490G00007897","stopLetter":"H","topMostParentId":"490G00007897"},{"icsId":"1008019","id":"490008019W","lat":51.48142,"lon":-0.482365,"name":"Heathrow Park Thistle Hotel","parentId":"490G00008019","stationId":"490G00008019","stopLetter":"J","topMostParentId":"490G00008019"},{"icsId":"1009314","id":"490009308W","lat":51.48021,"lon":-0.490974,"name":"Heathrow Close","parentId":"490G00009314","stationId":"490G00009314","stopLetter":"K","topMostParentId":"490G00009314"},{"icsId":"1010009","id":"490010009W","lat":51.478887,"lon":-0.498621,"name":"Moor Bridge","parentId":"490G00010009","stationId":"490G00010009","stopLetter":"L","topMostParentId":"490G00010009"},{"icsId":"1007085","id":"03700168","lat":51.478849,"lon":-0.508299,"name":"Galleymead Road","parentId":"037G0167","stationId":"037G0167","topMostParentId":"037G0167"},{"icsId":"1012077","id":"03700166","lat":51.47964,"lon":-0.512536,"name":"Poyle Road Junction","parentId":"037G0164","stationId":"037G0164","topMostParentId":"037G0164"},{"icsId":"1005469","id":"03700163","lat":51.480477,"lon":-0.516138,"name":"Coleridge Crescent West","parentId":"037G0162","stationId":"037G0162","topMostParentId":"037G0162"},{"icsId":"1005507","id":"03700161","lat":51.482418,"lon":-0.520324,"name":"Star & Garter","topMostParentId":"03700161"},{"icsId":"1005508","id":"03700159","lat":51.483613,"lon":-0.523785,"name":"Ye Olde George Inn","parentId":"037G0159","stationId":"037G0159","topMostParentId":"037G0159"},{"icsId":"1008382","id":"03700158","lat":51.484264,"lon":-0.527667,"name":"Red Lion","parentId":"037G0157","stationId":"037G0157","topMostParentId":"037G0157"},{"icsId":"1005837","id":"03700155","lat":51.486988,"lon":-0.531885,"name":"Crown Meadow","parentId":"037G0155","stationId":"037G0155","topMostParentId":"037G0155"},{"icsId":"1013079","id":"03700090","lat":51.489582,"lon":-0.53729,"name":"Sutton Lane","parentId":"037G0089","stationId":"037G0089","topMostParentId":"037G0089"},{"icsId":"1008188","id":"03700086","lat":51.494113,"lon":-0.548842,"name":"The Toby","parentId":"037G0086","stationId":"037G0086","topMostParentId":"037G0086"},{"icsId":"1006088","id":"03700084","lat":51.495913,"lon":-0.552574,"name":"Ditton Park Road","parentId":"037G0084","stationId":"037G0084","topMostParentId":"037G0084"},{"icsId":"1004915","id":"03700083","lat":51.497448,"lon":-0.556026,"name":"Cedar Way","parentId":"037G0082","stationId":"037G0082","topMostParentId":"037G0082"},{"icsId":"1006189","id":"03700080","lat":51.499606,"lon":-0.561821,"name":"Drake Avenue","parentId":"037G0080","stationId":"037G0080","topMostParentId":"037G0080"},{"icsId":"1013954","id":"03700078","lat":51.501236,"lon":-0.565689,"name":"Upton Court Road Junction","parentId":"037G0078","stationId":"037G0078","topMostParentId":"037G0078"},{"icsId":"1008604","id":"03700076","lat":51.503115,"lon":-0.569405,"name":"Kaywood Close","parentId":"037G0076","stationId":"037G0076","topMostParentId":"037G0076"},{"icsId":"1008957","id":"03700075","lat":51.504668,"lon":-0.572843,"name":"St Bernards Convent","parentId":"037G0139","stationId":"037G0139","topMostParentId":"037G0139"},{"icsId":"1013048","id":"03700308","lat":51.505955,"lon":-0.57737,"name":"Slough Grammar School","parentId":"037G0308","stationId":"037G0308","topMostParentId":"037G0308"},{"icsId":"1019657","id":"03700518","lat":51.507317,"lon":-0.579922,"name":"Uxbridge Road Sainsbury's","parentId":"037G0309","stationId":"037G0309","topMostParentId":"037G0309"},{"icsId":"1014541","id":"03700310","lat":51.509054,"lon":-0.585329,"name":"Sorting Office","parentId":"037G0310","stationId":"037G0310","stopLetter":"K","topMostParentId":"037G0310"},{"icsId":"1011339","id":"03700340","lat":51.509807,"lon":-0.590364,"name":"Queensmere Car Park","stopLetter":"H","topMostParentId":"03700340"},{"icsId":"1000952","id":"03700521","lat":51.511188,"lon":-0.592973,"name":"Slough Bus Station","parentId":"037G0521","stationId":"037G0521","stopLetter":"1","topMostParentId":"910GSLOUGH"}]}]}