{"direction":"inbound","lineId":"88","lineName":"88","mode":"bus","stopPointSequences":[{"stopPoint":[{"icsId":"1000347","id":"490020135S","lat":51.463556,"lon":-0.140979,"name":"Wingate Square","parentId":"490G00000347","stationId":"490G00000347","stopLetter":"->S","topMostParentId":"490G00000347"},{"icsId":"1000050","id":"490000050D","lat":51.461521,"lon":-0.138514,"name":"Clapham Common Station","parentId":"490G00050G","stationId":"490G00050G","stopLetter":"D","topMostParentId":"940GZZLUCPC","zone":"2"},{"icsId":"1000286","id":"490012768A","lat":51.462871,"lon":-0.135234,"name":"Nelson's Row","parentId":"490G00000286","stationId":"490G00000286","stopLetter":"A","topMostParentId":"490G00000286"},{"icsId":"1020113","id":"490000051B","lat":51.464115,"lon":-0.131987,"name":"Clapham North & High Street Stns","parentId":"490G00020113","stationId":"490G00020113","stopLetter":"L","topMostParentId":"490G00020113"},{"icsId":"1016814","id":"490000051C","lat":51.465863,"lon":-0.129411,"name":"Clapham Road / Bedford Road","parentId":"490G00016814","stationId":"490G00016814","stopLetter":"C","topMostParentId":"490G00016814"},{"icsId":"1013907","id":"490013907N","lat":51.468401,"lon":-0.127277,"name":"Union Road","parentId":"490G00013907","stationId":"490G00013907","stopLetter":"J","topMostParentId":"490G00013907"},{"icsId":"1012834","id":"490000223F","lat":51.471939,"lon":-0.123057,"name":"Clapham Road / Stockwell Station","parentId":"490G000769","stationId":"490G000769","stopLetter":"F","topMostParentId":"490G000769"},{"icsId":"1012835","id":"490000223A","lat":51.473675,"lon":-0.122525,"name":"South Lambeth Road / Stockwell Stn","parentId":"490G000770","stationId":"490G000770","stopLetter":"A","topMostParentId":"490G000770"},{"icsId":"1008970","id":"490015169N","lat":51.475364,"lon":-0.122974,"name":"Lansdowne Way","parentId":"490G00008970","stationId":"490G00008970","stopLetter":"Q","topMostParentId":"490G00008970"},{"icsId":"1013623","id":"490013623N","lat":51.476789,"lon":-0.123203,"name":"Thorne Road","parentId":"490G00013623","stationId":"490G00013623","stopLetter":"S","topMostParentId":"490G00013623"},{"icsId":"1013161","id":"490013161N","lat":51.478475,"lon":-0.123523,"name":"Tate Library","parentId":"490G00013161","stationId":"490G00013161","stopLetter":"T","topMostParentId":"490G00013161"},{"icsId":"1014560","id":"490014560N","lat":51.480824,"lon":-0.124723,"name":"Wheatsheaf Lane","parentId":"490G00014560","stationId":"490G00014560","stopLetter":"->N","topMostParentId":"490G00014560"},{"icsId":"1014021","id":"490014021W","lat":51.483238,"lon":-0.123328,"name":"Vauxhall Park","parentId":"490G00014021","stationId":"490G00014021","stopLetter":"W","topMostParentId":"HUBVXH"},{"icsId":"1020252","id":"490000247B","lat":51.48575,"lon":-0.124089,"name":"Vauxhall Bus Station","parentId":"490G00020252","stationId":"490G00020252","stopLetter":"B","topMostParentId":"HUBVXH"},{"icsId":"1007550","id":"490007550X","lat":51.488197,"lon":-0.128626,"name":"Vauxhall Bridge / Millbank","parentId":"490G00007550","stationId":"490G00007550","stopLetter":"X","topMostParentId":"490G00007550"},{"icsId":"1003559","id":"490003559S","lat":51.489675,"lon":-0.130496,"name":"Ponsonby Terrace","parentId":"490G00003559","stationId":"490G00003559","stopLetter":"S","topMostParentId":"490G00003559"},{"icsId":"1013160","id":"490013160L","lat":51.491457,"lon":-0.128896,"name":"Tate Britain","parentId":"490G000779","stationId":"490G000779","stopLetter":"L","topMostParentId":"490G000779"},{"icsId":"1010723","id":"490010723N","lat":51.493807,"lon":-0.129131,"name":"Page Street","parentId":"490G00010723","stationId":"490G00010723","stopLetter":"NP","topMostParentId":"490G00010723"},{"icsId":"1008374","id":"490008374N","lat":51.495645,"lon":-0.129315,"name":"Horseferry Road","parentId":"490G00008374","stationId":"490G00008374","stopLetter":"NT","topMostParentId":"490G00008374"},{"icsId":"1014495","id":"490014495W","lat":51.49865,"lon":-0.129999,"name":"Westminster Abbey","parentId":"490G000828","stationId":"490G000828","stopLetter":"W","topMostParentId":"490G000828"},{"icsId":"1015048","id":"490015048A","lat":51.501875,"lon":-0.126366,"name":"Westminster Stn  / Parliament Square","parentId":"490G000852","stationId":"490G000852","stopLetter":"A","topMostParentId":"HUBWSM"},{"icsId":"1008376","id":"490008376N","lat":51.504051,"lon":-0.126406,"name":"Horse Guards Parade","parentId":"490G00008376","stationId":"490G00008376","stopLetter":"->N","topMostParentId":"490G00008376"},{"icsId":"1013767","id":"490013767T","lat":51.507533,"lon":-0.129909,"name":"Trafalgar Square","parentId":"490G000804","stationId":"490G000804","stopLetter":"T","topMostParentId":"490G000804"},{"icsId":"1011516","id":"490011516Y","lat":51.508942,"lon":-0.134232,"name":"Regent Street / St James's","parentId":"490G00011516","stationId":"490G00011516","stopLetter":"Y","topMostParentId":"490G00011516"},{"icsId":"1000179","id":"490011515W","lat":51.509882,"lon":-0.13735,"name":"Piccadilly Circus","parentId":"490G00179D","stationId":"490G00179D","stopLetter":"E","topMostParentId":"940GZZLUPCC","zone":"1"},{"icsId":"1004810","id":"490005537RB","lat":51.512364,"lon":-0.14016,"name":"Conduit Street / Hamleys Toy Store","parentId":"490G00004810","stationId":"490G00004810","stopLetter":"M","topMostParentId":"490G00004810"},{"icsId":"1000173","id":"490000173RC","lat":51.514487,"lon":-0.141918,"name":"Oxford Circus Station","parentId":"490G00173RG","stationId":"490G00173RG","stopLetter":"RC","topMostParentId":"940GZZLUOXC","zone":"1"},{"icsId":"1010695","id":"490000173RD","lat":51.516964,"lon":-0.14274,"name":"Margaret Street / Oxford Circus","parentId":"490G000693","stationId":"490G000693","stopLetter":"RD","topMostParentId":"490G000693"},{"icsId":"1011126","id":"490011126K","lat":51.520575,"lon":-0.145361,"name":"Portland Place","parentId":"490G00011126","stationId":"490G00011126","stopLetter":"K","topMostParentId":"490G00011126"},{"icsId":"1000091","id":"490000091F","lat":51.523463,"lon":-0.144306,"name":"Great Portland Street Station","parentId":"490G00091G","stationId":"490G00091G","stopLetter":"F","topMostParentId":"940GZZLUGPS","zone":"1"},{"icsId":"1000091","id":"490000091H","lat":51.524025,"lon":-0.142914,"name":"Great Portland St Stn  / Euston Rd","parentId":"490G00091H","stationId":"490G00091H","stopLetter":"H","topMostParentId":"940GZZLUGPS","zone":"1"},{"icsId":"1015042","id":"490015042T","lat":51.525857,"lon":-0.138745,"name":"Hampstead Road / Drummond Street","parentId":"490G000850","stationId":"490G000850","stopLetter":"T","topMostParentId":"490G000850"},{"icsId":"1010158","id":"490010158N","lat":51.527376,"lon":-0.138741,"name":"Robert Street","parentId":"490G00010158","stationId":"490G00010158","stopLetter":"J","topMostParentId":"490G00010158"},{"icsId":"1012158","id":"490012158N","lat":51.530796,"lon":-0.138919,"name":"Silverdale","parentId":"490G00012158","stationId":"490G00012158","stopLetter":"B","topMostParentId":"490G00012158"},{"icsId":"1000152","id":"490000152A","lat":51.534031,"lon":-0.13932,"name":"Mornington Crescent Station","parentId":"490G00152G","stationId":"490G00152G","stopLetter":"A","topMostParentId":"940GZZLUMTC","zone":"2"},{"icsId":"1004714","id":"490004714E","lat":51.536275,"lon":-0.140728,"name":"Camden High Street","parentId":"490G000437","stationId":"490G000437","stopLetter":"E","topMostParentId":"490G000437"},{"icsId":"1000036","id":"490015041Y","lat":51.538013,"lon":-0.142042,"name":"Camden Town Station","parentId":"490G00036N","stationId":"490G00036N","stopLetter":"Y","topMostParentId":"940GZZLUCTN","zone":"2"},{"icsId":"1008663","id":"490000036L","lat":51.53995,"lon":-0.142251,"name":"Kentish Town Road","parentId":"490G00008663","stationId":"490G00008663","stopLetter":"L","topMostParentId":"490G00008663"},{"icsId":"1004713","id":"490004713E","lat":51.541742,"lon":-0.14127,"name":"Camden Gardens","parentId":"490G00004713","stationId":"490G00004713","stopLetter":"C","topMostParentId":"490G00004713"}]}]}