{"direction":"inbound","lineId":"89","lineName":"89","mode":"bus","stopPointSequences":[{"stopPoint":[{"icsId":"1019839","id":"490001252A","lat":51.467664,"lon":0.190759,"name":"Forest Road / Slade Green Station","parentId":"490G000955","stationId":"490G000955","stopLetter":"A","topMostParentId":"490G000955"},{"icsId":"1007973","id":"490007973N","lat":51.470973,"lon":0.193207,"name":"Hazel Road","parentId":"490G00007973","stationId":"490G00007973","stopLetter":"K","topMostParentId":"490G00007973"},{"icsId":"1012191","id":"490012191W","lat":51.470595,"lon":0.190309,"name":"Bridge Road / Slade Green Road","parentId":"490G00012191","stationId":"490G00012191","stopLetter":"H","topMostParentId":"490G00012191"},{"icsId":"1009713","id":"490009713W","lat":51.468587,"lon":0.186124,"name":"Masefield Close","parentId":"490G00009713","stationId":"490G00009713","stopLetter":"->W","topMostParentId":"490G00009713"},{"icsId":"1010356","id":"490010356W","lat":51.46704,"lon":0.182738,"name":"Bridge Road / Northend Road","parentId":"490G00010356","stationId":"490G00010356","stopLetter":"->W","topMostParentId":"490G00010356"},{"icsId":"1005516","id":"490005516N","lat":51.469624,"lon":0.180687,"name":"Northend Road / Colyers Lane","parentId":"490G00005516","stationId":"490G00005516","stopLetter":"->N","topMostParentId":"490G00005516"},{"icsId":"1004036","id":"490004036W","lat":51.470426,"lon":0.178163,"name":"Myrtle Close","parentId":"490G00004036","stationId":"490G00004036","stopLetter":"->W","topMostParentId":"490G00004036"},{"icsId":"1005518","id":"490005518W","lat":51.470972,"lon":0.17348,"name":"Colyers Walk","parentId":"490G00005518","stationId":"490G00005518","stopLetter":"->W","topMostParentId":"490G00005518"},{"icsId":"1010416","id":"490010416W","lat":51.471574,"lon":0.17011,"name":"Northumberland Way","parentId":"490G00010416","stationId":"490G00010416","stopLetter":"K","topMostParentId":"490G00010416"},{"icsId":"1008440","id":"490008440W","lat":51.471397,"lon":0.164558,"name":"Hurst Road","parentId":"490G00008440","stationId":"490G00008440","stopLetter":"N","topMostParentId":"490G00008440"},{"icsId":"1019145","id":"490004477S","lat":51.470651,"lon":0.160649,"name":"Brook Street","parentId":"490G00019145","stationId":"490G00019145","stopLetter":"L","topMostParentId":"490G00019145"},{"icsId":"1011833","id":"490011833S","lat":51.467622,"lon":0.158145,"name":"Rydal Drive","parentId":"490G00011833","stationId":"490G00011833","stopLetter":"M","topMostParentId":"490G00011833"},{"icsId":"1001013","id":"490001013B","lat":51.465564,"lon":0.157083,"name":"Barnehurst Station","parentId":"490G01013B","stationId":"490G01013B","stopLetter":"A","topMostParentId":"910GBRNHRST"},{"icsId":"1009470","id":"490009470S","lat":51.463329,"lon":0.154401,"name":"Lyndhurst Road","parentId":"490G00009470","stationId":"490G00009470","stopLetter":"NU","topMostParentId":"490G00009470"},{"icsId":"1015358","id":"490015358S","lat":51.461603,"lon":0.153398,"name":"Long Lane","parentId":"490G00015358","stationId":"490G00015358","stopLetter":"NV","topMostParentId":"490G00015358"},{"icsId":"1003974","id":"490003974S2","lat":51.459624,"lon":0.152945,"name":"Bexleyheath Bus Garage","parentId":"490G00003974","stationId":"490G00003974","stopLetter":"NW","topMostParentId":"490G00003974"},{"icsId":"1013748","id":"490013748W","lat":51.45762,"lon":0.149929,"name":"Tower Road","parentId":"490G00013748","stationId":"490G00013748","stopLetter":"NQ","topMostParentId":"490G00013748"},{"icsId":"1003975","id":"490003975M","lat":51.456488,"lon":0.146435,"name":"Market Place / Bexleyheath Clock Tower","parentId":"490G00003975","stationId":"490G00003975","stopLetter":"M","topMostParentId":"490G00003975"},{"icsId":"1003973","id":"490003973A","lat":51.457235,"lon":0.139978,"name":"Trinity Place","parentId":"490G00003973","stationId":"490G00003973","stopLetter":"A","topMostParentId":"490G00003973"},{"icsId":"1009203","id":"490009203C","lat":51.457915,"lon":0.135245,"name":"Lion Road","parentId":"490G00009203","stationId":"490G00009203","stopLetter":"BM","topMostParentId":"490G00009203"},{"icsId":"1013960","id":"490013960W","lat":51.458389,"lon":0.131942,"name":"Upton Road","parentId":"490G00013960","stationId":"490G00013960","stopLetter":"BN","topMostParentId":"490G00013960"},{"icsId":"1005805","id":"490005805W","lat":51.458986,"lon":0.128299,"name":"Crook Log / Dallin Road","parentId":"490G00005805","stationId":"490G00005805","stopLetter":"BQ","topMostParentId":"490G00005805"},{"icsId":"1019789","id":"490016645W","lat":51.459798,"lon":0.123154,"name":"Park View Road / Crook Log","parentId":"490G00019789","stationId":"490G00019789","stopLetter":"BT","topMostParentId":"490G00019789"},{"icsId":"1003948","id":"490003948W","lat":51.460366,"lon":0.120129,"name":"Bethel Road","parentId":"490G00003948","stationId":"490G00003948","stopLetter":"BU","topMostParentId":"490G00003948"},{"icsId":"1007611","id":"490007611W","lat":51.460802,"lon":0.116881,"name":"Guy, Earl Of Warwick","parentId":"490G00007611","stationId":"490G00007611","stopLetter":"BV","topMostParentId":"490G00007611"},{"icsId":"1014353","id":"490014353R","lat":51.46224,"lon":0.108943,"name":"Welling High Street / Upper Wickham Lane","parentId":"490G00014353","stationId":"490G00014353","stopLetter":"R","topMostParentId":"490G00014353"},{"icsId":"1014351","id":"490014351P","lat":51.462569,"lon":0.106669,"name":"Bellegrove Road / Churchfield Road","parentId":"490G00014351","stationId":"490G00014351","stopLetter":"P","topMostParentId":"490G00014351"},{"icsId":"1011803","id":"490011803G","lat":51.462914,"lon":0.103489,"name":"Ruskin Drive","parentId":"490G00011803","stationId":"490G00011803","stopLetter":"G","topMostParentId":"490G00011803"},{"icsId":"1011802","id":"490011802D","lat":51.463522,"lon":0.100666,"name":"Ruskin Avenue / Welling Station","parentId":"490G000733","stationId":"490G000733","stopLetter":"D","topMostParentId":"490G000733"},{"icsId":"1014364","id":"490014364F","lat":51.464619,"lon":0.093633,"name":"Bellegrove Road / Welling Way","parentId":"490G00014364","stationId":"490G00014364","stopLetter":"F","topMostParentId":"490G00014364"},{"icsId":"1012086","id":"490012086W","lat":51.465432,"lon":0.088891,"name":"Bellegrove Road / Sherwood Road","parentId":"490G00012086","stationId":"490G00012086","stopLetter":"X","topMostParentId":"490G00012086"},{"icsId":"1014349","id":"490014349W","lat":51.466114,"lon":0.084934,"name":"Eastcote Road","parentId":"490G00014349","stationId":"490G00014349","stopLetter":"SJ","topMostParentId":"490G00014349"},{"icsId":"1010701","id":"490010701W","lat":51.467162,"lon":0.079107,"name":"Oxleas Wood / Woodlands Farm","parentId":"490G00010701","stationId":"490G00010701","stopLetter":"SK","topMostParentId":"490G00010701"},{"icsId":"1006288","id":"490006288W","lat":51.468725,"lon":0.069027,"name":"Eaglesfield Road","parentId":"490G00006288","stationId":"490G00006288","stopLetter":"SL","topMostParentId":"490G00006288"},{"icsId":"1009805","id":"490009803W","lat":51.469432,"lon":0.064639,"name":"Memorial Hospital","parentId":"490G00009805","stationId":"490G00009805","stopLetter":"SM","topMostParentId":"490G00009805"},{"icsId":"1011486","id":"490011486W","lat":51.470361,"lon":0.059353,"name":"Red Lion Lane","parentId":"490G00011486","stationId":"490G00011486","stopLetter":"SN","topMostParentId":"490G00011486"},{"icsId":"1012108","id":"490012108W","lat":51.471124,"lon":0.05429,"name":"Shooters Hill Road / Well Hall Road","parentId":"490G00012108","stationId":"490G00012108","stopLetter":"SP","topMostParentId":"490G00012108"},{"icsId":"1004460","id":"490004460W","lat":51.472589,"lon":0.047156,"name":"Shooters Hill Road / Baker Road","parentId":"490G00004460","stationId":"490G00004460","stopLetter":"SQ","topMostParentId":"490G00004460"},{"icsId":"1010733","id":"490010733W","lat":51.47341,"lon":0.042902,"name":"Pallet Way","parentId":"490G00010733","stationId":"490G00010733","stopLetter":"ST","topMostParentId":"490G00010733"},{"icsId":"1005011","id":"490005011W","lat":51.474188,"lon":0.037954,"name":"Charlton Park Lane","parentId":"490G00005011","stationId":"490G00005011","stopLetter":"->W","topMostParentId":"490G00005011"},{"icsId":"1008478","id":"490008478W","lat":51.474788,"lon":0.033978,"name":"Weyman Road","parentId":"490G00008478","stationId":"490G00008478","stopLetter":"A","topMostParentId":"490G00008478"},{"icsId":"1010537","id":"490010537W","lat":51.475165,"lon":0.031402,"name":"Hervey Road","parentId":"490G00010537","stationId":"490G00010537","stopLetter":"B","topMostParentId":"490G00010537"},{"icsId":"1015437","id":"490015427W","lat":51.47532,"lon":0.028716,"name":"Old Dover Road","parentId":"490G00015437","stationId":"490G00015437","stopLetter":"C","topMostParentId":"490G00015437"},{"icsId":"1013014","id":"490013014W2","lat":51.47438,"lon":0.022699,"name":"Shooters Hill Road / Kidbrooke Park Road","parentId":"490G00013014","stationId":"490G00013014","stopLetter":"D","topMostParentId":"490G00013014"},{"icsId":"1008707","id":"490008705W","lat":51.474036,"lon":0.02025,"name":"Kidbrooke Grove","parentId":"490G00008707","stationId":"490G00008707","stopLetter":"E","topMostParentId":"490G00008707"},{"icsId":"1012711","id":"490012711S","lat":51.472837,"lon":0.014696,"name":"St Germans Place","parentId":"490G00012711","stationId":"490G00012711","stopLetter":"F","topMostParentId":"490G00012711"},{"icsId":"1010003","id":"490010003L","lat":51.469952,"lon":0.010912,"name":"Montpelier Row","parentId":"490G00010003","stationId":"490G00010003","stopLetter":"L","topMostParentId":"490G00010003"},{"icsId":"1001029","id":"490001029E","lat":51.465466,"lon":0.009246,"name":"Blackheath Station","parentId":"490G01029C","stationId":"490G01029C","stopLetter":"E","topMostParentId":"910GBLKHTH"},{"icsId":"1004066","id":"490004066A","lat":51.463735,"lon":0.006334,"name":"Blackheath Hospital","parentId":"490G00004066","stationId":"490G00004066","stopLetter":"A","topMostParentId":"490G00004066"},{"icsId":"1012772","id":"490012772W","lat":51.463117,"lon":0.000937,"name":"St Margaret's Church / Brandram Road","parentId":"490G00012772","stationId":"490G00012772","stopLetter":"C","topMostParentId":"490G00012772"},{"icsId":"1013561","id":"490013561W","lat":51.462663,"lon":-0.003517,"name":"The Squirrels","parentId":"490G00013561","stationId":"490G00013561","stopLetter":"E","topMostParentId":"490G00013561"},{"icsId":"1009239","id":"490009239L","lat":51.462856,"lon":-0.008029,"name":"Lockmead Road","parentId":"490G00009239","stationId":"490G00009239","stopLetter":"L","topMostParentId":"490G00009239"},{"icsId":"1009106","id":"490011522E","lat":51.462499,"lon":-0.009786,"name":"Lewisham Clock Tower","parentId":"490G00009106","stationId":"490G00009106","stopLetter":"R","topMostParentId":"490G00009106"},{"icsId":"1001177","id":"490001177U","lat":51.464955,"lon":-0.012977,"name":"Lewisham Station","parentId":"490G01177G","stationId":"490G01177G","stopLetter":"AP","topMostParentId":"HUBLEW","zone":"2+3"}]}]}