{"direction":"inbound","lineId":"90","lineName":"90","mode":"bus","stopPointSequences":[{"stopPoint":[{"icsId":"1004504","id":"490004504J","lat":51.453772,"lon":-0.400725,"name":"Browells Lane","parentId":"490G00004504","stationId":"490G00004504","stopLetter":"->S","topMostParentId":"490G00004504"},{"icsId":"1008412","id":"490008400W","lat":51.452707,"lon":-0.40639,"name":"Harlington Road East","parentId":"490G00008412","stationId":"490G00008412","stopLetter":"E","topMostParentId":"490G00008412"},{"icsId":"1007813","id":"490007813N","lat":51.456401,"lon":-0.409543,"name":"Lansbury Avenue","parentId":"490G00007813","stationId":"490G00007813","stopLetter":"F","topMostParentId":"490G00007813"},{"icsId":"1004940","id":"490004940N","lat":51.459963,"lon":-0.41296,"name":"Central Way","parentId":"490G00004940","stationId":"490G00004940","stopLetter":"G","topMostParentId":"490G00004940"},{"icsId":"1007902","id":"490007902N","lat":51.463756,"lon":-0.416125,"name":"Hatton Green","parentId":"490G00007902","stationId":"490G00007902","stopLetter":"->N","topMostParentId":"490G00007902"},{"icsId":"1007904","id":"490007904J","lat":51.466015,"lon":-0.421618,"name":"Great South West Road","parentId":"490G00007904","stationId":"490G00007904","stopLetter":"J","topMostParentId":"490G00007904"},{"icsId":"1000103","id":"490000103F","lat":51.467345,"lon":-0.422854,"name":"Hatton Cross Station","parentId":"490G00103G","stationId":"490G00103G","stopLetter":"E","topMostParentId":"940GZZLUHNX","zone":"5+6"},{"icsId":"1017652","id":"490017652E","lat":51.468653,"lon":-0.421873,"name":"Envoy Avenue","parentId":"490G00017652","stationId":"490G00017652","stopLetter":"K","topMostParentId":"490G00017652"},{"icsId":"1000384","id":"490000384Z","lat":51.476118,"lon":-0.425287,"name":"Cranford Lane","parentId":"490G000035","stationId":"490G000035","topMostParentId":"490G000035"},{"icsId":"1007905","id":"490007905E","lat":51.47988,"lon":-0.433582,"name":"Hatton Road North","parentId":"490G00007905","stationId":"490G00007905","stopLetter":"M","topMostParentId":"490G00007905"},{"icsId":"1007811","id":"490007811B","lat":51.481304,"lon":-0.434484,"name":"Harlington Corner","parentId":"490G00007811","stationId":"490G00007811","stopLetter":"N","topMostParentId":"490G00007811"},{"icsId":"1014434","id":"490014434N","lat":51.485172,"lon":-0.434611,"name":"West End Lane","parentId":"490G00014434","stationId":"490G00014434","stopLetter":"P","topMostParentId":"490G00014434"},{"icsId":"1009564","id":"490009564N","lat":51.487536,"lon":-0.435855,"name":"Manor Lane","parentId":"490G00009564","stationId":"490G00009564","stopLetter":"R","topMostParentId":"490G00009564"},{"icsId":"1007808","id":"490007808N","lat":51.489585,"lon":-0.435151,"name":"Brickfield Lane","parentId":"490G00007808","stationId":"490G00007808","stopLetter":"S","topMostParentId":"490G00007808"},{"icsId":"1007812","id":"490012608N","lat":51.496409,"lon":-0.427613,"name":"Croyde Avenue","parentId":"490G00007812","stationId":"490G00007812","stopLetter":"T","topMostParentId":"490G00007812"},{"icsId":"1011489","id":"490011489N","lat":51.49909,"lon":-0.425706,"name":"Redmead Road","parentId":"490G00011489","stationId":"490G00011489","stopLetter":"U","topMostParentId":"490G00011489"},{"icsId":"1020310","id":"490020310N","lat":51.500595,"lon":-0.424631,"name":"Millington Road","parentId":"490G00020310","stationId":"490G00020310","stopLetter":"P","topMostParentId":"490G00020310"},{"icsId":"1006702","id":"490006702N","lat":51.5019,"lon":-0.423347,"name":"Fairey Corner","parentId":"490G00006702","stationId":"490G00006702","stopLetter":"K","topMostParentId":"490G00006702"},{"icsId":"1001144","id":"490001144N","lat":51.503431,"lon":-0.420917,"name":"Hayes and Harlington Station","parentId":"490G01144N","stationId":"490G01144N","stopLetter":"L","topMostParentId":"910GHAYESAH"},{"icsId":"1007942","id":"490007942K","lat":51.504415,"lon":-0.419831,"name":"Clayton Road","parentId":"490G000581","stationId":"490G000581","stopLetter":"M","topMostParentId":"490G000581"},{"icsId":"1000828","id":"490000828Z","lat":51.506815,"lon":-0.419085,"name":"Hayes Town","parentId":"490G000162","stationId":"490G000162","stopLetter":"P","topMostParentId":"490G000162"},{"icsId":"1006701","id":"490010095C","lat":51.507895,"lon":-0.417174,"name":"Fairdale Gardens","parentId":"490G00006701","stationId":"490G00006701","stopLetter":"Y","topMostParentId":"490G00006701"},{"icsId":"1006384","id":"490006384N","lat":51.510763,"lon":-0.413804,"name":"East Way","parentId":"490G00006384","stationId":"490G00006384","stopLetter":"W","topMostParentId":"490G00006384"},{"icsId":"1003512","id":"490003512N","lat":51.51198,"lon":-0.412724,"name":"Avondale Drive","parentId":"490G00003512","stationId":"490G00003512","stopLetter":"V","topMostParentId":"490G00003512"},{"icsId":"1011170","id":"490011170N","lat":51.514556,"lon":-0.410372,"name":"Precinct Road","parentId":"490G00011170","stationId":"490G00011170","stopLetter":"U","topMostParentId":"490G00011170"},{"icsId":"1008109","id":"490008109T","lat":51.516424,"lon":-0.40888,"name":"Hesa Road","parentId":"490G00008109","stationId":"490G00008109","stopLetter":"T","topMostParentId":"490G00008109"},{"icsId":"1004920","id":"490004920O","lat":51.518628,"lon":-0.410879,"name":"Central Avenue","parentId":"490G00004920","stationId":"490G00004920","stopLetter":"O","topMostParentId":"490G00004920"},{"icsId":"1003873","id":"490003873M","lat":51.519483,"lon":-0.413602,"name":"Belmore Parade","parentId":"490G00003873","stationId":"490G00003873","stopLetter":"M","topMostParentId":"490G00003873"},{"icsId":"1005294","id":"490005294K","lat":51.520543,"lon":-0.416217,"name":"Church Road","parentId":"490G00005294","stationId":"490G00005294","stopLetter":"K","topMostParentId":"490G00005294"},{"icsId":"1008962","id":"490015587E","lat":51.522162,"lon":-0.420197,"name":"Uxbridge County Court","parentId":"490G00008962","stationId":"490G00008962","stopLetter":"FF","topMostParentId":"490G00008962"},{"icsId":"1013978","id":"490013978C","lat":51.523405,"lon":-0.421754,"name":"Whittington Avenue","parentId":"490G00013978","stationId":"490G00013978","stopLetter":"C","topMostParentId":"490G00013978"},{"icsId":"1003572","id":"490003572N","lat":51.526748,"lon":-0.418885,"name":"Balmoral Drive","parentId":"490G00003572","stationId":"490G00003572","stopLetter":"->N","topMostParentId":"490G00003572"},{"icsId":"1006715","id":"490006715N","lat":51.53005,"lon":-0.417675,"name":"Fairholme Crescent","parentId":"490G00006715","stationId":"490G00006715","stopLetter":"Q","topMostParentId":"490G00006715"},{"icsId":"1008963","id":"490008963E","lat":51.532389,"lon":-0.418473,"name":"The Brook House","parentId":"490G00008963","stationId":"490G00008963","stopLetter":"G","topMostParentId":"490G00008963"},{"icsId":"1016772","id":"490016772E","lat":51.533729,"lon":-0.413092,"name":"Kingshill Close","parentId":"490G00016772","stationId":"490G00016772","stopLetter":"H","topMostParentId":"490G00016772"},{"icsId":"1013757","id":"490013757E","lat":51.534326,"lon":-0.408717,"name":"Townson Avenue","parentId":"490G00013757","stationId":"490G00013757","stopLetter":"J","topMostParentId":"490G00013757"},{"icsId":"1007610","id":"490007610E","lat":51.53335,"lon":-0.403056,"name":"Gurney Road","parentId":"490G00007610","stationId":"490G00007610","stopLetter":"->E","topMostParentId":"490G00007610"},{"icsId":"1008784","id":"490008784N","lat":51.533602,"lon":-0.396487,"name":"Kingshill Avenue","parentId":"490G00008784","stationId":"490G00008784","stopLetter":"K","topMostParentId":"490G00008784"},{"icsId":"1015478","id":"490015478N","lat":51.535884,"lon":-0.392427,"name":"Tangmere Gardens","parentId":"490G00015478","stationId":"490G00015478","stopLetter":"N","topMostParentId":"490G00015478"},{"icsId":"1014992","id":"490014992N1","lat":51.537296,"lon":-0.389162,"name":"Yeading / White Hart","parentId":"490G00014992","stationId":"490G00014992","stopLetter":"V","topMostParentId":"490G00014992"},{"icsId":"1003891","id":"490003891N","lat":51.539195,"lon":-0.38598,"name":"Bengarth Road / Northolt Library","parentId":"490G00003891","stationId":"490G00003891","stopLetter":"TD","topMostParentId":"490G00003891"},{"icsId":"1013120","id":"490013120N","lat":51.540902,"lon":-0.381998,"name":"Sycamore Close","parentId":"490G00013120","stationId":"490G00013120","stopLetter":"TE","topMostParentId":"490G00013120"},{"icsId":"1013155","id":"490013155N","lat":51.542524,"lon":-0.378941,"name":"Target Roundabout","parentId":"490G00013155","stationId":"490G00013155","stopLetter":"TF","topMostParentId":"490G00013155"},{"icsId":"1006638","id":"490006638N","lat":51.543949,"lon":-0.375386,"name":"Kingston Close","parentId":"490G00006638","stationId":"490G00006638","stopLetter":"TH","topMostParentId":"490G00006638"},{"icsId":"1003178","id":"490003178W","lat":51.544931,"lon":-0.372884,"name":"Alderney Gardens","parentId":"490G00003178","stationId":"490G00003178","stopLetter":"TJ","topMostParentId":"490G00003178"},{"icsId":"1009959","id":"490009959C","lat":51.546453,"lon":-0.370479,"name":"Moat Farm Road","parentId":"490G00009959","stationId":"490G00009959","stopLetter":"C","topMostParentId":"490G00009959"},{"icsId":"1000162","id":"490000162A","lat":51.54767,"lon":-0.368777,"name":"Northolt Station","parentId":"490G00162X1","stationId":"490G00162X1","stopLetter":"A","topMostParentId":"940GZZLUNHT","zone":"5"}]}]}