{"direction":"inbound","lineId":"92","lineName":"92","mode":"bus","stopPointSequences":[{"stopPoint":[{"icsId":"1008460","id":"490014032N","lat":51.553984,"lon":-0.261752,"name":"Ikea Brent Park / Panther Drive","parentId":"490G00008460","stationId":"490G00008460","stopLetter":"A","topMostParentId":"490G00008460"},{"icsId":"1004297","id":"490004297W","lat":51.553437,"lon":-0.257604,"name":"Brent Park Tesco","parentId":"490G00004297","stationId":"490G00004297","stopLetter":"T","topMostParentId":"490G00004297"},{"icsId":"1007753","id":"490007753W","lat":51.555712,"lon":-0.265523,"name":"Hannah Close","parentId":"490G00007753","stationId":"490G00007753","stopLetter":"->W","topMostParentId":"490G00007753"},{"icsId":"1013614","id":"490013614W","lat":51.555812,"lon":-0.272328,"name":"Third Way","parentId":"490G00013614","stationId":"490G00013614","stopLetter":"->W","topMostParentId":"490G00013614"},{"icsId":"1006858","id":"490006858N","lat":51.557929,"lon":-0.27558,"name":"First Way","parentId":"490G00006858","stationId":"490G00006858","topMostParentId":"490G00006858"},{"icsId":"1010593","id":"490010593W","lat":51.558323,"lon":-0.277354,"name":"Olympic Way","parentId":"490G00010593","stationId":"490G00010593","stopLetter":"->W","topMostParentId":"490G00010593"},{"icsId":"1014375","id":"490015557W1","lat":51.558402,"lon":-0.282732,"name":"Brent Civic Centre","parentId":"490G00014375","stationId":"490G00014375","stopLetter":"F","topMostParentId":"490G00014375"},{"icsId":"1014376","id":"490014376C","lat":51.557911,"lon":-0.285448,"name":"Lakeside Way","parentId":"490G00014376","stationId":"490G00014376","stopLetter":"C","topMostParentId":"490G00014376"},{"icsId":"1001320","id":"490001320A","lat":51.555592,"lon":-0.286098,"name":"Wembley Stadium Station","parentId":"490G01320B","stationId":"490G01320B","stopLetter":"SA","topMostParentId":"910GWEMBLSM"},{"icsId":"1005584","id":"490015558W2","lat":51.553652,"lon":-0.289979,"name":"Cecil Avenue","parentId":"490G00005584","stationId":"490G00005584","stopLetter":"SP","topMostParentId":"490G00005584"},{"icsId":"1014378","id":"490014378M","lat":51.553508,"lon":-0.291802,"name":"Arkelvin Academy / Park Lane","parentId":"490G00014378","stationId":"490G00014378","stopLetter":"ST","topMostParentId":"490G00014378"},{"icsId":"1000256","id":"490000256H","lat":51.552237,"lon":-0.297792,"name":"Wembley Central Station","parentId":"490G00256G","stationId":"490G00256G","stopLetter":"CS","topMostParentId":"HUBWMB","zone":"4"},{"icsId":"1006299","id":"490006299B","lat":51.55221,"lon":-0.301514,"name":"Ealing Road","parentId":"490G00006299","stationId":"490G00006299","stopLetter":"CW","topMostParentId":"490G00006299"},{"icsId":"1005583","id":"490005583W","lat":51.551577,"lon":-0.307524,"name":"Copland Avenue","parentId":"490G00005583","stationId":"490G00005583","stopLetter":"HC","topMostParentId":"490G00005583"},{"icsId":"1004335","id":"490004335F","lat":51.55238,"lon":-0.312658,"name":"Bridgewater Road","parentId":"490G00004335","stationId":"490G00004335","stopLetter":"F","topMostParentId":"490G00004335"},{"icsId":"1001282","id":"490001282J","lat":51.554744,"lon":-0.315715,"name":"Sudbury & Harrow Road Station","parentId":"490G01282J","stationId":"490G01282J","stopLetter":"J","topMostParentId":"910GSDBRYHR"},{"icsId":"1005143","id":"490005143N","lat":51.556575,"lon":-0.319225,"name":"Chestnut Avenue","parentId":"490G00005143","stationId":"490G00005143","stopLetter":"->N","topMostParentId":"490G00005143"},{"icsId":"1009729","id":"490009729W","lat":51.557259,"lon":-0.321782,"name":"Maybank Avenue","parentId":"490G00009729","stationId":"490G00009729","stopLetter":"->W","topMostParentId":"490G00009729"},{"icsId":"1011234","id":"490011234W","lat":51.559014,"lon":-0.326954,"name":"Priory Avenue","parentId":"490G00011234","stationId":"490G00011234","stopLetter":"L","topMostParentId":"490G00011234"},{"icsId":"1012977","id":"490012977W","lat":51.560992,"lon":-0.330704,"name":"Sudbury Court Drive","parentId":"490G00012977","stationId":"490G00012977","stopLetter":"M","topMostParentId":"490G00012977"},{"icsId":"1007863","id":"490007863S","lat":51.561166,"lon":-0.332848,"name":"Harrow Road","parentId":"490G00007863","stationId":"490G00007863","stopLetter":"N","topMostParentId":"490G00007863"},{"icsId":"1001283","id":"490001283B","lat":51.557481,"lon":-0.335521,"name":"Sudbury Hill Station","parentId":"490G01283B","stationId":"490G01283B","stopLetter":"P","topMostParentId":"910GSDBRYHH"},{"icsId":"1007078","id":"490007078S","lat":51.554521,"lon":-0.337274,"name":"Gainsboro Gardens","parentId":"490G00007078","stationId":"490G00007078","stopLetter":"Q","topMostParentId":"490G00007078"},{"icsId":"1010542","id":"490010542S","lat":51.552007,"lon":-0.3395,"name":"Oldfield Close","parentId":"490G00010542","stationId":"490G00010542","stopLetter":"R","topMostParentId":"490G00010542"},{"icsId":"1005369","id":"490005362S","lat":51.5486,"lon":-0.34398,"name":"Currey Road","parentId":"490G00005369","stationId":"490G00005369","topMostParentId":"490G00005369"},{"icsId":"1013569","id":"490013569S","lat":51.54635,"lon":-0.344509,"name":"Auriol Drive","parentId":"490G00013569","stationId":"490G00013569","topMostParentId":"490G00013569"},{"icsId":"1000092","id":"490015198B","lat":51.542012,"lon":-0.346166,"name":"Greenford Station","parentId":"490G00092D","stationId":"490G00092D","stopLetter":"MM","topMostParentId":"HUBGFD","zone":"4"},{"icsId":"1004030","id":"490004030NN","lat":51.54048,"lon":-0.347793,"name":"Birkbeck Avenue","parentId":"490G00004030","stationId":"490G00004030","stopLetter":"NN","topMostParentId":"490G00004030"},{"icsId":"1005659","id":"490005659OO","lat":51.537877,"lon":-0.348796,"name":"Courthope Road","parentId":"490G00005659","stationId":"490G00005659","stopLetter":"OO","topMostParentId":"490G00005659"},{"icsId":"1005687","id":"490005687DD","lat":51.534527,"lon":-0.347201,"name":"Cowgate Road","parentId":"490G00005687","stationId":"490G00005687","stopLetter":"DD","topMostParentId":"490G00005687"},{"icsId":"1005626","id":"490005626S","lat":51.530493,"lon":-0.350591,"name":"Costons Lane","parentId":"490G00005626","stationId":"490G00005626","stopLetter":"C","topMostParentId":"490G00005626"},{"icsId":"1007442","id":"490007441G","lat":51.527982,"lon":-0.351749,"name":"Ruislip Road East","parentId":"490G00007442","stationId":"490G00007442","stopLetter":"D","topMostParentId":"490G00007442"},{"icsId":"1004777","id":"490004777S","lat":51.525784,"lon":-0.352751,"name":"Cardinal Wiseman High School","parentId":"490G00004777","stationId":"490G00004777","stopLetter":"E","topMostParentId":"490G00004777"},{"icsId":"1007447","id":"490007447S","lat":51.52387,"lon":-0.353469,"name":"Greenford Depot","parentId":"490G00007447","stationId":"490G00007447","stopLetter":"F","topMostParentId":"490G00007447"},{"icsId":"1016670","id":"490016670S","lat":51.521747,"lon":-0.354107,"name":"Greenford Park","parentId":"490G00016670","stationId":"490G00016670","stopLetter":"G","topMostParentId":"490G00016670"},{"icsId":"1014766","id":"490014766S","lat":51.518815,"lon":-0.354703,"name":"Windmill Lane","parentId":"490G00014766","stationId":"490G00014766","stopLetter":"H","topMostParentId":"490G00014766"},{"icsId":"1007278","id":"490007278S","lat":51.516302,"lon":-0.355053,"name":"Golf Links Estate","parentId":"490G00007278","stationId":"490G00007278","stopLetter":"J","topMostParentId":"490G00007278"},{"icsId":"1014492","id":"490014492S","lat":51.512559,"lon":-0.354871,"name":"West Middlesex Golf Course","parentId":"490G00014492","stationId":"490G00014492","stopLetter":"UE","topMostParentId":"490G00014492"},{"icsId":"1008504","id":"490008498S","lat":51.510166,"lon":-0.354755,"name":"Iron Bridge / Uxbridge Road","parentId":"490G00008504","stationId":"490G00008504","stopLetter":"UF","topMostParentId":"490G00008504"},{"icsId":"1012638","id":"490012638E","lat":51.509112,"lon":-0.349533,"name":"St Bernard's Gatehouse / Windmill Park","parentId":"490G00012638","stationId":"490G00012638","stopLetter":"UH","topMostParentId":"490G00012638"},{"icsId":"1006292","id":"490006292S","lat":51.507907,"lon":-0.347012,"name":"Ealing Hospital","parentId":"490G00006292","stationId":"490G00006292","stopLetter":"S","topMostParentId":"490G00006292"}]}]}