{"direction":"inbound","lineId":"95","lineName":"95","mode":"bus","stopPointSequences":[{"stopPoint":[{"icsId":"1000203","id":"490015036K","lat":51.50389,"lon":-0.219971,"name":"Shepherd's Bush Station","parentId":"490G00203A","stationId":"490G00203A","stopLetter":"F","topMostParentId":"HUBSPB","zone":"2"},{"icsId":"1012068","id":"490012068S","lat":51.503874,"lon":-0.224236,"name":"Shepherd's Bush Green","parentId":"490G000742","stationId":"490G000742","stopLetter":"N","topMostParentId":"490G000742"},{"icsId":"1009501","id":"490009501Q","lat":51.506345,"lon":-0.224702,"name":"Uxbridge Rd / Westfield Shopping Centre","parentId":"490G000650","stationId":"490G000650","stopLetter":"S","topMostParentId":"490G000650"},{"icsId":"1018981","id":"490003375WD","lat":51.508449,"lon":-0.224721,"name":"Ariel Way / White City Bus Station","parentId":"490G00018981","stationId":"490G00018981","stopLetter":"WD","topMostParentId":"490G00018981"},{"icsId":"1000269","id":"490000269N","lat":51.512006,"lon":-0.225044,"name":"White City Station","parentId":"490G00269B","stationId":"490G00269B","stopLetter":"WE","topMostParentId":"940GZZLUWCY","zone":"2"},{"icsId":"1012238","id":"490012238N","lat":51.513103,"lon":-0.225607,"name":"Westway","parentId":"490G000748","stationId":"490G000748","stopLetter":"N","topMostParentId":"490G000748"},{"icsId":"1014578","id":"490014578W","lat":51.514732,"lon":-0.231049,"name":"White City Estate","parentId":"490G00014578","stationId":"490G00014578","stopLetter":"V","topMostParentId":"490G00014578"},{"icsId":"1009005","id":"490009005V","lat":51.514091,"lon":-0.238049,"name":"Phoenix High School","parentId":"490G00009005","stationId":"490G00009005","stopLetter":"W","topMostParentId":"490G00009005"},{"icsId":"1008048","id":"490008048W","lat":51.514231,"lon":-0.241388,"name":"Hemlock Road","parentId":"490G00008048","stationId":"490G00008048","stopLetter":"X","topMostParentId":"490G00008048"},{"icsId":"1011937","id":"490011937X","lat":51.513931,"lon":-0.247769,"name":"Savoy Circus","parentId":"490G00011937","stationId":"490G00011937","stopLetter":"F","topMostParentId":"490G00011937"},{"icsId":"1014446","id":"490014446L","lat":51.513746,"lon":-0.249881,"name":"Western Avenue / Savoy Circus","parentId":"490G00014446","stationId":"490G00014446","stopLetter":"L","topMostParentId":"490G00014446"},{"icsId":"1007170","id":"490007170W","lat":51.51413,"lon":-0.253887,"name":"Foster Road","parentId":"490G00007170","stationId":"490G00007170","stopLetter":"T","topMostParentId":"490G00007170"},{"icsId":"1010949","id":"490010949W","lat":51.515311,"lon":-0.257719,"name":"Perryn Road","parentId":"490G00010949","stationId":"490G00010949","stopLetter":"->W","topMostParentId":"490G00010949"},{"icsId":"1007188","id":"490015319P","lat":51.521855,"lon":-0.264215,"name":"Gypsy Corner","parentId":"490G00007188","stationId":"490G00007188","stopLetter":"P","topMostParentId":"490G00007188"},{"icsId":"1003228","id":"490003228W","lat":51.523801,"lon":-0.266346,"name":"Allan Way","parentId":"490G00003228","stationId":"490G00003228","stopLetter":"Y","topMostParentId":"490G00003228"},{"icsId":"1014388","id":"490014388W","lat":51.525522,"lon":-0.272004,"name":"Wendover Court","parentId":"490G00014388","stationId":"490G00014388","stopLetter":"->W","topMostParentId":"490G00014388"},{"icsId":"1003236","id":"490003236W","lat":51.526398,"lon":-0.277189,"name":"Alliance Road","parentId":"490G00003236","stationId":"490G00003236","stopLetter":"Q","topMostParentId":"490G00003236"},{"icsId":"1005537","id":"490005535W","lat":51.526499,"lon":-0.280415,"name":"Kendal Avenue","parentId":"490G00005537","stationId":"490G00005537","stopLetter":"P","topMostParentId":"490G00005537"},{"icsId":"1000176","id":"490000176M","lat":51.527122,"lon":-0.284269,"name":"Park Royal Station","parentId":"490G00176L","stationId":"490G00176L","stopLetter":"M","topMostParentId":"940GZZLUPKR","zone":"3"},{"icsId":"1000099","id":"490015498N","lat":51.529482,"lon":-0.291922,"name":"Hanger Lane Station","parentId":"490G00099N","stationId":"490G00099N","stopLetter":"N","topMostParentId":"940GZZLUHGR","zone":"3"},{"icsId":"1009485","id":"490009485Q","lat":51.530944,"lon":-0.301599,"name":"Lynwood Road","parentId":"490G00009485","stationId":"490G00009485","stopLetter":"Q","topMostParentId":"490G00009485"},{"icsId":"1003265","id":"490003265W","lat":51.532086,"lon":-0.311534,"name":"Alperton Lane","parentId":"490G00003265","stationId":"490G00003265","stopLetter":"PL","topMostParentId":"490G00003265"},{"icsId":"1004926","id":"490004926W","lat":51.533322,"lon":-0.324349,"name":"Central Parade","parentId":"490G00004926","stationId":"490G00004926","stopLetter":"PM","topMostParentId":"490G00004926"},{"icsId":"1003370","id":"490003370W","lat":51.53361,"lon":-0.331288,"name":"Argyle Road","parentId":"490G00003370","stationId":"490G00003370","stopLetter":"PN","topMostParentId":"490G00003370"},{"icsId":"1001259","id":"490010946BB","lat":51.534475,"lon":-0.338422,"name":"South Greenford Station","parentId":"490G04898AA","stationId":"490G04898AA","stopLetter":"BB","topMostParentId":"910GSGFORD"},{"icsId":"1019867","id":"490009855W","lat":51.53577,"lon":-0.345397,"name":"Greenford Road Roundabout","parentId":"490G00019867","stationId":"490G00019867","stopLetter":"CC","topMostParentId":"490G00019867"},{"icsId":"1005687","id":"490005687DD","lat":51.534527,"lon":-0.347201,"name":"Cowgate Road","parentId":"490G00005687","stationId":"490G00005687","stopLetter":"DD","topMostParentId":"490G00005687"},{"icsId":"1005626","id":"490005626S","lat":51.530493,"lon":-0.350591,"name":"Costons Lane","parentId":"490G00005626","stationId":"490G00005626","stopLetter":"C","topMostParentId":"490G00005626"},{"icsId":"1007442","id":"490007441G","lat":51.527982,"lon":-0.351749,"name":"Ruislip Road East","parentId":"490G00007442","stationId":"490G00007442","stopLetter":"D","topMostParentId":"490G00007442"},{"icsId":"1007450","id":"490007446A","lat":51.527978,"lon":-0.354661,"name":"Oldfield Lane South","parentId":"490G00007450","stationId":"490G00007450","stopLetter":"P","topMostParentId":"490G00007450"},{"icsId":"1010897","id":"490010897E2","lat":51.528698,"lon":-0.359825,"name":"Pembroke Road","parentId":"490G00010897","stationId":"490G00010897","stopLetter":"R","topMostParentId":"490G00010897"},{"icsId":"1006370","id":"490006370W","lat":51.530805,"lon":-0.364565,"name":"Beechwood Avenue","parentId":"490G00006370","stationId":"490G00006370","stopLetter":"EL","topMostParentId":"490G00006370"},{"icsId":"1011786","id":"490011786S","lat":51.531272,"lon":-0.366437,"name":"Ruislip Road","parentId":"490G00011786","stationId":"490G00011786","stopLetter":"EW","topMostParentId":"490G00011786"},{"icsId":"1003518","id":"490003518S","lat":51.5282,"lon":-0.367368,"name":"Avon Road","parentId":"490G00003518","stationId":"490G00003518","stopLetter":"L","topMostParentId":"490G00003518"},{"icsId":"1003435","id":"490003435W","lat":51.524232,"lon":-0.365204,"name":"Ash Grove","parentId":"490G00003435","stationId":"490G00003435","stopLetter":"N","topMostParentId":"490G00003435"},{"icsId":"1011824","id":"490011824W","lat":51.522247,"lon":-0.370565,"name":"Rutland Road","parentId":"490G00011824","stationId":"490G00011824","stopLetter":"P","topMostParentId":"490G00011824"},{"icsId":"1005613","id":"490005613S","lat":51.519532,"lon":-0.368039,"name":"Allenby Road","parentId":"490G00005613","stationId":"490G00005613","stopLetter":"T","topMostParentId":"490G00005613"},{"icsId":"1006131","id":"490006131S","lat":51.517887,"lon":-0.368717,"name":"Dormers Avenue","parentId":"490G00006131","stationId":"490G00006131","stopLetter":"U","topMostParentId":"490G00006131"},{"icsId":"1006132","id":"490006132E","lat":51.516091,"lon":-0.364386,"name":"Telford Road","parentId":"490G00006132","stationId":"490G00006132","stopLetter":"V","topMostParentId":"490G00006132"},{"icsId":"1009712","id":"490009712W","lat":51.515089,"lon":-0.366021,"name":"Masefield Avenue","parentId":"490G00009712","stationId":"490G00009712","stopLetter":"W","topMostParentId":"490G00009712"},{"icsId":"1008790","id":"490008790Y","lat":51.515192,"lon":-0.370183,"name":"Kingsley Avenue","parentId":"490G00008790","stationId":"490G00008790","stopLetter":"Y","topMostParentId":"490G00008790"},{"icsId":"1019182","id":"490004807B","lat":51.515783,"lon":-0.37326,"name":"North Road","parentId":"490G00019182","stationId":"490G00019182","stopLetter":"B","topMostParentId":"490G00019182"},{"icsId":"1010317","id":"490010317D","lat":51.514201,"lon":-0.375262,"name":"North Avenue","parentId":"490G00010317","stationId":"490G00010317","stopLetter":"D","topMostParentId":"490G00010317"},{"icsId":"1003276","id":"490003276F","lat":51.512037,"lon":-0.375483,"name":"High Street / Southall Town Hall","parentId":"490G00003276","stationId":"490G00003276","stopLetter":"F","topMostParentId":"490G00003276"},{"icsId":"1014102","id":"490012245K","lat":51.510757,"lon":-0.375269,"name":"Southall Town Hall","parentId":"490G00014102","stationId":"490G00014102","stopLetter":"AP","topMostParentId":"490G00014102"}]}]}