{"direction":"inbound","lineId":"98","lineName":"98","mode":"bus","stopPointSequences":[{"stopPoint":[{"icsId":"1007834","id":"490011487G","lat":51.518976,"lon":-0.119495,"name":"Red Lion Square","parentId":"490G00007834","stationId":"490G00007834","stopLetter":"J","topMostParentId":"490G00007834"},{"icsId":"1008174","id":"4900008166W","lat":51.517208,"lon":-0.123618,"name":"New Oxford Street / High Holborn","parentId":"490G00008174","stationId":"490G00008174","stopLetter":"R","topMostParentId":"490G00008174"},{"icsId":"1000235","id":"490000235X","lat":51.516686,"lon":-0.128122,"name":"Tottenham Court Road Station","parentId":"490G00235Z","stationId":"490G00235Z","stopLetter":"X","topMostParentId":"940GZZLUTCR","zone":"1"},{"icsId":"1019021","id":"490000235YB","lat":51.516098,"lon":-0.13407,"name":"Oxford Street / Soho Street","parentId":"490G00019021","stationId":"490G00019021","stopLetter":"YB","topMostParentId":"490G00019021"},{"icsId":"1014214","id":"490014214HE","lat":51.515921,"lon":-0.135417,"name":"Wardour Street","parentId":"490G00014214","stationId":"490G00014214","stopLetter":"OM","topMostParentId":"490G00014214"},{"icsId":"1010689","id":"490010689KB","lat":51.515471,"lon":-0.139918,"name":"Great Titchfield St / Oxford Circus Stn","parentId":"490G000691","stationId":"490G000691","stopLetter":"OP","topMostParentId":"490G000691"},{"icsId":"1015198","id":"490000173OQ","lat":51.514868,"lon":-0.143834,"name":"Oxford Circus Stn  / Harewood Place","parentId":"490G000875","stationId":"490G000875","stopLetter":"OQ","topMostParentId":"490G000875"},{"icsId":"1000025","id":"490000025BW","lat":51.514262,"lon":-0.149883,"name":"Bond Street Station","parentId":"490G00025BW","stationId":"490G00025BW","stopLetter":"BW","topMostParentId":"940GZZLUBND","zone":"1"},{"icsId":"1000144","id":"490000144O","lat":51.513562,"lon":-0.156858,"name":"Marble Arch Station","parentId":"490G00144L","stationId":"490G00144L","stopLetter":"O","topMostParentId":"940GZZLUMBA","zone":"1"},{"icsId":"1008450","id":"490000144E","lat":51.513875,"lon":-0.161299,"name":"Marble Arch / Edgware Road","parentId":"490G00008450","stationId":"490G00008450","stopLetter":"E","topMostParentId":"490G00008450"},{"icsId":"1007167","id":"490007167N3","lat":51.516444,"lon":-0.165144,"name":"George Street","parentId":"490G00007167","stationId":"490G00007167","stopLetter":"EJ","topMostParentId":"490G00007167"},{"icsId":"1015044","id":"490013046T","lat":51.518404,"lon":-0.167977,"name":"Sussex Gardens","parentId":"490G00015044","stationId":"490G00015044","stopLetter":"EL","topMostParentId":"490G00015044"},{"icsId":"1000071","id":"490006428B","lat":51.520576,"lon":-0.171191,"name":"Edgware Road Station","parentId":"490G00071E","stationId":"490G00071E","stopLetter":"EM","topMostParentId":"940GZZLUERB","zone":"1"},{"icsId":"1015285","id":"490015285N","lat":51.52235,"lon":-0.173657,"name":"Church Street Market","parentId":"490G00015285","stationId":"490G00015285","stopLetter":"EN","topMostParentId":"490G00015285"},{"icsId":"1010621","id":"490010621N","lat":51.523904,"lon":-0.175829,"name":"Orchardson Street","parentId":"490G00010621","stationId":"490G00010621","stopLetter":"EP","topMostParentId":"490G00010621"},{"icsId":"1012747","id":"490012747F","lat":51.525062,"lon":-0.177484,"name":"St John's Wood Road","parentId":"490G00012747","stationId":"490G00012747","stopLetter":"F","topMostParentId":"490G00012747"},{"icsId":"1007679","id":"490007679N","lat":51.527995,"lon":-0.181014,"name":"Hall Road","parentId":"490G00007679","stationId":"490G00007679","stopLetter":"N","topMostParentId":"490G00007679"},{"icsId":"1006475","id":"490006475A","lat":51.530443,"lon":-0.18406,"name":"Elgin Avenue / Maida Vale Station","parentId":"490G000500","stationId":"490G000500","stopLetter":"A","topMostParentId":"490G000500"},{"icsId":"1004805","id":"490004805N","lat":51.532816,"lon":-0.186906,"name":"Carlton Vale","parentId":"490G00004805","stationId":"490G00004805","stopLetter":"KH","topMostParentId":"490G00004805"},{"icsId":"1008712","id":"490008712N","lat":51.534767,"lon":-0.189222,"name":"Kilburn Park Road","parentId":"490G00008712","stationId":"490G00008712","stopLetter":"KJ","topMostParentId":"490G00008712"},{"icsId":"1001170","id":"490015243X","lat":51.536488,"lon":-0.191793,"name":"Kilburn High Road Station","parentId":"490G01170Q","stationId":"490G01170Q","stopLetter":"X","topMostParentId":"910GKLBRNHR"},{"icsId":"1008720","id":"490001170R","lat":51.537981,"lon":-0.193565,"name":"Brondesbury Road","parentId":"490G00008720","stationId":"490G00008720","stopLetter":"R","topMostParentId":"490G00008720"},{"icsId":"1015245","id":"490008710P","lat":51.539126,"lon":-0.194904,"name":"Kilburn High Road","parentId":"490G00015245","stationId":"490G00015245","stopLetter":"P","topMostParentId":"490G00015245"},{"icsId":"1011235","id":"490011235J","lat":51.540315,"lon":-0.196212,"name":"Priory Park Road","parentId":"490G00011235","stationId":"490G00011235","stopLetter":"J","topMostParentId":"490G00011235"},{"icsId":"1015242","id":"490015242G","lat":51.54163,"lon":-0.198699,"name":"Willesden Lane","parentId":"490G00015242","stationId":"490G00015242","stopLetter":"G","topMostParentId":"490G00015242"},{"icsId":"1008793","id":"490008793W","lat":51.540898,"lon":-0.201352,"name":"Kingsley Road","parentId":"490G00008793","stationId":"490G00008793","stopLetter":"G","topMostParentId":"490G00008793"},{"icsId":"1011080","id":"490011080N","lat":51.541812,"lon":-0.206479,"name":"Plympton Avenue","parentId":"490G00011080","stationId":"490G00011080","topMostParentId":"490G00011080"},{"icsId":"1005226","id":"490005226W","lat":51.544441,"lon":-0.211985,"name":"Christchurch","parentId":"490G00005226","stationId":"490G00005226","stopLetter":"J","topMostParentId":"490G00005226"},{"icsId":"1006023","id":"490006023E2","lat":51.545333,"lon":-0.214445,"name":"Deerhurst Road","parentId":"490G00006023","stationId":"490G00006023","stopLetter":"K","topMostParentId":"490G00006023"},{"icsId":"1012148","id":"490012148W","lat":51.546584,"lon":-0.218622,"name":"Sidmouth Road","parentId":"490G00012148","stationId":"490G00012148","stopLetter":"->W","topMostParentId":"490G00012148"},{"icsId":"1014693","id":"490014693F","lat":51.547124,"lon":-0.223447,"name":"Walm Lane","parentId":"490G00014693","stationId":"490G00014693","stopLetter":"H","topMostParentId":"490G00014693"},{"icsId":"1014691","id":"490014691W1","lat":51.54723,"lon":-0.228058,"name":"Willesden Green Library","parentId":"490G00014691","stationId":"490G00014691","stopLetter":"K","topMostParentId":"490G00014691"},{"icsId":"1014088","id":"490014088W","lat":51.5473,"lon":-0.233926,"name":"Villiers Road","parentId":"490G00014088","stationId":"490G00014088","stopLetter":"T","topMostParentId":"490G00014088"},{"icsId":"1014688","id":"490014687S","lat":51.547735,"lon":-0.236505,"name":"Strode Road","parentId":"490G00014688","stationId":"490G00014688","stopLetter":"WZ","topMostParentId":"490G00014688"},{"icsId":"1014701","id":"490014687W1","lat":51.548605,"lon":-0.239947,"name":"Pound Lane","parentId":"490G00014701","stationId":"490G00014701","stopLetter":"WU","topMostParentId":"490G00014701"}]}]}