{"direction":"inbound","lineId":"99","lineName":"99","mode":"bus","stopPointSequences":[{"stopPoint":[{"icsId":"1019056","id":"490003975S","lat":51.456891,"lon":0.14798,"name":"Mayplace Rd West / Bexleyheath Clock Twr","parentId":"490G00019056","stationId":"490G00019056","stopLetter":"S","topMostParentId":"490G00019056"},{"icsId":"1006620","id":"490006620E","lat":51.458554,"lon":0.151959,"name":"Forresters Crescent","parentId":"490G00006620","stationId":"490G00006620","stopLetter":"NG","topMostParentId":"490G00006620"},{"icsId":"1015380","id":"490015380E","lat":51.459153,"lon":0.155054,"name":"Mayplace Road East / Pinnacle Hill","parentId":"490G00015380","stationId":"490G00015380","stopLetter":"NH","topMostParentId":"490G00015380"},{"icsId":"1003626","id":"490003626E","lat":51.459844,"lon":0.160024,"name":"Mayplace Road East / Barnehurst Road","parentId":"490G00003626","stationId":"490G00003626","stopLetter":"NJ","topMostParentId":"490G00003626"},{"icsId":"1015141","id":"490015141N","lat":51.461914,"lon":0.15992,"name":"Barnehurst Road / Randolph Close","parentId":"490G00015141","stationId":"490G00015141","stopLetter":"NK","topMostParentId":"490G00015141"},{"icsId":"1019830","id":"490001013D","lat":51.464404,"lon":0.160988,"name":"Northall Road / Barnehurst Station","parentId":"490G000953","stationId":"490G000953","stopLetter":"D","topMostParentId":"490G000953"},{"icsId":"1009603","id":"490009597E","lat":51.463791,"lon":0.168345,"name":"Parkside Avenue / Manor Way","parentId":"490G00009603","stationId":"490G00009603","topMostParentId":"490G00009603"},{"icsId":"1010828","id":"490010828E","lat":51.463696,"lon":0.173033,"name":"Parkside Cross","parentId":"490G00010828","stationId":"490G00010828","topMostParentId":"490G00010828"},{"icsId":"1006670","id":"490006670E","lat":51.463661,"lon":0.176343,"name":"Eversley Cross","parentId":"490G00006670","stationId":"490G00006670","stopLetter":"->E","topMostParentId":"490G00006670"},{"icsId":"1010950","id":"490010950E","lat":51.463625,"lon":0.181179,"name":"Perry Street","parentId":"490G00010950","stationId":"490G00010950","stopLetter":"->E","topMostParentId":"490G00010950"},{"icsId":"1008409","id":"490008409E1","lat":51.463445,"lon":0.184597,"name":"Howbury Lane","parentId":"490G00008409","stationId":"490G00008409","topMostParentId":"490G00008409"},{"icsId":"1009171","id":"490009171N","lat":51.46523,"lon":0.189145,"name":"Lincoln Road","parentId":"490G00009171","stationId":"490G00009171","stopLetter":"->N","topMostParentId":"490G00009171"},{"icsId":"1019907","id":"490001252C","lat":51.466882,"lon":0.190261,"name":"Howbury Lane / Slade Green Station","parentId":"490G000963","stationId":"490G000963","stopLetter":"C","topMostParentId":"490G000963"},{"icsId":"1005935","id":"490005935W","lat":51.466821,"lon":0.186802,"name":"Dale View","parentId":"490G00005935","stationId":"490G00005935","topMostParentId":"490G00005935"},{"icsId":"1014588","id":"490014588N","lat":51.466898,"lon":0.183653,"name":"Whitehall Lane / Bridge Road","parentId":"490G00014588","stationId":"490G00014588","stopLetter":"->N","topMostParentId":"490G00014588"},{"icsId":"1009713","id":"490009713E","lat":51.468798,"lon":0.186407,"name":"Masefield Close","parentId":"490G00009713","stationId":"490G00009713","stopLetter":"->E","topMostParentId":"490G00009713"},{"icsId":"1006944","id":"490006924S","lat":51.470203,"lon":0.190622,"name":"Forest Road / Bridge Road","parentId":"490G00006944","stationId":"490G00006944","stopLetter":"J","topMostParentId":"490G00006944"},{"icsId":"1019839","id":"490001252A","lat":51.467664,"lon":0.190759,"name":"Forest Road / Slade Green Station","parentId":"490G000955","stationId":"490G000955","stopLetter":"A","topMostParentId":"490G000955"},{"icsId":"1007973","id":"490007973N","lat":51.470973,"lon":0.193207,"name":"Hazel Road","parentId":"490G00007973","stationId":"490G00007973","stopLetter":"K","topMostParentId":"490G00007973"},{"icsId":"1007367","id":"490007367N","lat":51.473364,"lon":0.195194,"name":"Grange Way","parentId":"490G00007367","stationId":"490G00007367","stopLetter":"->N","topMostParentId":"490G00007367"},{"icsId":"1012192","id":"490012192N","lat":51.476539,"lon":0.195145,"name":"Slade Green Road / Manor Road","parentId":"490G00012192","stationId":"490G00012192","stopLetter":"->N","topMostParentId":"490G00012192"},{"icsId":"1004006","id":"490004006W","lat":51.477303,"lon":0.193252,"name":"Bilton Road","parentId":"490G00004006","stationId":"490G00004006","stopLetter":"->W","topMostParentId":"490G00004006"},{"icsId":"1020011","id":"490013540W","lat":51.478185,"lon":0.186986,"name":"Manor Road / Frobisher Road","parentId":"490G00020011","stationId":"490G00020011","stopLetter":"->W","topMostParentId":"490G00020011"},{"icsId":"1005533","id":"490005533N","lat":51.47842,"lon":0.182072,"name":"Compton Place","parentId":"490G00005533","stationId":"490G00005533","stopLetter":"N","topMostParentId":"490G00005533"},{"icsId":"1006617","id":"490006617M","lat":51.479482,"lon":0.181042,"name":"Erith Health Centre","parentId":"490G00006617","stationId":"490G00006617","stopLetter":"M","topMostParentId":"490G00006617"},{"icsId":"1016787","id":"490016787N","lat":51.480215,"lon":0.181783,"name":"Colebrook Street","parentId":"490G00016787","stationId":"490G00016787","stopLetter":"P","topMostParentId":"490G00016787"},{"icsId":"1005817","id":"490006622J","lat":51.480863,"lon":0.179798,"name":"Erith Town Centre / Riverside","parentId":"490G00005817","stationId":"490G00005817","stopLetter":"J","topMostParentId":"490G00005817"},{"icsId":"1003985","id":"490003985A","lat":51.480731,"lon":0.174808,"name":"Fraser Road / Bexley Road","parentId":"490G000415","stationId":"490G000415","stopLetter":"A","topMostParentId":"490G000415"},{"icsId":"1006658","id":"490006658W","lat":51.481373,"lon":0.170244,"name":"Europa Trading Estate","parentId":"490G00006658","stationId":"490G00006658","stopLetter":"->W","topMostParentId":"490G00006658"},{"icsId":"1004015","id":"490004015W","lat":51.481669,"lon":0.168847,"name":"Birch Walk","parentId":"490G00004015","stationId":"490G00004015","stopLetter":"->W","topMostParentId":"490G00004015"},{"icsId":"1013473","id":"490013473N","lat":51.484148,"lon":0.164658,"name":"Alford Road","parentId":"490G00013473","stationId":"490G00013473","stopLetter":"->N","topMostParentId":"490G00013473"},{"icsId":"1003970","id":"490003970W","lat":51.485055,"lon":0.160336,"name":"Trinity School","parentId":"490G00003970","stationId":"490G00003970","stopLetter":"->W","topMostParentId":"490G00003970"},{"icsId":"1006616","id":"490006616W","lat":51.485095,"lon":0.156176,"name":"Erith Fire Station","parentId":"490G00006616","stationId":"490G00006616","stopLetter":"T","topMostParentId":"490G00006616"},{"icsId":"1004475","id":"490004475W","lat":51.484442,"lon":0.153077,"name":"Brook Street","parentId":"490G00004475","stationId":"490G00004475","stopLetter":"U","topMostParentId":"490G00004475"},{"icsId":"1010469","id":"490010469W","lat":51.484086,"lon":0.148941,"name":"Erith Road / Nuxley Road","parentId":"490G00010469","stationId":"490G00010469","stopLetter":"V","topMostParentId":"490G00010469"},{"icsId":"1013342","id":"490013342W","lat":51.483854,"lon":0.14144,"name":"The Eardley Arms","parentId":"490G00013342","stationId":"490G00013342","stopLetter":"->W","topMostParentId":"490G00013342"},{"icsId":"1013583","id":"490013583W","lat":51.483427,"lon":0.137258,"name":"The View","parentId":"490G00013583","stationId":"490G00013583","stopLetter":"->W","topMostParentId":"490G00013583"},{"icsId":"1003803","id":"490003803W","lat":51.481516,"lon":0.13256,"name":"Woolwich Road / Bedonwell Road","parentId":"490G00003803","stationId":"490G00003803","stopLetter":"G","topMostParentId":"490G00003803"},{"icsId":"1010253","id":"490010253W","lat":51.481232,"lon":0.125431,"name":"New Road","parentId":"490G00010253","stationId":"490G00010253","stopLetter":"H","topMostParentId":"490G00010253"},{"icsId":"1008867","id":"490008867W","lat":51.481318,"lon":0.121676,"name":"Bostall Hill / Brampton Road","parentId":"490G00008867","stationId":"490G00008867","stopLetter":"J","topMostParentId":"490G00008867"},{"icsId":"1009329","id":"490009329W","lat":51.481649,"lon":0.11583,"name":"Longleigh Lane","parentId":"490G00009329","stationId":"490G00009329","stopLetter":"K","topMostParentId":"490G00009329"},{"icsId":"1003668","id":"490003668W","lat":51.48455,"lon":0.10604,"name":"Basildon Road","parentId":"490G00003668","stationId":"490G00003668","stopLetter":"->W","topMostParentId":"490G00003668"},{"icsId":"1011075","id":"490011075W2","lat":51.485645,"lon":0.101107,"name":"Plumstead Corner / Rockmount Road","parentId":"490G00011075","stationId":"490G00011075","stopLetter":"WD","topMostParentId":"490G00011075"},{"icsId":"1011077","id":"490011077W","lat":51.486618,"lon":0.096024,"name":"Plumstead High Street / Police Station","parentId":"490G00011077","stationId":"490G00011077","stopLetter":"WH","topMostParentId":"490G00011077"},{"icsId":"1003584","id":"490003584O","lat":51.48719,"lon":0.093198,"name":"Bannockburn Road","parentId":"490G00003584","stationId":"490G00003584","stopLetter":"WJ","topMostParentId":"490G00003584"},{"icsId":"1008908","id":"490008908S","lat":51.487841,"lon":0.090448,"name":"Lakedale Road","parentId":"490G00008908","stationId":"490G00008908","stopLetter":"WK","topMostParentId":"490G00008908"},{"icsId":"1019871","id":"490001227F","lat":51.490334,"lon":0.083806,"name":"Plumstead Road / Plumstead Station","parentId":"490G000959","stationId":"490G000959","stopLetter":"WL","topMostParentId":"490G000959"},{"icsId":"1014924","id":"490014924D","lat":51.4909,"lon":0.080273,"name":"Greenwich Community College","parentId":"490G00014924","stationId":"490G00014924","stopLetter":"WP","topMostParentId":"490G00014924"},{"icsId":"1009723","id":"490009723W","lat":51.49087,"lon":0.076872,"name":"Maxey Road","parentId":"490G00009723","stationId":"490G00009723","stopLetter":"->W","topMostParentId":"490G00009723"},{"icsId":"1003917","id":"490003917D","lat":51.491933,"lon":0.068119,"name":"Beresford Sq / Woolwich Arsenal Stn","parentId":"490G000411","stationId":"490G000411","stopLetter":"U","topMostParentId":"490G000411"}]}]}