{"direction":"inbound","lineId":"b11","lineName":"B11","mode":"bus","stopPointSequences":[{"stopPoint":[{"icsId":"1016617","id":"490013214B","lat":51.505977,"lon":0.106711,"name":"Central Way / Thamesmead Town Centre","parentId":"490G00016617","stationId":"490G00016617","stopLetter":"B","topMostParentId":"490G00016617"},{"icsId":"1007092","id":"490007092G","lat":51.505902,"lon":0.110829,"name":"Gallions Reach Health Centre","parentId":"490G00007092","stationId":"490G00007092","stopLetter":"G","topMostParentId":"490G00007092"},{"icsId":"1007923","id":"490007923S","lat":51.503883,"lon":0.111615,"name":"Hawksmoor School","parentId":"490G00007923","stationId":"490G00007923","stopLetter":"SA","topMostParentId":"490G00007923"},{"icsId":"1012364","id":"490012364S","lat":51.50227,"lon":0.112808,"name":"Southwood Road","parentId":"490G00012364","stationId":"490G00012364","stopLetter":"SB","topMostParentId":"490G00012364"},{"icsId":"1013459","id":"490013459E","lat":51.503668,"lon":0.117556,"name":"Titmuss Avenue","parentId":"490G00013459","stationId":"490G00013459","stopLetter":"SC","topMostParentId":"490G00013459"},{"icsId":"1004130","id":"490004130S","lat":51.503737,"lon":0.119202,"name":"Carlyle Road / Crossway","parentId":"490G00004130","stationId":"490G00004130","stopLetter":"SJ","topMostParentId":"490G00004130"},{"icsId":"1010190","id":"490010190S","lat":51.497482,"lon":0.121476,"name":"Newacres Library","parentId":"490G00010190","stationId":"490G00010190","stopLetter":"->S","topMostParentId":"490G00010190"},{"icsId":"1014990","id":"490014990E","lat":51.496421,"lon":0.122464,"name":"Yarnton Way / Harrow Manorway","parentId":"490G00014990","stationId":"490G00014990","stopLetter":"T","topMostParentId":"490G00014990"},{"icsId":"1009166","id":"490009166E","lat":51.496464,"lon":0.128993,"name":"Limestone Walk","parentId":"490G00009166","stationId":"490G00009166","stopLetter":"->E","topMostParentId":"490G00009166"},{"icsId":"1013211","id":"490013211E","lat":51.495441,"lon":0.133815,"name":"The Business Academy","parentId":"490G00013211","stationId":"490G00013211","stopLetter":"->E","topMostParentId":"490G00013211"},{"icsId":"1010850","id":"490010850S","lat":51.493721,"lon":0.134483,"name":"Parkway","parentId":"490G00010850","stationId":"490G00010850","stopLetter":"->S","topMostParentId":"490G00010850"},{"icsId":"1004567","id":"490004567W","lat":51.49146,"lon":0.12922,"name":"Buckwheat Court","parentId":"490G00004567","stationId":"490G00004567","stopLetter":"->W","topMostParentId":"490G00004567"},{"icsId":"1008934","id":"490008934W","lat":51.491428,"lon":0.126511,"name":"Lanridge Road","parentId":"490G00008934","stationId":"490G00008934","stopLetter":"->W","topMostParentId":"490G00008934"},{"icsId":"1011972","id":"490011972P","lat":51.492915,"lon":0.121869,"name":"Sedgemere Road","parentId":"490G00011972","stationId":"490G00011972","stopLetter":"P","topMostParentId":"490G00011972"},{"icsId":"1019855","id":"490001001D","lat":51.490915,"lon":0.122093,"name":"Harrow Manorway / Abbey Wood Station","parentId":"490G000957","stationId":"490G000957","stopLetter":"D","topMostParentId":"490G000957"},{"icsId":"1003039","id":"490003039E","lat":51.48934,"lon":0.121184,"name":"Abbey Wood Road","parentId":"490G000378","stationId":"490G000378","stopLetter":"E","topMostParentId":"490G000378"},{"icsId":"1006898","id":"490006877S","lat":51.489395,"lon":0.124068,"name":"Abbey Road","parentId":"490G00006898","stationId":"490G00006898","stopLetter":"W","topMostParentId":"490G00006898"},{"icsId":"1016308","id":"490016308S","lat":51.487926,"lon":0.125772,"name":"Woodland Way","parentId":"490G00016308","stationId":"490G00016308","topMostParentId":"490G00016308"},{"icsId":"1016307","id":"490016307S","lat":51.482348,"lon":0.126362,"name":"Hurst Lane","parentId":"490G00016307","stationId":"490G00016307","stopLetter":"F","topMostParentId":"490G00016307"},{"icsId":"1010253","id":"490010253W","lat":51.481232,"lon":0.125431,"name":"New Road","parentId":"490G00010253","stationId":"490G00010253","stopLetter":"H","topMostParentId":"490G00010253"},{"icsId":"1001977","id":"490001977Z","lat":51.480237,"lon":0.122793,"name":"Burcharbro Road","parentId":"490G000301","stationId":"490G000301","stopLetter":"->S","topMostParentId":"490G000301"},{"icsId":"1009330","id":"490009330Z","lat":51.478387,"lon":0.122116,"name":"Bostall Heath","parentId":"490G00009330","stationId":"490G00009330","topMostParentId":"490G00009330"},{"icsId":"1001974","id":"490001974Z","lat":51.478782,"lon":0.118707,"name":"Longleigh Lane  Lodge Hill","parentId":"490G000298","stationId":"490G000298","topMostParentId":"490G000298"},{"icsId":"1001975","id":"490001975Z","lat":51.477792,"lon":0.11725,"name":"Goldie Leigh","parentId":"490G000299","stationId":"490G000299","topMostParentId":"490G000299"},{"icsId":"1013723","id":"490013723Z","lat":51.475553,"lon":0.11477,"name":"Plumstead Cemetery  Totnes Road","parentId":"490G00013723","stationId":"490G00013723","stopLetter":"->S","topMostParentId":"490G00013723"},{"icsId":"1001976","id":"490001976Z","lat":51.473381,"lon":0.112524,"name":"Lodge Hill Playground","parentId":"490G000300","stationId":"490G000300","stopLetter":"->S","topMostParentId":"490G000300"},{"icsId":"1010520","id":"490010520E","lat":51.472639,"lon":0.113239,"name":"Okehampton Crescent / Lodge Hill","parentId":"490G00010520","stationId":"490G00010520","stopLetter":"S","topMostParentId":"490G00010520"},{"icsId":"1013722","id":"490013722E","lat":51.472252,"lon":0.11924,"name":"Tor Road","parentId":"490G00013722","stationId":"490G00013722","stopLetter":"T","topMostParentId":"490G00013722"},{"icsId":"1011081","id":"490011081E","lat":51.47394,"lon":0.123408,"name":"Plymstock Road","parentId":"490G00011081","stationId":"490G00011081","stopLetter":"T","topMostParentId":"490G00011081"},{"icsId":"1004249","id":"490004249S","lat":51.474115,"lon":0.126641,"name":"Brampton Road / Long Lane","parentId":"490G00004249","stationId":"490G00004249","stopLetter":"Q","topMostParentId":"490G00004249"},{"icsId":"1009788","id":"490009788S","lat":51.472679,"lon":0.131903,"name":"Melanie Close","parentId":"490G00009788","stationId":"490G00009788","topMostParentId":"490G00009788"},{"icsId":"1005898","id":"490005898S","lat":51.471766,"lon":0.134668,"name":"Long Lane / Kipling Road","parentId":"490G00005898","stationId":"490G00005898","stopLetter":"->E","topMostParentId":"490G00005898"},{"icsId":"1010991","id":"490010991S","lat":51.470956,"lon":0.135681,"name":"Pickford Lane / Long Lane","parentId":"490G00010991","stationId":"490G00010991","stopLetter":"->S","topMostParentId":"490G00010991"},{"icsId":"1004216","id":"490004216S","lat":51.468615,"lon":0.134334,"name":"Pickford Lane / Bowford Avenue","parentId":"490G00004216","stationId":"490G00004216","stopLetter":"->S","topMostParentId":"490G00004216"},{"icsId":"1001025","id":"490001025B","lat":51.464469,"lon":0.132902,"name":"Bexleyheath Station","parentId":"490G01025B","stationId":"490G01025B","stopLetter":"BH","topMostParentId":"910GBXLYHTH"},{"icsId":"1005147","id":"490005147BG","lat":51.46143,"lon":0.131853,"name":"Pickford Road","parentId":"490G00005147","stationId":"490G00005147","stopLetter":"BG","topMostParentId":"490G00005147"},{"icsId":"1007256","id":"490007256S","lat":51.459022,"lon":0.130748,"name":"Avenue Road / Crook Log","parentId":"490G00007256","stationId":"490G00007256","stopLetter":"BJ","topMostParentId":"490G00007256"},{"icsId":"1013960","id":"490013960E","lat":51.458386,"lon":0.13259,"name":"Upton Road","parentId":"490G00013960","stationId":"490G00013960","stopLetter":"BK","topMostParentId":"490G00013960"},{"icsId":"1009203","id":"490009203E","lat":51.457724,"lon":0.137352,"name":"Lion Road","parentId":"490G00009203","stationId":"490G00009203","stopLetter":"BL","topMostParentId":"490G00009203"},{"icsId":"1003973","id":"490003973B","lat":51.457114,"lon":0.1417,"name":"Trinity Place","parentId":"490G00003973","stationId":"490G00003973","stopLetter":"B","topMostParentId":"490G00003973"},{"icsId":"1019056","id":"490003975S","lat":51.456891,"lon":0.14798,"name":"Mayplace Rd West / Bexleyheath Clock Twr","parentId":"490G00019056","stationId":"490G00019056","stopLetter":"S","topMostParentId":"490G00019056"},{"icsId":"1006620","id":"490006620E","lat":51.458554,"lon":0.151959,"name":"Forresters Crescent","parentId":"490G00006620","stationId":"490G00006620","stopLetter":"NG","topMostParentId":"490G00006620"},{"icsId":"1003974","id":"490003974N1","lat":51.459625,"lon":0.152873,"name":"Bexleyheath Bus Garage","parentId":"490G00003974","stationId":"490G00003974","stopLetter":"NR","topMostParentId":"490G00003974"}]}]}