{"direction":"inbound","lineId":"b15","lineName":"B15","mode":"bus","stopPointSequences":[{"stopPoint":[{"icsId":"1018681","id":"4900018681SE","lat":51.447722,"lon":0.023449,"name":"Horncastle Road","parentId":"490G00018681","stationId":"490G00018681","stopLetter":"M","topMostParentId":"490G00018681"},{"icsId":"1018682","id":"490018682SE","lat":51.444557,"lon":0.026043,"name":"Horn Park Primary School","parentId":"490G00018682","stationId":"490G00018682","topMostParentId":"490G00018682"},{"icsId":"1018683","id":"490018683SE","lat":51.443732,"lon":0.029014,"name":"Alnwick Road / Mottingham Lane","parentId":"490G00018683","stationId":"490G00018683","topMostParentId":"490G00018683"},{"icsId":"1018684","id":"490018684N","lat":51.444591,"lon":0.030304,"name":"The Dutch House","parentId":"490G00018684","stationId":"490G00018684","topMostParentId":"490G00018684"},{"icsId":"1012142","id":"490012142N","lat":51.450742,"lon":0.030822,"name":"Sidcup Road","parentId":"490G00012142","stationId":"490G00012142","stopLetter":"EM","topMostParentId":"490G00012142"},{"icsId":"1019826","id":"490015018N","lat":51.452382,"lon":0.034766,"name":"Westhorne Avenue / Eltham Road","parentId":"490G00019826","stationId":"490G00019826","stopLetter":"EN","topMostParentId":"490G00019826"},{"icsId":"1015477","id":"490015477E","lat":51.452923,"lon":0.037799,"name":"Eltham Hill / Westhorne Avenue","parentId":"490G00015477","stationId":"490G00015477","stopLetter":"EK","topMostParentId":"490G00015477"},{"icsId":"1014007","id":"490014007E","lat":51.452492,"lon":0.041882,"name":"Vandyke Cross","parentId":"490G00014007","stationId":"490G00014007","topMostParentId":"490G00014007"},{"icsId":"1008778","id":"490008778E","lat":51.451724,"lon":0.045186,"name":"Kingsground","parentId":"490G00008778","stationId":"490G00008778","stopLetter":"X","topMostParentId":"490G00008778"},{"icsId":"1006546","id":"490006546E","lat":51.451505,"lon":0.047955,"name":"Sherard Road","parentId":"490G00006546","stationId":"490G00006546","stopLetter":"Y","topMostParentId":"490G00006546"},{"icsId":"1006533","id":"490006537O","lat":51.450761,"lon":0.055521,"name":"Eltham High Street / Roper Street","parentId":"490G00006533","stationId":"490G00006533","stopLetter":"O","topMostParentId":"490G00006533"},{"icsId":"1006547","id":"490006534Z","lat":51.450887,"lon":0.059096,"name":"Eltham High Street / Pound Place","parentId":"490G00006547","stationId":"490G00006547","stopLetter":"S","topMostParentId":"490G00006547"},{"icsId":"1006555","id":"490006548E","lat":51.450875,"lon":0.06183,"name":"Eltham High Street / Westmount Road","parentId":"490G00006555","stationId":"490G00006555","stopLetter":"V","topMostParentId":"490G00006555"},{"icsId":"1007227","id":"490007227E","lat":51.451759,"lon":0.067267,"name":"Bexley Road / Glenesk Road","parentId":"490G00007227","stationId":"490G00007227","stopLetter":"AH","topMostParentId":"490G00007227"},{"icsId":"1003505","id":"490003505E","lat":51.451799,"lon":0.075689,"name":"University Of Greenwich / Mansion Site","parentId":"490G00003505","stationId":"490G00003505","stopLetter":"AJ","topMostParentId":"490G00003505"},{"icsId":"1003504","id":"490003504N","lat":51.452167,"lon":0.078814,"name":"Avery Hill / Riefield Road","parentId":"490G00003504","stationId":"490G00003504","stopLetter":"AW","topMostParentId":"490G00003504"},{"icsId":"1005846","id":"490005846N","lat":51.455183,"lon":0.07708,"name":"Riefield Road / Crown Woods School","parentId":"490G00005846","stationId":"490G00005846","stopLetter":"->N","topMostParentId":"490G00005846"},{"icsId":"1006536","id":"490006536N","lat":51.457212,"lon":0.076755,"name":"Eltham Cemetery","parentId":"490G00006536","stationId":"490G00006536","stopLetter":"W","topMostParentId":"490G00006536"},{"icsId":"1014366","id":"490014366N","lat":51.459223,"lon":0.078473,"name":"Rochester Way / Falconwood Station","parentId":"490G00014366","stationId":"490G00014366","stopLetter":"R","topMostParentId":"490G00014366"},{"icsId":"1014367","id":"490014365E","lat":51.462033,"lon":0.076239,"name":"Welling Way / Rochester Way","parentId":"490G00014367","stationId":"490G00014367","stopLetter":"Y","topMostParentId":"490G00014367"},{"icsId":"1016194","id":"490016194E","lat":51.461788,"lon":0.083916,"name":"Montrose Avenue","parentId":"490G00016194","stationId":"490G00016194","stopLetter":"->E","topMostParentId":"490G00016194"},{"icsId":"1016207","id":"490016207E","lat":51.462533,"lon":0.088557,"name":"Welling Way / Sherwood Road","parentId":"490G00016207","stationId":"490G00016207","stopLetter":"->E","topMostParentId":"490G00016207"},{"icsId":"1019726","id":"490014364N","lat":51.464093,"lon":0.093854,"name":"Welling Way / Bellegrove Road","parentId":"490G00019726","stationId":"490G00019726","stopLetter":"Y","topMostParentId":"490G00019726"},{"icsId":"1004922","id":"490004922C","lat":51.463891,"lon":0.099114,"name":"Central Avenue / Welling Station","parentId":"490G000446","stationId":"490G000446","stopLetter":"C","topMostParentId":"490G000446"},{"icsId":"1006018","id":"490006018H","lat":51.463016,"lon":0.104789,"name":"Deepdene Road","parentId":"490G00006018","stationId":"490G00006018","stopLetter":"H","topMostParentId":"490G00006018"},{"icsId":"1014352","id":"490014352M","lat":51.462955,"lon":0.107723,"name":"Upper Wickham Lane / Coton Road","parentId":"490G00014352","stationId":"490G00014352","stopLetter":"M","topMostParentId":"490G00014352"},{"icsId":"1004601","id":"490004601N","lat":51.465136,"lon":0.109437,"name":"Upper Wickham Lane / Burnell Avenue","parentId":"490G00004601","stationId":"490G00004601","stopLetter":"Q","topMostParentId":"490G00004601"},{"icsId":"1006374","id":"490006374N","lat":51.467142,"lon":0.110379,"name":"East Road","parentId":"490G00006374","stationId":"490G00006374","stopLetter":"C","topMostParentId":"490G00006374"},{"icsId":"1018784","id":"490018784E","lat":51.468094,"lon":0.110955,"name":"Elsa Road  Upper Wickham Lane","parentId":"490G00018784","stationId":"490G00018784","stopLetter":"->E","topMostParentId":"490G00018784"},{"icsId":"1014355","id":"490014355Y","lat":51.467502,"lon":0.115866,"name":"Kenmere Road","parentId":"490G00014355","stationId":"490G00014355","stopLetter":"->E","topMostParentId":"490G00014355"},{"icsId":"1007969","id":"490007969Y","lat":51.466999,"lon":0.120825,"name":"Avondale Road Welling","parentId":"490G00007969","stationId":"490G00007969","stopLetter":"->E","topMostParentId":"490G00007969"},{"icsId":"1007195","id":"490007195Y","lat":51.466158,"lon":0.124544,"name":"Gipsy Road Welling","parentId":"490G00007195","stationId":"490G00007195","stopLetter":"->E","topMostParentId":"490G00007195"},{"icsId":"1004248","id":"490004248Y","lat":51.465827,"lon":0.127912,"name":"Holmesdale Road","parentId":"490G00004248","stationId":"490G00004248","stopLetter":"->E","topMostParentId":"490G00004248"},{"icsId":"1006115","id":"490006115Y","lat":51.466672,"lon":0.130399,"name":"Veroan Road","parentId":"490G00006115","stationId":"490G00006115","stopLetter":"->E","topMostParentId":"490G00006115"},{"icsId":"1001025","id":"490001025B","lat":51.464469,"lon":0.132902,"name":"Bexleyheath Station","parentId":"490G01025B","stationId":"490G01025B","stopLetter":"BH","topMostParentId":"910GBXLYHTH"},{"icsId":"1005147","id":"490005147BG","lat":51.46143,"lon":0.131853,"name":"Pickford Road","parentId":"490G00005147","stationId":"490G00005147","stopLetter":"BG","topMostParentId":"490G00005147"},{"icsId":"1007256","id":"490007256S","lat":51.459022,"lon":0.130748,"name":"Avenue Road / Crook Log","parentId":"490G00007256","stationId":"490G00007256","stopLetter":"BJ","topMostParentId":"490G00007256"},{"icsId":"1013960","id":"490013960E","lat":51.458386,"lon":0.13259,"name":"Upton Road","parentId":"490G00013960","stationId":"490G00013960","stopLetter":"BK","topMostParentId":"490G00013960"},{"icsId":"1009203","id":"490009203E","lat":51.457724,"lon":0.137352,"name":"Lion Road","parentId":"490G00009203","stationId":"490G00009203","stopLetter":"BL","topMostParentId":"490G00009203"},{"icsId":"1003973","id":"490003973B","lat":51.457114,"lon":0.1417,"name":"Trinity Place","parentId":"490G00003973","stationId":"490G00003973","stopLetter":"B","topMostParentId":"490G00003973"},{"icsId":"1019055","id":"490003975E","lat":51.457397,"lon":0.145369,"name":"Friswell Place","parentId":"490G00019055","stationId":"490G00019055","topMostParentId":"490G00019055"}]}]}