{"direction":"inbound","lineId":"c11","lineName":"C11","mode":"bus","stopPointSequences":[{"stopPoint":[{"icsId":"1004282","id":"490004282D","lat":51.575762,"lon":-0.222691,"name":"Brent Cross Shopping Centre","parentId":"490G00004282","stationId":"490G00004282","stopLetter":"C","topMostParentId":"490G00004282"},{"icsId":"1009624","id":"490009624W","lat":51.573618,"lon":-0.220062,"name":"Mapledown School","parentId":"490G00009624","stationId":"490G00009624","stopLetter":"W","topMostParentId":"490G00009624"},{"icsId":"1005434","id":"490005434S","lat":51.571646,"lon":-0.218682,"name":"Claremont Way","parentId":"490G00005434","stationId":"490G00005434","stopLetter":"A","topMostParentId":"490G00005434"},{"icsId":"1005435","id":"490005435S","lat":51.5693,"lon":-0.218716,"name":"Clitterhouse Road North","parentId":"490G00005435","stationId":"490G00005435","stopLetter":"B","topMostParentId":"490G00005435"},{"icsId":"1008053","id":"490008053S","lat":51.567664,"lon":-0.218217,"name":"Clitterhouse Road South","parentId":"490G00008053","stationId":"490G00008053","stopLetter":"C","topMostParentId":"490G00008053"},{"icsId":"1010914","id":"490010914S","lat":51.563811,"lon":-0.215568,"name":"Pennine Drive","parentId":"490G00010914","stationId":"490G00010914","stopLetter":"D","topMostParentId":"490G00010914"},{"icsId":"1012230","id":"490012230S","lat":51.561081,"lon":-0.213439,"name":"Somerton Road","parentId":"490G00012230","stationId":"490G00012230","stopLetter":"CK","topMostParentId":"490G00012230"},{"icsId":"1001075","id":"490001075Q","lat":51.559498,"lon":-0.212217,"name":"Cricklewood Station","parentId":"490G01075Q","stationId":"490G01075Q","stopLetter":"CL","topMostParentId":"910GCRKLWD"},{"icsId":"1015253","id":"490015253T","lat":51.558322,"lon":-0.211196,"name":"Cricklewood Lane","parentId":"490G00015253","stationId":"490G00015253","stopLetter":"CO","topMostParentId":"490G00015253"},{"icsId":"1014415","id":"490014415E","lat":51.556618,"lon":-0.209128,"name":"Westcroft Way","parentId":"490G00014415","stationId":"490G00014415","stopLetter":"CP","topMostParentId":"490G00014415"},{"icsId":"1009804","id":"490009804E","lat":51.554702,"lon":-0.207861,"name":"Hampstead School","parentId":"490G00009804","stationId":"490G00009804","stopLetter":"CQ","topMostParentId":"490G00009804"},{"icsId":"1009940","id":"490009940E","lat":51.552967,"lon":-0.205564,"name":"Minster Road","parentId":"490G00009940","stationId":"490G00009940","stopLetter":"CR","topMostParentId":"490G00009940"},{"icsId":"1009909","id":"490011931S","lat":51.551349,"lon":-0.202108,"name":"Mill Lane","parentId":"490G00009909","stationId":"490G00009909","stopLetter":"CU","topMostParentId":"490G00009909"},{"icsId":"1008214","id":"490008214E","lat":51.551496,"lon":-0.199953,"name":"Hillfield Road","parentId":"490G00008214","stationId":"490G00008214","stopLetter":"CV","topMostParentId":"490G00008214"},{"icsId":"1012218","id":"490012218E","lat":51.551998,"lon":-0.19689,"name":"Solent Road","parentId":"490G00012218","stationId":"490G00012218","stopLetter":"CW","topMostParentId":"490G00012218"},{"icsId":"1003190","id":"490003186E","lat":51.552073,"lon":-0.194767,"name":"Fortune Green Road","parentId":"490G00003190","stationId":"490G00003190","stopLetter":"CY","topMostParentId":"490G00003190"},{"icsId":"1014431","id":"490014431S","lat":51.551469,"lon":-0.191776,"name":"West End Green","parentId":"490G00014431","stationId":"490G00014431","stopLetter":"T","topMostParentId":"490G00014431"},{"icsId":"1006041","id":"490006041D","lat":51.549819,"lon":-0.191452,"name":"Dennington Park Road","parentId":"490G000484","stationId":"490G000484","stopLetter":"V","topMostParentId":"490G000484"},{"icsId":"1000263","id":"490000263S","lat":51.547169,"lon":-0.191052,"name":"West Hampstead Station","parentId":"490G00263E","stationId":"490G00263E","stopLetter":"W","topMostParentId":"HUBWHD","zone":"2"},{"icsId":"1012082","id":"490000263E","lat":51.546474,"lon":-0.19033,"name":"Broadhurst Gardens","parentId":"490G000743","stationId":"490G000743","stopLetter":"C","topMostParentId":"490G000743"},{"icsId":"1006713","id":"490015161E1","lat":51.546489,"lon":-0.18606,"name":"Fairhazel Gardens","parentId":"490G00006713","stationId":"490G00006713","stopLetter":"FA","topMostParentId":"490G00006713"},{"icsId":"1004370","id":"490004370E","lat":51.546949,"lon":-0.182638,"name":"Broadhurst Estate","parentId":"490G00004370","stationId":"490G00004370","stopLetter":"FM","topMostParentId":"490G00004370"},{"icsId":"1018968","id":"490000082T","lat":51.546663,"lon":-0.180414,"name":"Canfield Gardens / Finchley Road Stn","parentId":"490G00018968","stationId":"490G00018968","stopLetter":"FN","topMostParentId":"490G00018968"},{"icsId":"1000082","id":"490000082FJ","lat":51.546351,"lon":-0.178883,"name":"Finchley Road Station","parentId":"490G00082FL","stationId":"490G00082FL","stopLetter":"FJ","topMostParentId":"940GZZLUFYR","zone":"2"},{"icsId":"1019775","id":"490005487B","lat":51.544529,"lon":-0.175653,"name":"Finchley Road / College Crescent","parentId":"490G00019775","stationId":"490G00019775","stopLetter":"B","topMostParentId":"490G00019775"},{"icsId":"1000230","id":"490000230E","lat":51.542512,"lon":-0.173715,"name":"Swiss Cottage Station","parentId":"490G00230N","stationId":"490G00230N","stopLetter":"E","topMostParentId":"940GZZLUSWC","zone":"2"},{"icsId":"1014749","id":"490014749E","lat":51.542714,"lon":-0.169929,"name":"Winchester Road","parentId":"490G00014749","stationId":"490G00014749","stopLetter":"L","topMostParentId":"490G00014749"},{"icsId":"1013582","id":"490013582E","lat":51.5433,"lon":-0.16542,"name":"Elsworthy Rise","parentId":"490G00013582","stationId":"490G00013582","stopLetter":"M","topMostParentId":"490G00013582"},{"icsId":"1011186","id":"490011186N","lat":51.544175,"lon":-0.162731,"name":"Primrose Hill Road","parentId":"490G00011186","stationId":"490G00011186","stopLetter":"N","topMostParentId":"490G00011186"},{"icsId":"1006591","id":"490006591N","lat":51.54629,"lon":-0.161709,"name":"England's Lane","parentId":"490G00006591","stationId":"490G00006591","stopLetter":"U","topMostParentId":"490G00006591"},{"icsId":"1006594","id":"490006591E","lat":51.54725,"lon":-0.160386,"name":"Haverstock Hill","parentId":"490G00006594","stationId":"490G00006594","stopLetter":"V","topMostParentId":"490G00006594"},{"icsId":"1013939","id":"490013939N","lat":51.549221,"lon":-0.162802,"name":"Upper Park Road","parentId":"490G00013939","stationId":"490G00013939","stopLetter":"W","topMostParentId":"490G00013939"},{"icsId":"1000020","id":"490000020K","lat":51.550698,"lon":-0.165281,"name":"Belsize Park Station","parentId":"490G00020L","stationId":"490G00020L","stopLetter":"K","topMostParentId":"940GZZLUBZP","zone":"2"},{"icsId":"1011714","id":"490015255G","lat":51.552781,"lon":-0.1685,"name":"Rosslyn Hill","parentId":"490G00011714","stationId":"490G00011714","stopLetter":"G","topMostParentId":"490G00011714"},{"icsId":"1011760","id":"490011760C","lat":51.553846,"lon":-0.167001,"name":"Royal Free Hospital","parentId":"490G000732","stationId":"490G000732","stopLetter":"C","topMostParentId":"490G000732"},{"icsId":"1012280","id":"490012280B","lat":51.554268,"lon":-0.164705,"name":"South End Green","parentId":"490G000751","stationId":"490G000751","stopLetter":"B","topMostParentId":"490G000751"},{"icsId":"1005756","id":"490005756E","lat":51.55456,"lon":-0.161505,"name":"Cressy Road","parentId":"490G00005756","stationId":"490G00005756","stopLetter":"M","topMostParentId":"490G00005756"},{"icsId":"1009204","id":"490009204E","lat":51.553563,"lon":-0.158718,"name":"Mansfield Road","parentId":"490G00009204","stationId":"490G00009204","stopLetter":"GA","topMostParentId":"490G00009204"},{"icsId":"1006648","id":"490006648E","lat":51.554158,"lon":-0.154237,"name":"Estelle Road","parentId":"490G00006648","stationId":"490G00006648","stopLetter":"GB","topMostParentId":"490G00006648"},{"icsId":"1001119","id":"490001119E","lat":51.555081,"lon":-0.151155,"name":"Gospel Oak Station","parentId":"490G01119W","stationId":"490G01119W","stopLetter":"GC","topMostParentId":"910GGOSPLOK"},{"icsId":"1007308","id":"490007308E","lat":51.555892,"lon":-0.148439,"name":"Gordon House Road","parentId":"490G00007308","stationId":"490G00007308","stopLetter":"GG","topMostParentId":"490G00007308"},{"icsId":"1019154","id":"490005974N","lat":51.557477,"lon":-0.147437,"name":"Glenhurst Avenue / Lissenden Gardens","parentId":"490G00019154","stationId":"490G00019154","stopLetter":"GE","topMostParentId":"490G00019154"},{"icsId":"1014697","id":"490014902N","lat":51.558777,"lon":-0.148885,"name":"William Ellis School","parentId":"490G00014697","stationId":"490G00014697","stopLetter":"GF","topMostParentId":"490G00014697"},{"icsId":"1010852","id":"490010852N","lat":51.561125,"lon":-0.15068,"name":"Parliament Hill Fields","parentId":"490G00010852","stationId":"490G00010852","stopLetter":"GH","topMostParentId":"490G00010852"},{"icsId":"1008306","id":"490008306E","lat":51.561862,"lon":-0.150101,"name":"Swains Lane","parentId":"490G00008306","stationId":"490G00008306","stopLetter":"GJ","topMostParentId":"490G00008306"},{"icsId":"1004454","id":"490004454E","lat":51.562706,"lon":-0.147167,"name":"Brookfield Park","parentId":"490G00004454","stationId":"490G00004454","stopLetter":"->E","topMostParentId":"490G00004454"},{"icsId":"1005137","id":"490005132E2","lat":51.563997,"lon":-0.144647,"name":"Chester Road / Highgate Library","parentId":"490G00005137","stationId":"490G00005137","stopLetter":"HC","topMostParentId":"490G00005137"},{"icsId":"1011449","id":"490011449E","lat":51.564816,"lon":-0.141801,"name":"Dartmouth Park Hill","parentId":"490G00011449","stationId":"490G00011449","stopLetter":"HN","topMostParentId":"490G00011449"},{"icsId":"1011872","id":"490011872E","lat":51.565582,"lon":-0.140197,"name":"Magdala Avenue / Dartmouth Park Hill","parentId":"490G00011872","stationId":"490G00011872","stopLetter":"HQ","topMostParentId":"490G00011872"},{"icsId":"1014625","id":"490014625E","lat":51.566428,"lon":-0.137406,"name":"Whittington Hospital","parentId":"490G00014625","stationId":"490G00014625","stopLetter":"F","topMostParentId":"490G00014625"},{"icsId":"1000008","id":"490000008C","lat":51.566438,"lon":-0.136338,"name":"Archway Station","parentId":"490G00008O","stationId":"490G00008O","stopLetter":"C","topMostParentId":"940GZZLUACY","zone":"2+3"}]}]}