{"direction":"inbound","lineId":"c2","lineName":"C2","mode":"bus","stopPointSequences":[{"stopPoint":[{"icsId":"1004810","id":"490005537RB","lat":51.512364,"lon":-0.14016,"name":"Conduit Street / Hamleys Toy Store","parentId":"490G00004810","stationId":"490G00004810","stopLetter":"M","topMostParentId":"490G00004810"},{"icsId":"1000173","id":"490000173RC","lat":51.514487,"lon":-0.141918,"name":"Oxford Circus Station","parentId":"490G00173RG","stationId":"490G00173RG","stopLetter":"RC","topMostParentId":"940GZZLUOXC","zone":"1"},{"icsId":"1010695","id":"490000173RD","lat":51.516964,"lon":-0.14274,"name":"Margaret Street / Oxford Circus","parentId":"490G000693","stationId":"490G000693","stopLetter":"RD","topMostParentId":"490G000693"},{"icsId":"1011126","id":"490011126K","lat":51.520575,"lon":-0.145361,"name":"Portland Place","parentId":"490G00011126","stationId":"490G00011126","stopLetter":"K","topMostParentId":"490G00011126"},{"icsId":"1000091","id":"490000091F","lat":51.523463,"lon":-0.144306,"name":"Great Portland Street Station","parentId":"490G00091G","stationId":"490G00091G","stopLetter":"F","topMostParentId":"940GZZLUGPS","zone":"1"},{"icsId":"1013600","id":"490013600C","lat":51.524365,"lon":-0.144457,"name":"Albany Street","parentId":"490G00013600","stationId":"490G00013600","stopLetter":"C","topMostParentId":"490G00013600"},{"icsId":"1005131","id":"490005131N","lat":51.527314,"lon":-0.144424,"name":"Chester Gate","parentId":"490G00005131","stationId":"490G00005131","stopLetter":"P","topMostParentId":"490G00005131"},{"icsId":"1005126","id":"490005126N","lat":51.528978,"lon":-0.144457,"name":"Robert Street","parentId":"490G00005126","stationId":"490G00005126","stopLetter":"->N","topMostParentId":"490G00005126"},{"icsId":"1005903","id":"490005903N","lat":51.530957,"lon":-0.145054,"name":"Cumberland Terrace","parentId":"490G00005903","stationId":"490G00005903","stopLetter":"->N","topMostParentId":"490G00005903"},{"icsId":"1011513","id":"490011513N","lat":51.533274,"lon":-0.146056,"name":"Regent's Park Barracks","parentId":"490G00011513","stationId":"490G00011513","stopLetter":"->N","topMostParentId":"490G00011513"},{"icsId":"1010846","id":"490010846N","lat":51.534679,"lon":-0.146705,"name":"Prince Albert Road / London Zoo","parentId":"490G00010846","stationId":"490G00010846","stopLetter":"C","topMostParentId":"490G00010846"},{"icsId":"1010847","id":"490010847N","lat":51.537535,"lon":-0.145392,"name":"Parkway","parentId":"490G00010847","stationId":"490G00010847","stopLetter":"CW","topMostParentId":"490G00010847"},{"icsId":"1015041","id":"490015041Q","lat":51.538746,"lon":-0.143454,"name":"Camden High Street","parentId":"490G000849","stationId":"490G000849","stopLetter":"CX","topMostParentId":"490G000849"},{"icsId":"1008663","id":"490000036L","lat":51.53995,"lon":-0.142251,"name":"Kentish Town Road","parentId":"490G00008663","stationId":"490G00008663","stopLetter":"L","topMostParentId":"490G00008663"},{"icsId":"1007927","id":"490007927A","lat":51.542123,"lon":-0.142047,"name":"Hawley Road","parentId":"490G00007927","stationId":"490G00007927","stopLetter":"A","topMostParentId":"490G00007927"},{"icsId":"1019924","id":"490011199R","lat":51.546032,"lon":-0.141903,"name":"Prince Of Wales Road","parentId":"490G00019924","stationId":"490G00019924","stopLetter":"KM","topMostParentId":"490G00019924"},{"icsId":"1004894","id":"490004894L","lat":51.548789,"lon":-0.141084,"name":"Kentish Town Post Office","parentId":"490G00004894","stationId":"490G00004894","stopLetter":"KE","topMostParentId":"490G00004894"},{"icsId":"1000123","id":"490000123B","lat":51.551368,"lon":-0.140978,"name":"Kentish Town Station","parentId":"490G00123B","stationId":"490G00123B","stopLetter":"KF","topMostParentId":"HUBKTN","zone":"2"},{"icsId":"1008660","id":"490006943N","lat":51.552956,"lon":-0.142457,"name":"Kentish Town Fire Station","parentId":"490G00008660","stationId":"490G00008660","stopLetter":"KH","topMostParentId":"490G00008660"},{"icsId":"1015367","id":"490008660N","lat":51.553816,"lon":-0.143951,"name":"Lady Somerset Road","parentId":"490G00015367","stationId":"490G00015367","stopLetter":"GY","topMostParentId":"490G00015367"},{"icsId":"1007308","id":"490007308N","lat":51.556117,"lon":-0.146137,"name":"Gordon House Road","parentId":"490G00007308","stationId":"490G00007308","stopLetter":"GZ","topMostParentId":"490G00007308"},{"icsId":"1019154","id":"490005974N","lat":51.557477,"lon":-0.147437,"name":"Glenhurst Avenue / Lissenden Gardens","parentId":"490G00019154","stationId":"490G00019154","stopLetter":"GE","topMostParentId":"490G00019154"},{"icsId":"1014697","id":"490014902N","lat":51.558777,"lon":-0.148885,"name":"William Ellis School","parentId":"490G00014697","stationId":"490G00014697","stopLetter":"GF","topMostParentId":"490G00014697"},{"icsId":"1010852","id":"490010852N","lat":51.561125,"lon":-0.15068,"name":"Parliament Hill Fields","parentId":"490G00010852","stationId":"490G00010852","stopLetter":"GH","topMostParentId":"490G00010852"}]}]}