{"direction":"inbound","lineId":"d3","lineName":"D3","mode":"bus","stopPointSequences":[{"stopPoint":[{"icsId":"1000801","id":"490000801X","lat":51.509889,"lon":0.005104,"name":"Leamouth / Orchard Place","parentId":"490G000153","stationId":"490G000153","stopLetter":"I","topMostParentId":"490G000153"},{"icsId":"1000805","id":"490000805Z","lat":51.509809,"lon":0.000302,"name":"Leamouth Road","parentId":"490G000157","stationId":"490G000157","stopLetter":"BC","topMostParentId":"490G000157"},{"icsId":"1002033","id":"490002033Z","lat":51.508987,"lon":-0.002645,"name":"East India Station","parentId":"490G02033Y","stationId":"490G02033Y","stopLetter":"X","topMostParentId":"940GZZDLEIN","zone":"2+3"},{"icsId":"1000804","id":"490000804Z","lat":51.507803,"lon":-0.004902,"name":"Baffin Way","parentId":"490G000156","stationId":"490G000156","stopLetter":"BD","topMostParentId":"490G000156"},{"icsId":"1004005","id":"490004005S","lat":51.506207,"lon":-0.010476,"name":"Billingsgate Market","parentId":"490G00004005","stationId":"490G00004005","stopLetter":"->S","topMostParentId":"490G00004005"},{"icsId":"1017847","id":"490017847W","lat":51.504127,"lon":-0.014573,"name":"Churchill Place","parentId":"490G00017847","stationId":"490G00017847","stopLetter":"->W","topMostParentId":"490G00017847"},{"icsId":"1016729","id":"490000038J","lat":51.504329,"lon":-0.017475,"name":"Canada Square South","parentId":"490G00016729","stationId":"490G00016729","stopLetter":"J","topMostParentId":"490G00016729"},{"icsId":"1000038","id":"490000038G","lat":51.504613,"lon":-0.020459,"name":"Canary Wharf Station","parentId":"490G00038G","stationId":"490G00038G","stopLetter":"G","topMostParentId":"HUBCAW","zone":"2"},{"icsId":"1019777","id":"490014483E","lat":51.505457,"lon":-0.025178,"name":"West India Avenue","parentId":"490G000950","stationId":"490G000950","stopLetter":"E","topMostParentId":"490G000950"},{"icsId":"1014457","id":"490014457B","lat":51.505413,"lon":-0.026823,"name":"Westferry Circus / Canary Wharf Pier","parentId":"490G000825","stationId":"490G000825","stopLetter":"B","topMostParentId":"490G000825"},{"icsId":"1014459","id":"490014459B","lat":51.509163,"lon":-0.026848,"name":"Westferry Station","parentId":"490G000826","stationId":"490G000826","stopLetter":"WK","topMostParentId":"490G000826"},{"icsId":"1011878","id":"490011878N","lat":51.510109,"lon":-0.026922,"name":"Salter Street","parentId":"490G00011878","stationId":"490G00011878","stopLetter":"WL","topMostParentId":"490G00011878"},{"icsId":"1009159","id":"490014484N","lat":51.511083,"lon":-0.027644,"name":"Limehouse Police Station","parentId":"490G00009159","stationId":"490G00009159","stopLetter":"WM","topMostParentId":"490G00009159"},{"icsId":"1009160","id":"490009160W","lat":51.512236,"lon":-0.030996,"name":"Limehouse Town Hall","parentId":"490G00009160","stationId":"490G00009160","stopLetter":"LH","topMostParentId":"490G00009160"},{"icsId":"1009403","id":"490009403W","lat":51.512418,"lon":-0.034317,"name":"Lowell Street","parentId":"490G00009403","stationId":"490G00009403","stopLetter":"LJ","topMostParentId":"490G00009403"},{"icsId":"1001180","id":"490001180W","lat":51.512719,"lon":-0.040516,"name":"Limehouse Station","parentId":"490G01180W","stationId":"490G01180W","stopLetter":"LK","topMostParentId":"HUBLHS","zone":"2"},{"icsId":"1004657","id":"490004657S","lat":51.511359,"lon":-0.041986,"name":"Cable Street","parentId":"490G00004657","stationId":"490G00004657","stopLetter":"LS","topMostParentId":"490G00004657"},{"icsId":"1007010","id":"490007010W","lat":51.510043,"lon":-0.046092,"name":"Free Trade Wharf","parentId":"490G00007010","stationId":"490G00007010","stopLetter":"LT","topMostParentId":"490G00007010"},{"icsId":"1008736","id":"490008736S","lat":51.508975,"lon":-0.050576,"name":"King Edward Memorial Park","parentId":"490G00008736","stationId":"490G00008736","stopLetter":"->S","topMostParentId":"490G00008736"},{"icsId":"1011246","id":"490011246W","lat":51.507685,"lon":-0.050848,"name":"Shadwell Basin","parentId":"490G00011246","stationId":"490G00011246","stopLetter":"->S","topMostParentId":"490G00011246"},{"icsId":"1014211","id":"490014211S","lat":51.505395,"lon":-0.054303,"name":"Wapping Wall","parentId":"490G00014211","stationId":"490G00014211","stopLetter":"P","topMostParentId":"490G00014211"},{"icsId":"1000251","id":"490000251W","lat":51.504428,"lon":-0.056174,"name":"Wapping Station","parentId":"490G00251W","stationId":"490G00251W","stopLetter":"R","topMostParentId":"910GWAPPING"},{"icsId":"1014209","id":"490014209N","lat":51.505809,"lon":-0.05868,"name":"Wapping Health Centre","parentId":"490G00014209","stationId":"490G00014209","stopLetter":"H","topMostParentId":"490G00014209"},{"icsId":"1013687","id":"490013687K","lat":51.509338,"lon":-0.058862,"name":"Tobacco Dock","parentId":"490G000801","stationId":"490G000801","stopLetter":"K","topMostParentId":"490G000801"},{"icsId":"1000202","id":"490000202A","lat":51.510973,"lon":-0.055535,"name":"Shadwell Station","parentId":"490G00202A","stationId":"490G00202A","stopLetter":"A","topMostParentId":"HUBSDE","zone":"2"},{"icsId":"1012020","id":"490012020B","lat":51.51103,"lon":-0.058948,"name":"St George's Town Hall / Shadwell Stn","parentId":"490G000740","stationId":"490G000740","stopLetter":"B","topMostParentId":"490G000740"},{"icsId":"1004757","id":"490004757N","lat":51.51159,"lon":-0.061288,"name":"Chapman Street","parentId":"490G000440","stationId":"490G000440","topMostParentId":"490G000440"},{"icsId":"1005523","id":"490005523N","lat":51.513641,"lon":-0.061878,"name":"Commercial Road","parentId":"490G00005523","stationId":"490G00005523","stopLetter":"A","topMostParentId":"490G00005523"},{"icsId":"1013541","id":"490009278L","lat":51.516744,"lon":-0.062467,"name":"Royal London Hospital","parentId":"490G000793","stationId":"490G000793","stopLetter":"L","topMostParentId":"490G000793"},{"icsId":"1009989","id":"490009989N","lat":51.519993,"lon":-0.063728,"name":"Old Montague Street","parentId":"490G00009989","stationId":"490G00009989","stopLetter":"U","topMostParentId":"490G00009989"},{"icsId":"1006720","id":"490006720N","lat":51.522522,"lon":-0.064399,"name":"Fakruddin Street","parentId":"490G00006720","stationId":"490G00006720","stopLetter":"V","topMostParentId":"490G00006720"},{"icsId":"1014330","id":"490014330SF","lat":51.524976,"lon":-0.064338,"name":"Weavers Fields","parentId":"490G00014330","stationId":"490G00014330","stopLetter":"SF","topMostParentId":"490G00014330"},{"icsId":"1011087","id":"490011087E","lat":51.526654,"lon":-0.063531,"name":"Pollard Row","parentId":"490G00011087","stationId":"490G00011087","stopLetter":"SG","topMostParentId":"490G00011087"},{"icsId":"1014721","id":"490014721F","lat":51.527036,"lon":-0.060012,"name":"Wilmot Street","parentId":"490G00014721","stationId":"490G00014721","stopLetter":"F","topMostParentId":"490G00014721"},{"icsId":"1000022","id":"490000022D","lat":51.527466,"lon":-0.056649,"name":"Bethnal Green Station","parentId":"490G00022D","stationId":"490G00022D","stopLetter":"D","topMostParentId":"940GZZLUBLG","zone":"2"},{"icsId":"1015009","id":"490015009JX","lat":51.529633,"lon":-0.054985,"name":"York Hall","parentId":"490G00015009","stationId":"490G00015009","stopLetter":"JX","topMostParentId":"490G00015009"},{"icsId":"1013399","id":"490013399K","lat":51.530137,"lon":-0.053407,"name":"Peel Grove","parentId":"490G00013399","stationId":"490G00013399","stopLetter":"J","topMostParentId":"490G00013399"},{"icsId":"1003951","id":"490003951W","lat":51.53162,"lon":-0.050128,"name":"Bonner Road","parentId":"490G00003951","stationId":"490G00003951","stopLetter":"HA","topMostParentId":"490G00003951"}]}]}