{"direction":"inbound","lineId":"d8","lineName":"D8","mode":"bus","stopPointSequences":[{"stopPoint":[{"icsId":"1008507","id":"490008507N2","lat":51.49477,"lon":-0.013769,"name":"Crossharbour Asda","parentId":"490G00008507","stationId":"490G00008507","stopLetter":"CE","topMostParentId":"490G00008507"},{"icsId":"1002025","id":"490002025A","lat":51.496001,"lon":-0.014277,"name":"Crossharbour Station","parentId":"490G02025B","stationId":"490G02025B","stopLetter":"CF","topMostParentId":"940GZZDLCLA","zone":"2"},{"icsId":"1007777","id":"490007777N","lat":51.499505,"lon":-0.013563,"name":"Harbour Exchange Square","parentId":"490G00007777","stationId":"490G00007777","stopLetter":"S","topMostParentId":"490G00007777"},{"icsId":"1013217","id":"490013217W","lat":51.499885,"lon":-0.01421,"name":"South Quay Station","parentId":"490G00013217","stationId":"490G00013217","stopLetter":"T","topMostParentId":"490G00013217"},{"icsId":"1018873","id":"490002074W","lat":51.500616,"lon":-0.020186,"name":"Admirals Way","parentId":"490G000926","stationId":"490G000926","stopLetter":"U","topMostParentId":"490G000926"},{"icsId":"1020377","id":"490013428W","lat":51.501011,"lon":-0.022287,"name":"Mastmakers Road","parentId":"490G00020377","stationId":"490G00020377","stopLetter":"V","topMostParentId":"490G00020377"},{"icsId":"1002046","id":"490008097N","lat":51.502355,"lon":-0.024678,"name":"Heron Quays","parentId":"490G002046E","stationId":"490G002046E","stopLetter":"->N","topMostParentId":"940GZZDLHEQ","zone":"2"},{"icsId":"1014457","id":"490014457B","lat":51.505413,"lon":-0.026823,"name":"Westferry Circus / Canary Wharf Pier","parentId":"490G000825","stationId":"490G000825","stopLetter":"B","topMostParentId":"490G000825"},{"icsId":"1014483","id":"490014483C","lat":51.505609,"lon":-0.024566,"name":"West India Avenue","parentId":"490G000827","stationId":"490G000827","stopLetter":"C","topMostParentId":"490G000827"},{"icsId":"1000038","id":"490000038F","lat":51.505434,"lon":-0.02064,"name":"Canary Wharf Station","parentId":"490G00038F","stationId":"490G00038F","stopLetter":"F","topMostParentId":"HUBCAW","zone":"2"},{"icsId":"1016707","id":"490016707H","lat":51.505113,"lon":-0.01757,"name":"Canada Square North","parentId":"490G000918","stationId":"490G000918","stopLetter":"H","topMostParentId":"490G000918"},{"icsId":"1017847","id":"490017847E","lat":51.504405,"lon":-0.013984,"name":"Churchill Place","parentId":"490G00017847","stationId":"490G00017847","topMostParentId":"490G00017847"},{"icsId":"1004005","id":"490004005N","lat":51.506309,"lon":-0.010688,"name":"Billingsgate Market","parentId":"490G00004005","stationId":"490G00004005","stopLetter":"->N","topMostParentId":"490G00004005"},{"icsId":"1011111","id":"490011111W1","lat":51.508727,"lon":-0.010093,"name":"Poplar High Street / Blackwall","parentId":"490G00011111","stationId":"490G00011111","stopLetter":"S","topMostParentId":"490G00011111"},{"icsId":"1011107","id":"490011107H","lat":51.510995,"lon":-0.011276,"name":"Poplar / All Saints Church","parentId":"490G000708","stationId":"490G000708","stopLetter":"H","topMostParentId":"490G000708"},{"icsId":"1020196","id":"490003315F","lat":51.514591,"lon":-0.008526,"name":"Andrew Street","parentId":"490G00020196","stationId":"490G00020196","stopLetter":"Q","topMostParentId":"490G00020196"},{"icsId":"1012446","id":"490012446N","lat":51.518576,"lon":-0.010197,"name":"St Leonard's Wharf","parentId":"490G00012446","stationId":"490G00012446","topMostParentId":"490G00012446"},{"icsId":"1005679","id":"490005679N","lat":51.522222,"lon":-0.010456,"name":"Coventry Cross Estate","parentId":"490G00005679","stationId":"490G00005679","stopLetter":"BD","topMostParentId":"490G00005679"},{"icsId":"1000032","id":"490000032X","lat":51.524222,"lon":-0.011162,"name":"Bromley By Bow Station","parentId":"490G0032NB","stationId":"490G0032NB","stopLetter":"BE","topMostParentId":"940GZZLUBBB","zone":"2+3"},{"icsId":"1012766","id":"490012766U","lat":51.526759,"lon":-0.012853,"name":"Grace Street","parentId":"490G00012766","stationId":"490G00012766","stopLetter":"U","topMostParentId":"490G00012766"},{"icsId":"1019025","id":"490004421T","lat":51.52878,"lon":-0.013255,"name":"Bow Interchange","parentId":"490G00019025","stationId":"490G00019025","stopLetter":"T","topMostParentId":"490G00019025"},{"icsId":"1009695","id":"490009695MA","lat":51.531281,"lon":-0.0112,"name":"Marshgate Lane","parentId":"490G000661","stationId":"490G000661","stopLetter":"W","topMostParentId":"490G000661"},{"icsId":"1014249","id":"490003025E","lat":51.534656,"lon":-0.006554,"name":"Warton Road","parentId":"490G00014249","stationId":"490G00014249","stopLetter":"M","topMostParentId":"490G00014249"},{"icsId":"1014215","id":"490014215N","lat":51.536891,"lon":-0.003659,"name":"Stratford High St Stn  / Carpenters Rd","parentId":"490G00014215","stationId":"490G00014215","stopLetter":"N","topMostParentId":"490G00014215"},{"icsId":"1012904","id":"490012904N","lat":51.540883,"lon":-0.002605,"name":"Stratford Bus Station","parentId":"490G000773","stationId":"490G000773","stopLetter":"AP","topMostParentId":"HUBSRA"}]}]}