{"direction":"inbound","lineId":"e2","lineName":"E2","mode":"bus","stopPointSequences":[{"stopPoint":[{"icsId":"1007441","id":"490007441J","lat":51.527402,"lon":-0.350761,"name":"Clifton Road","parentId":"490G00007441","stationId":"490G00007441","stopLetter":"L","topMostParentId":"490G00007441"},{"icsId":"1007443","id":"490007443E","lat":51.527384,"lon":-0.341852,"name":"Greenford Avenue","parentId":"490G00007443","stationId":"490G00007443","stopLetter":"RS","topMostParentId":"490G00007443"},{"icsId":"1005880","id":"490005880E","lat":51.527724,"lon":-0.338596,"name":"Cuckoo Avenue","parentId":"490G00005880","stationId":"490G00005880","stopLetter":"RT","topMostParentId":"490G00005880"},{"icsId":"1007609","id":"490007609E","lat":51.528649,"lon":-0.331542,"name":"Gurnell Leisure Centre","parentId":"490G00007609","stationId":"490G00007609","stopLetter":"RW","topMostParentId":"490G00007609"},{"icsId":"1011787","id":"490011787S","lat":51.528,"lon":-0.326375,"name":"Ruislip Road East","parentId":"490G00011787","stationId":"490G00011787","stopLetter":"AA","topMostParentId":"490G00011787"},{"icsId":"1011949","id":"490011949S","lat":51.525046,"lon":-0.32412,"name":"Scotch Common","parentId":"490G00011949","stationId":"490G00011949","stopLetter":"AB","topMostParentId":"490G00011949"},{"icsId":"1008654","id":"490008654E","lat":51.525092,"lon":-0.319159,"name":"Kent Gardens","parentId":"490G00008654","stationId":"490G00008654","stopLetter":"SC","topMostParentId":"490G00008654"},{"icsId":"1011029","id":"490011029E","lat":51.526131,"lon":-0.313859,"name":"Pitshanger Library","parentId":"490G00011029","stationId":"490G00011029","stopLetter":"SM","topMostParentId":"490G00011029"},{"icsId":"1012634","id":"490012634E","lat":51.526922,"lon":-0.309462,"name":"St Barnabas Church","parentId":"490G00012634","stationId":"490G00012634","stopLetter":"SN","topMostParentId":"490G00012634"},{"icsId":"1005149","id":"490005149S","lat":51.523604,"lon":-0.308273,"name":"Fairlea Place","parentId":"490G00005149","stationId":"490G00005149","stopLetter":"SP","topMostParentId":"490G00005149"},{"icsId":"1010001","id":"490010001S","lat":51.521548,"lon":-0.306605,"name":"Montpelier Road","parentId":"490G00010001","stationId":"490G00010001","stopLetter":"SQ","topMostParentId":"490G00010001"},{"icsId":"1009636","id":"490009637S","lat":51.520255,"lon":-0.306105,"name":"Marchwood Crescent","parentId":"490G00009636","stationId":"490G00009636","stopLetter":"SR","topMostParentId":"490G00009636"},{"icsId":"1006279","id":"490006279S","lat":51.516769,"lon":-0.30635,"name":"Castlebar Road","parentId":"490G00006279","stationId":"490G00006279","stopLetter":"ST","topMostParentId":"490G00006279"},{"icsId":"1000062","id":"490000062F","lat":51.514696,"lon":-0.302247,"name":"Ealing Broadway Station","parentId":"490G00062G","stationId":"490G00062G","stopLetter":"F","topMostParentId":"HUBEAL","zone":"3"},{"icsId":"1006301","id":"490006301R","lat":51.512806,"lon":-0.307116,"name":"Ealing Town Hall","parentId":"490G00006301","stationId":"490G00006301","stopLetter":"R","topMostParentId":"490G00006301"},{"icsId":"1012763","id":"490012763W","lat":51.5121,"lon":-0.311769,"name":"St Leonards Road","parentId":"490G00012763","stationId":"490G00012763","stopLetter":"Q","topMostParentId":"490G00012763"},{"icsId":"1015251","id":"490015251P","lat":51.511309,"lon":-0.315588,"name":"Dane Road","parentId":"490G00015251","stationId":"490G00015251","stopLetter":"P","topMostParentId":"490G00015251"},{"icsId":"1013447","id":"490013447H","lat":51.510254,"lon":-0.319129,"name":"Dean Gardens / Mattock Lane","parentId":"490G00013447","stationId":"490G00013447","stopLetter":"H","topMostParentId":"490G00013447"},{"icsId":"1015589","id":"490015589S","lat":51.507779,"lon":-0.319609,"name":"Sherwood Close","parentId":"490G00015589","stationId":"490G00015589","stopLetter":"->S","topMostParentId":"490G00015589"},{"icsId":"1008110","id":"490008110S","lat":51.505202,"lon":-0.319271,"name":"Hessel Road","parentId":"490G00008110","stationId":"490G00008110","stopLetter":"->S","topMostParentId":"490G00008110"},{"icsId":"1007333","id":"490007333S","lat":51.5031,"lon":-0.316914,"name":"Graham Avenue","parentId":"490G00007333","stationId":"490G00007333","stopLetter":"A","topMostParentId":"490G00007333"},{"icsId":"1000159","id":"490000159A","lat":51.49879,"lon":-0.31422,"name":"Northfields Station","parentId":"490G00159X","stationId":"490G00159X","stopLetter":"B","topMostParentId":"940GZZLUNFD","zone":"3"},{"icsId":"1008591","id":"490008591S","lat":51.497769,"lon":-0.31322,"name":"Julien Road","parentId":"490G00008591","stationId":"490G00008591","stopLetter":"C","topMostParentId":"490G00008591"},{"icsId":"1006294","id":"490006294S","lat":51.494206,"lon":-0.313712,"name":"Ealing Park Gardens","parentId":"490G00006294","stationId":"490G00006294","stopLetter":"D","topMostParentId":"490G00006294"},{"icsId":"1012682","id":"490012682S","lat":51.490823,"lon":-0.309861,"name":"St Faith's Church","parentId":"490G00012682","stationId":"490G00012682","topMostParentId":"490G00012682"},{"icsId":"1010618","id":"490010618S2","lat":51.489156,"lon":-0.308338,"name":"Orchard Road","parentId":"490G00010618","stationId":"490G00010618","stopLetter":"SC","topMostParentId":"490G00010618"},{"icsId":"1014775","id":"490014768N","lat":51.486724,"lon":-0.308068,"name":"Boston Manor Road","parentId":"490G00014775","stationId":"490G00014775","stopLetter":"SD","topMostParentId":"490G00014775"},{"icsId":"1004294","id":"490004294J","lat":51.483947,"lon":-0.306327,"name":"Half Acre","parentId":"490G00004294","stationId":"490G00004294","stopLetter":"SE","topMostParentId":"490G00004294"},{"icsId":"1004292","id":"490004292G","lat":51.483054,"lon":-0.308002,"name":"Market Place","parentId":"490G00004292","stationId":"490G00004292","stopLetter":"BL","topMostParentId":"490G00004292"},{"icsId":"1005521","id":"490005521N","lat":51.482797,"lon":-0.31324,"name":"Commerce Road / Brentford Lock","parentId":"490G00005521","stationId":"490G00005521","topMostParentId":"490G00005521"},{"icsId":"1004288","id":"490004288N","lat":51.484356,"lon":-0.3154,"name":"Brentford Bus Depot","parentId":"490G00004288","stationId":"490G00004288","topMostParentId":"490G00004288"}]}]}