{"direction":"inbound","lineId":"e5","lineName":"E5","mode":"bus","stopPointSequences":[{"stopPoint":[{"icsId":"1017854","id":"490017854S","lat":51.534195,"lon":-0.319415,"name":"Perivale Tesco","parentId":"490G00017854","stationId":"490G00017854","stopLetter":"T","topMostParentId":"490G00017854"},{"icsId":"1013183","id":"490013183E2","lat":51.533896,"lon":-0.328048,"name":"Teignmouth Gardens","parentId":"490G00013183","stationId":"490G00013183","stopLetter":"PH","topMostParentId":"490G00013183"},{"icsId":"1015891","id":"490015891S","lat":51.534594,"lon":-0.332867,"name":"Medway Parade","parentId":"490G00015891","stationId":"490G00015891","stopLetter":"D","topMostParentId":"490G00015891"},{"icsId":"1010944","id":"490010944S","lat":51.533005,"lon":-0.329854,"name":"Perivale Lane","parentId":"490G00010944","stationId":"490G00010944","stopLetter":"PJ","topMostParentId":"490G00010944"},{"icsId":"1007609","id":"490007609W","lat":51.528272,"lon":-0.332824,"name":"Gurnell Leisure Centre","parentId":"490G00007609","stationId":"490G00007609","stopLetter":"RU","topMostParentId":"490G00007609"},{"icsId":"1005880","id":"490005880W","lat":51.52759,"lon":-0.337332,"name":"Cuckoo Avenue","parentId":"490G00005880","stationId":"490G00005880","stopLetter":"RV","topMostParentId":"490G00005880"},{"icsId":"1007443","id":"490007443W","lat":51.52732,"lon":-0.341163,"name":"Greenford Avenue","parentId":"490G00007443","stationId":"490G00007443","stopLetter":"RY","topMostParentId":"490G00007443"},{"icsId":"1007441","id":"490007441K","lat":51.527322,"lon":-0.350865,"name":"Clifton Road","parentId":"490G00007441","stationId":"490G00007441","stopLetter":"M","topMostParentId":"490G00007441"},{"icsId":"1004777","id":"490004777S","lat":51.525784,"lon":-0.352751,"name":"Cardinal Wiseman High School","parentId":"490G00004777","stationId":"490G00004777","stopLetter":"E","topMostParentId":"490G00004777"},{"icsId":"1007447","id":"490007447S","lat":51.52387,"lon":-0.353469,"name":"Greenford Depot","parentId":"490G00007447","stationId":"490G00007447","stopLetter":"F","topMostParentId":"490G00007447"},{"icsId":"1016670","id":"490016670S","lat":51.521747,"lon":-0.354107,"name":"Greenford Park","parentId":"490G00016670","stationId":"490G00016670","stopLetter":"G","topMostParentId":"490G00016670"},{"icsId":"1014766","id":"490014766S","lat":51.518815,"lon":-0.354703,"name":"Windmill Lane","parentId":"490G00014766","stationId":"490G00014766","stopLetter":"H","topMostParentId":"490G00014766"},{"icsId":"1007455","id":"490007455W","lat":51.517537,"lon":-0.355254,"name":"Redcroft Road","parentId":"490G00007455","stationId":"490G00007455","stopLetter":"K","topMostParentId":"490G00007455"},{"icsId":"1007278","id":"490007279W","lat":51.517902,"lon":-0.358801,"name":"Golf Links Estate","parentId":"490G00007278","stationId":"490G00007278","stopLetter":"L","topMostParentId":"490G00007278"},{"icsId":"1005976","id":"490005976S","lat":51.517821,"lon":-0.362046,"name":"Wallis Road","parentId":"490G00005976","stationId":"490G00005976","stopLetter":"M","topMostParentId":"490G00005976"},{"icsId":"1006132","id":"490006132W","lat":51.516358,"lon":-0.366106,"name":"Telford Road","parentId":"490G00006132","stationId":"490G00006132","stopLetter":"P","topMostParentId":"490G00006132"},{"icsId":"1013442","id":"490013442S","lat":51.5189,"lon":-0.374951,"name":"Denbigh Road","parentId":"490G00013442","stationId":"490G00013442","stopLetter":"G","topMostParentId":"490G00013442"},{"icsId":"1004807","id":"490004807S","lat":51.51644,"lon":-0.375283,"name":"Carlyle Avenue","parentId":"490G00004807","stationId":"490G00004807","stopLetter":"SD","topMostParentId":"490G00004807"},{"icsId":"1010317","id":"490010317D","lat":51.514201,"lon":-0.375262,"name":"North Avenue","parentId":"490G00010317","stationId":"490G00010317","stopLetter":"D","topMostParentId":"490G00010317"},{"icsId":"1003276","id":"490003276F","lat":51.512037,"lon":-0.375483,"name":"High Street / Southall Town Hall","parentId":"490G00003276","stationId":"490G00003276","stopLetter":"F","topMostParentId":"490G00003276"},{"icsId":"1012241","id":"490012241L","lat":51.510396,"lon":-0.375844,"name":"Southall Broadway","parentId":"490G00012241","stationId":"490G00012241","stopLetter":"L","topMostParentId":"490G00012241"},{"icsId":"1010754","id":"490010754Q","lat":51.5078,"lon":-0.377925,"name":"Park Avenue","parentId":"490G00010754","stationId":"490G00010754","stopLetter":"Q","topMostParentId":"490G00010754"},{"icsId":"1001255","id":"490001255O","lat":51.505322,"lon":-0.378892,"name":"Southall Station","parentId":"490G012554","stationId":"490G012554","stopLetter":"O","topMostParentId":"910GSTHALL"},{"icsId":"1013388","id":"490013388M","lat":51.502443,"lon":-0.381372,"name":"The Green","parentId":"490G00013388","stationId":"490G00013388","stopLetter":"M","topMostParentId":"490G00013388"},{"icsId":"1006772","id":"490006772W","lat":51.502256,"lon":-0.385427,"name":"Featherstone Road","parentId":"490G00006772","stationId":"490G00006772","stopLetter":"->W","topMostParentId":"490G00006772"},{"icsId":"1013052","id":"490013052E","lat":51.500465,"lon":-0.387968,"name":"Sussex Road","parentId":"490G00013052","stationId":"490G00013052","stopLetter":"->E","topMostParentId":"490G00013052"},{"icsId":"1014162","id":"490014162E","lat":51.500943,"lon":-0.384753,"name":"Waltham Road","parentId":"490G00014162","stationId":"490G00014162","stopLetter":"H","topMostParentId":"490G00014162"},{"icsId":"1013412","id":"490013412G","lat":51.50096,"lon":-0.382073,"name":"Havelock Road","parentId":"490G00013412","stationId":"490G00013412","stopLetter":"G","topMostParentId":"490G00013412"},{"icsId":"1009681","id":"490009681J","lat":51.500553,"lon":-0.378658,"name":"Marlow Road","parentId":"490G00009681","stationId":"490G00009681","stopLetter":"J","topMostParentId":"490G00009681"},{"icsId":"1008429","id":"490008429E","lat":51.500439,"lon":-0.372395,"name":"Hunt Road","parentId":"490G00008429","stationId":"490G00008429","stopLetter":"->E","topMostParentId":"490G00008429"},{"icsId":"1007906","id":"490007906W1","lat":51.502098,"lon":-0.371414,"name":"Tensing Road","parentId":"490G00007906","stationId":"490G00007906","stopLetter":"->E","topMostParentId":"490G00007906"},{"icsId":"1000443","id":"490014976E","lat":51.501623,"lon":-0.369572,"name":"Hillary Road","parentId":"490G000092","stationId":"490G000092","stopLetter":"->S","topMostParentId":"490G000092"},{"icsId":"1007521","id":"490007521Z","lat":51.500423,"lon":-0.368015,"name":"Gregory Road","parentId":"490G00007521","stationId":"490G00007521","stopLetter":"->E","topMostParentId":"490G00007521"},{"icsId":"1013814","id":"490013814E","lat":51.501458,"lon":-0.364837,"name":"Trubshaw Road","parentId":"490G00013814","stationId":"490G00013814","stopLetter":"->E","topMostParentId":"490G00013814"},{"icsId":"1013715","id":"490013715N","lat":51.50239,"lon":-0.365265,"name":"Mcnair Road","parentId":"490G00013715","stationId":"490G00013715","topMostParentId":"490G00013715"},{"icsId":"1013714","id":"490013714S","lat":51.503031,"lon":-0.364147,"name":"Toplocks Estate / Glade Lane","parentId":"490G00013714","stationId":"490G00013714","topMostParentId":"490G00013714"}]}]}