{"direction":"inbound","lineId":"e7","lineName":"E7","mode":"bus","stopPointSequences":[{"stopPoint":[{"icsId":"1000062","id":"490000062F","lat":51.514696,"lon":-0.302247,"name":"Ealing Broadway Station","parentId":"490G00062G","stationId":"490G00062G","stopLetter":"F","topMostParentId":"HUBEAL","zone":"3"},{"icsId":"1006301","id":"490006301R","lat":51.512806,"lon":-0.307116,"name":"Ealing Town Hall","parentId":"490G00006301","stationId":"490G00006301","stopLetter":"R","topMostParentId":"490G00006301"},{"icsId":"1012763","id":"490012763W","lat":51.5121,"lon":-0.311769,"name":"St Leonards Road","parentId":"490G00012763","stationId":"490G00012763","stopLetter":"Q","topMostParentId":"490G00012763"},{"icsId":"1015251","id":"490015251P","lat":51.511309,"lon":-0.315588,"name":"Dane Road","parentId":"490G00015251","stationId":"490G00015251","stopLetter":"P","topMostParentId":"490G00015251"},{"icsId":"1006194","id":"490006194E","lat":51.512096,"lon":-0.319637,"name":"Drayton Green Road","parentId":"490G00006194","stationId":"490G00006194","stopLetter":"E","topMostParentId":"490G00006194"},{"icsId":"1001327","id":"490001327A","lat":51.514296,"lon":-0.320709,"name":"West Ealing Station","parentId":"490G01327B","stationId":"490G01327B","stopLetter":"A","topMostParentId":"910GWEALING"},{"icsId":"1013055","id":"490003372N","lat":51.516619,"lon":-0.322166,"name":"Sutherland Avenue","parentId":"490G00013055","stationId":"490G00013055","stopLetter":"DU","topMostParentId":"490G00013055"},{"icsId":"1016802","id":"490016802N","lat":51.519238,"lon":-0.322964,"name":"St Stephen's Avenue","parentId":"490G00016802","stationId":"490G00016802","stopLetter":"DV","topMostParentId":"490G00016802"},{"icsId":"1005399","id":"490005399N","lat":51.521728,"lon":-0.323535,"name":"Cleveland Road","parentId":"490G00005399","stationId":"490G00005399","stopLetter":"AG","topMostParentId":"490G00005399"},{"icsId":"1011949","id":"490011949N","lat":51.525269,"lon":-0.32463,"name":"Scotch Common","parentId":"490G00011949","stationId":"490G00011949","stopLetter":"AH","topMostParentId":"490G00011949"},{"icsId":"1011787","id":"490011787N","lat":51.527397,"lon":-0.326297,"name":"Ruislip Road East","parentId":"490G00011787","stationId":"490G00011787","stopLetter":"AJ","topMostParentId":"490G00011787"},{"icsId":"1007609","id":"490007609W","lat":51.528272,"lon":-0.332824,"name":"Gurnell Leisure Centre","parentId":"490G00007609","stationId":"490G00007609","stopLetter":"RU","topMostParentId":"490G00007609"},{"icsId":"1005880","id":"490005880W","lat":51.52759,"lon":-0.337332,"name":"Cuckoo Avenue","parentId":"490G00005880","stationId":"490G00005880","stopLetter":"RV","topMostParentId":"490G00005880"},{"icsId":"1007443","id":"490007443W","lat":51.52732,"lon":-0.341163,"name":"Greenford Avenue","parentId":"490G00007443","stationId":"490G00007443","stopLetter":"RY","topMostParentId":"490G00007443"},{"icsId":"1007441","id":"490007441K","lat":51.527322,"lon":-0.350865,"name":"Clifton Road","parentId":"490G00007441","stationId":"490G00007441","stopLetter":"M","topMostParentId":"490G00007441"},{"icsId":"1007446","id":"490007446B","lat":51.527848,"lon":-0.354363,"name":"Greenford Broadway","parentId":"490G00007446","stationId":"490G00007446","stopLetter":"N","topMostParentId":"490G00007446"},{"icsId":"1010897","id":"490010897E2","lat":51.528698,"lon":-0.359825,"name":"Pembroke Road","parentId":"490G00010897","stationId":"490G00010897","stopLetter":"R","topMostParentId":"490G00010897"},{"icsId":"1006370","id":"490006370W","lat":51.530805,"lon":-0.364565,"name":"Beechwood Avenue","parentId":"490G00006370","stationId":"490G00006370","stopLetter":"EL","topMostParentId":"490G00006370"},{"icsId":"1007457","id":"490007457W","lat":51.532445,"lon":-0.369985,"name":"Greenford High School","parentId":"490G00007457","stationId":"490G00007457","stopLetter":"EM","topMostParentId":"490G00007457"},{"icsId":"1003116","id":"490003116S","lat":51.532655,"lon":-0.372774,"name":"Adrienne Avenue","parentId":"490G00003116","stationId":"490G00003116","stopLetter":"WS","topMostParentId":"490G00003116"},{"icsId":"1004373","id":"490004373W","lat":51.53268,"lon":-0.379809,"name":"Broadmead Road","parentId":"490G00004373","stationId":"490G00004373","stopLetter":"WT","topMostParentId":"490G00004373"},{"icsId":"1008596","id":"490008596W","lat":51.533537,"lon":-0.386498,"name":"Wayfarer Road","parentId":"490G00008596","stationId":"490G00008596","stopLetter":"->W","topMostParentId":"490G00008596"},{"icsId":"1015551","id":"490015551W1","lat":51.536885,"lon":-0.391959,"name":"Yeading Lane","parentId":"490G00015551","stationId":"490G00015551","stopLetter":"S","topMostParentId":"490G00015551"},{"icsId":"1015409","id":"490010582N","lat":51.53946,"lon":-0.3968,"name":"Old Ruislip Road","parentId":"490G00015409","stationId":"490G00015409","stopLetter":"M","topMostParentId":"490G00015409"},{"icsId":"1007881","id":"490007881N","lat":51.544846,"lon":-0.398068,"name":"Harvey Road","parentId":"490G00007881","stationId":"490G00007881","stopLetter":"->N","topMostParentId":"490G00007881"},{"icsId":"1011084","id":"490011084N","lat":51.550125,"lon":-0.400767,"name":"Polish War Memorial","parentId":"490G00011084","stationId":"490G00011084","stopLetter":"E","topMostParentId":"490G00011084"},{"icsId":"1012614","id":"490012605D","lat":51.553402,"lon":-0.403695,"name":"Station Approach","parentId":"490G00012614","stationId":"490G00012614","stopLetter":"D","topMostParentId":"490G00012614"},{"icsId":"1011380","id":"490011380N","lat":51.557714,"lon":-0.40806,"name":"R A F Northolt","parentId":"490G00011380","stationId":"490G00011380","stopLetter":"G","topMostParentId":"490G00011380"},{"icsId":"1000198","id":"490000198B","lat":51.56051,"lon":-0.411338,"name":"Ruislip Gardens Station","parentId":"490G00198B","stationId":"490G00198B","stopLetter":"B","topMostParentId":"940GZZLURSG","zone":"5"},{"icsId":"1003920","id":"490003920N","lat":51.563311,"lon":-0.414284,"name":"Berkeley Close","parentId":"490G00003920","stationId":"490G00003920","stopLetter":"C","topMostParentId":"490G00003920"},{"icsId":"1010348","id":"490010348N","lat":51.565906,"lon":-0.417325,"name":"Northdown Close","parentId":"490G00010348","stationId":"490G00010348","stopLetter":"E","topMostParentId":"490G00010348"},{"icsId":"1007555","id":"490007555N","lat":51.568358,"lon":-0.421136,"name":"Grosvenor Vale","parentId":"490G00007555","stationId":"490G00007555","stopLetter":"->N","topMostParentId":"490G00007555"},{"icsId":"1011785","id":"490011785N","lat":51.568887,"lon":-0.423065,"name":"Ruislip Rugby Football Club","parentId":"490G00011785","stationId":"490G00011785","stopLetter":"K","topMostParentId":"490G00011785"}]},{"stopPoint":[{"icsId":"1011785","id":"490011785N","lat":51.568887,"lon":-0.423065,"name":"Ruislip Rugby Football Club","parentId":"490G00011785","stationId":"490G00011785","stopLetter":"K","topMostParentId":"490G00011785"},{"icsId":"1014871","id":"490014871W","lat":51.571004,"lon":-0.426657,"name":"Chichester Avenue","parentId":"490G00014871","stationId":"490G00014871","stopLetter":"W","topMostParentId":"490G00014871"},{"icsId":"1013488","id":"490013488E","lat":51.572697,"lon":-0.430885,"name":"Church Avenue","parentId":"490G00013488","stationId":"490G00013488","stopLetter":"P","topMostParentId":"490G00013488"},{"icsId":"1008454","id":"490011782E","lat":51.573926,"lon":-0.423973,"name":"Midcroft","parentId":"490G00008454","stationId":"490G00008454","stopLetter":"E","topMostParentId":"490G00008454"},{"icsId":"1011781","id":"490011781D","lat":51.572922,"lon":-0.422825,"name":"Brickwall Lane","parentId":"490G00011781","stationId":"490G00011781","stopLetter":"D","topMostParentId":"490G00011781"},{"icsId":"1000197","id":"490000197Z1","lat":51.572056,"lon":-0.421325,"name":"Ruislip Station","parentId":"490G00197Z2","stationId":"490G00197Z2","stopLetter":"Z1","topMostParentId":"940GZZLURSP","zone":"6"}]}]}