{"direction":"inbound","lineId":"e8","lineName":"E8","mode":"bus","stopPointSequences":[{"stopPoint":[{"icsId":"1000062","id":"490000062F","lat":51.514696,"lon":-0.302247,"name":"Ealing Broadway Station","parentId":"490G00062G","stationId":"490G00062G","stopLetter":"F","topMostParentId":"HUBEAL","zone":"3"},{"icsId":"1006301","id":"490006301R","lat":51.512806,"lon":-0.307116,"name":"Ealing Town Hall","parentId":"490G00006301","stationId":"490G00006301","stopLetter":"R","topMostParentId":"490G00006301"},{"icsId":"1012763","id":"490012763W","lat":51.5121,"lon":-0.311769,"name":"St Leonards Road","parentId":"490G00012763","stationId":"490G00012763","stopLetter":"Q","topMostParentId":"490G00012763"},{"icsId":"1015251","id":"490015251P","lat":51.511309,"lon":-0.315588,"name":"Dane Road","parentId":"490G00015251","stationId":"490G00015251","stopLetter":"P","topMostParentId":"490G00015251"},{"icsId":"1010362","id":"490010362L","lat":51.510999,"lon":-0.318438,"name":"Northfield Avenue","parentId":"490G00010362","stationId":"490G00010362","stopLetter":"L","topMostParentId":"490G00010362"},{"icsId":"1014430","id":"490014430V","lat":51.509976,"lon":-0.324846,"name":"West Ealing Broadway","parentId":"490G00014430","stationId":"490G00014430","stopLetter":"V","topMostParentId":"490G00014430"},{"icsId":"1007553","id":"490007549W1","lat":51.509421,"lon":-0.330717,"name":"Michael Gaynor Close","parentId":"490G00007553","stationId":"490G00007553","topMostParentId":"490G00007553"},{"icsId":"1005297","id":"490005297E","lat":51.508825,"lon":-0.333693,"name":"Church Road","parentId":"490G00005297","stationId":"490G00005297","stopLetter":"E","topMostParentId":"490G00005297"},{"icsId":"1007760","id":"490007760J","lat":51.508728,"lon":-0.336996,"name":"Hanwell Broadway","parentId":"490G00007760","stationId":"490G00007760","stopLetter":"J","topMostParentId":"490G00007760"},{"icsId":"1007763","id":"490007760K","lat":51.508444,"lon":-0.337857,"name":"Jessamine Road","parentId":"490G00007763","stationId":"490G00007763","stopLetter":"K","topMostParentId":"490G00007763"},{"icsId":"1011772","id":"490011772Z","lat":51.505581,"lon":-0.336361,"name":"Rosebank Road","parentId":"490G00011772","stationId":"490G00011772","stopLetter":"Z","topMostParentId":"490G00011772"},{"icsId":"1005899","id":"490005899S","lat":51.503283,"lon":-0.332238,"name":"Cumberland Road","parentId":"490G00005899","stationId":"490G00005899","stopLetter":"J","topMostParentId":"490G00005899"},{"icsId":"1006549","id":"490006549S","lat":51.502246,"lon":-0.330792,"name":"Elthorne Park Road","parentId":"490G00006549","stationId":"490G00006549","stopLetter":"K","topMostParentId":"490G00006549"},{"icsId":"1005242","id":"490005242S","lat":51.50041,"lon":-0.328755,"name":"Christopher Avenue","parentId":"490G00005242","stationId":"490G00005242","stopLetter":"L","topMostParentId":"490G00005242"},{"icsId":"1004168","id":"490004168S","lat":51.498207,"lon":-0.326891,"name":"Haslemere Avenue","parentId":"490G00004168","stationId":"490G00004168","stopLetter":"M","topMostParentId":"490G00004168"},{"icsId":"1000027","id":"490000027B","lat":51.495767,"lon":-0.324142,"name":"Boston Manor Station","parentId":"490G00027A","stationId":"490G00027A","stopLetter":"N","topMostParentId":"940GZZLUBOS","zone":"4"},{"icsId":"1004167","id":"490004167S","lat":51.494237,"lon":-0.32028,"name":"Swyncombe Avenue","parentId":"490G00004167","stationId":"490G00004167","stopLetter":"P","topMostParentId":"490G00004167"},{"icsId":"1013524","id":"490013524S","lat":51.492285,"lon":-0.317687,"name":"The Ride","parentId":"490G00013524","stationId":"490G00013524","stopLetter":"R","topMostParentId":"490G00013524"},{"icsId":"1009593","id":"490009593S","lat":51.490571,"lon":-0.316064,"name":"Manor Vale","parentId":"490G00009593","stationId":"490G00009593","topMostParentId":"490G00009593"},{"icsId":"1007424","id":"490007424S","lat":51.488606,"lon":-0.313919,"name":"Great West Road","parentId":"490G00007424","stationId":"490G00007424","stopLetter":"SZ","topMostParentId":"490G00007424"},{"icsId":"1001032","id":"490005314T","lat":51.488025,"lon":-0.312255,"name":"Brentford Station","parentId":"490G05314T","stationId":"490G05314T","stopLetter":"SM","topMostParentId":"910GBNTFORD"},{"icsId":"1014768","id":"490014768L","lat":51.486705,"lon":-0.308616,"name":"Windmill Road","parentId":"490G000839","stationId":"490G000839","stopLetter":"SN","topMostParentId":"490G000839"},{"icsId":"1004294","id":"490004294J","lat":51.483947,"lon":-0.306327,"name":"Half Acre","parentId":"490G00004294","stationId":"490G00004294","stopLetter":"SE","topMostParentId":"490G00004294"},{"icsId":"1004292","id":"490004292G","lat":51.483054,"lon":-0.308002,"name":"Market Place","parentId":"490G00004292","stationId":"490G00004292","stopLetter":"BL","topMostParentId":"490G00004292"},{"icsId":"1004296","id":"490004296W","lat":51.481697,"lon":-0.314303,"name":"Brent Lea","parentId":"490G00004296","stationId":"490G00004296","stopLetter":"->W","topMostParentId":"490G00004296"},{"icsId":"1013141","id":"490013141W","lat":51.480117,"lon":-0.318278,"name":"Syon Lane","parentId":"490G00013141","stationId":"490G00013141","stopLetter":"W","topMostParentId":"490G00013141"},{"icsId":"1015029","id":"490015029W","lat":51.478794,"lon":-0.322575,"name":"Busch Corner","parentId":"490G00015029","stationId":"490G00015029","stopLetter":"V","topMostParentId":"490G00015029"},{"icsId":"1004635","id":"490004635S","lat":51.478219,"lon":-0.324526,"name":"The Green School","parentId":"490G00004635","stationId":"490G00004635","stopLetter":"S","topMostParentId":"490G00004635"},{"icsId":"1007873","id":"490007873W","lat":51.477036,"lon":-0.328544,"name":"Turnpike Way","parentId":"490G00007873","stationId":"490G00007873","stopLetter":"M","topMostParentId":"490G00007873"},{"icsId":"1014874","id":"490014874K","lat":51.476246,"lon":-0.331165,"name":"Wood Lane","parentId":"490G00014874","stationId":"490G00014874","stopLetter":"D","topMostParentId":"490G00014874"},{"icsId":"1009185","id":"490009185W","lat":51.475329,"lon":-0.334323,"name":"Linkfield Road","parentId":"490G00009185","stationId":"490G00009185","stopLetter":"E","topMostParentId":"490G00009185"},{"icsId":"1001158","id":"490001158A","lat":51.475124,"lon":-0.337614,"name":"Isleworth Station","parentId":"490G01158B","stationId":"490G01158B","stopLetter":"F","topMostParentId":"910GISLEWTH"},{"icsId":"1008510","id":"490008510W","lat":51.474816,"lon":-0.342549,"name":"West Thames College","parentId":"490G00008510","stationId":"490G00008510","stopLetter":"G","topMostParentId":"490G00008510"},{"icsId":"1012599","id":"490012599W","lat":51.472633,"lon":-0.347164,"name":"Star Road","parentId":"490G00012599","stationId":"490G00012599","stopLetter":"H","topMostParentId":"490G00012599"},{"icsId":"1004327","id":"490004327W1","lat":51.471599,"lon":-0.350384,"name":"Bridge Road","parentId":"490G00004327","stationId":"490G00004327","stopLetter":"->W","topMostParentId":"490G00004327"},{"icsId":"1008392","id":"490008392G","lat":51.470827,"lon":-0.353651,"name":"Hounslow Bus Station","parentId":"490G000601","stationId":"490G000601","stopLetter":"G","topMostParentId":"490G000601"},{"icsId":"1007766","id":"490007766L","lat":51.469015,"lon":-0.358468,"name":"Fairfields Road","parentId":"490G00007766","stationId":"490G00007766","stopLetter":"L","topMostParentId":"490G00007766"},{"icsId":"1013777","id":"490013777R","lat":51.466914,"lon":-0.363841,"name":"Treaty Centre","parentId":"490G00013777","stationId":"490G00013777","stopLetter":"T","topMostParentId":"490G00013777"},{"icsId":"1008391","id":"490008391X","lat":51.468179,"lon":-0.366891,"name":"Bell Corner / Hounslow Civic Centre","parentId":"490G000600","stationId":"490G000600","stopLetter":"X","topMostParentId":"490G000600"}]}]}