{"direction":"inbound","lineId":"h14","lineName":"H14","mode":"bus","stopPointSequences":[{"stopPoint":[{"icsId":"1010425","id":"490010425HP","lat":51.575775,"lon":-0.324405,"name":"Northwick Park Hospital","parentId":"490G00010425","stationId":"490G00010425","stopLetter":"HP","topMostParentId":"490G00010425"},{"icsId":"1010958","id":"490010958N","lat":51.577653,"lon":-0.333774,"name":"Tyburn Lane","parentId":"490G000702","stationId":"490G000702","stopLetter":"G","topMostParentId":"490G000702"},{"icsId":"1015347","id":"490015347L","lat":51.579347,"lon":-0.334044,"name":"Harrow Town Centre","parentId":"490G00015347","stationId":"490G00015347","stopLetter":"L","topMostParentId":"490G00015347"},{"icsId":"1007845","id":"490007845D","lat":51.580068,"lon":-0.337958,"name":"Harrow Bus Station","parentId":"490G000574","stationId":"490G000574","stopLetter":"D","topMostParentId":"490G000574"},{"icsId":"1008254","id":"490008254N","lat":51.584038,"lon":-0.341422,"name":"Hindes Road","parentId":"490G00008254","stationId":"490G00008254","stopLetter":"->N","topMostParentId":"490G00008254"},{"icsId":"1005907","id":"490005907N","lat":51.588513,"lon":-0.343727,"name":"Cunningham Park","parentId":"490G00005907","stationId":"490G00005907","topMostParentId":"490G00005907"},{"icsId":"1013383","id":"490013383N","lat":51.591998,"lon":-0.346011,"name":"Headstone Drive","parentId":"490G00013383","stationId":"490G00013383","stopLetter":"->N","topMostParentId":"490G00013383"},{"icsId":"1008888","id":"490008888N","lat":51.596639,"lon":-0.349265,"name":"Harrow View West","parentId":"490G00008888","stationId":"490G00008888","stopLetter":"->N","topMostParentId":"490G00008888"},{"icsId":"1011021","id":"490011021N","lat":51.597598,"lon":-0.349735,"name":"Pinner Park Avenue","parentId":"490G00011021","stationId":"490G00011021","stopLetter":"->N","topMostParentId":"490G00011021"},{"icsId":"1009301","id":"490009301N","lat":51.603024,"lon":-0.352528,"name":"Long Elmes","parentId":"490G00009301","stationId":"490G00009301","stopLetter":"J","topMostParentId":"490G00009301"},{"icsId":"1007980","id":"490007980B","lat":51.603785,"lon":-0.35676,"name":"Headstone Lane","parentId":"490G000582","stationId":"490G000582","stopLetter":"B","topMostParentId":"490G000582"},{"icsId":"1010120","id":"490010120N","lat":51.605908,"lon":-0.358763,"name":"Mullion Close","parentId":"490G00010120","stationId":"490G00010120","stopLetter":"S","topMostParentId":"490G00010120"},{"icsId":"1007981","id":"490007981W","lat":51.608461,"lon":-0.360649,"name":"Rowlands Avenue","parentId":"490G00007981","stationId":"490G00007981","stopLetter":"T","topMostParentId":"490G00007981"},{"icsId":"1007842","id":"490007842W","lat":51.608799,"lon":-0.363612,"name":"Harrow Arts Centre","parentId":"490G00007842","stationId":"490G00007842","stopLetter":"U","topMostParentId":"490G00007842"},{"icsId":"1001142","id":"490001142A","lat":51.608727,"lon":-0.37007,"name":"Hatch End Station","parentId":"490G01142A","stationId":"490G01142A","stopLetter":"V","topMostParentId":"910GHTCHEND"},{"icsId":"1007896","id":"490007896W","lat":51.607387,"lon":-0.375259,"name":"Hatch End / Telephone Exchange","parentId":"490G00007896","stationId":"490G00007896","stopLetter":"->W","topMostParentId":"490G00007896"},{"icsId":"1012953","id":"490012953W1","lat":51.606028,"lon":-0.377748,"name":"St Thomas' Drive","parentId":"490G00012953","stationId":"490G00012953","topMostParentId":"490G00012953"}]}]}