{"direction":"inbound","lineId":"h28","lineName":"H28","mode":"bus","stopPointSequences":[{"stopPoint":[{"icsId":"1013200","id":"490013200E","lat":51.48493,"lon":-0.330329,"name":"Tesco Osterley","parentId":"490G00013200","stationId":"490G00013200","stopLetter":"L","topMostParentId":"490G00013200"},{"icsId":"1001291","id":"490001291S","lat":51.481847,"lon":-0.324177,"name":"Syon Lane Station","parentId":"490G01291S","stationId":"490G01291S","stopLetter":"A","topMostParentId":"910GSYONLA"},{"icsId":"1003263","id":"490003263S","lat":51.480819,"lon":-0.321406,"name":"Marlborough Road","parentId":"490G00003263","stationId":"490G00003263","stopLetter":"Z","topMostParentId":"490G00003263"},{"icsId":"1015029","id":"490015029W","lat":51.478794,"lon":-0.322575,"name":"Busch Corner","parentId":"490G00015029","stationId":"490G00015029","stopLetter":"V","topMostParentId":"490G00015029"},{"icsId":"1013181","id":"490013181S","lat":51.476387,"lon":-0.32468,"name":"Teesdale Gardens","parentId":"490G00013181","stationId":"490G00013181","stopLetter":"TE","topMostParentId":"490G00013181"},{"icsId":"1014503","id":"490014493S","lat":51.474371,"lon":-0.327057,"name":"Twickenham Rd / West Middlesex Hospital","parentId":"490G00014503","stationId":"490G00014503","stopLetter":"HB","topMostParentId":"490G00014503"},{"icsId":"1016403","id":"490016404N","lat":51.474652,"lon":-0.32974,"name":"Alton Close","parentId":"490G00016403","stationId":"490G00016403","stopLetter":"AA","topMostParentId":"490G00016403"},{"icsId":"1016402","id":"490016402N","lat":51.47561,"lon":-0.331318,"name":"London Road","parentId":"490G00016402","stationId":"490G00016402","stopLetter":"U","topMostParentId":"490G00016402"},{"icsId":"1016405","id":"490016405N","lat":51.477577,"lon":-0.333737,"name":"Parkwood Road","parentId":"490G00016405","stationId":"490G00016405","stopLetter":"V","topMostParentId":"490G00016405"},{"icsId":"1010132","id":"490010132N2","lat":51.479495,"lon":-0.335179,"name":"Musgrave Road","parentId":"490G00010132","stationId":"490G00010132","topMostParentId":"490G00010132"},{"icsId":"1016401","id":"490016401N","lat":51.48119,"lon":-0.336082,"name":"Borough Road","parentId":"490G00016401","stationId":"490G00016401","stopLetter":"W","topMostParentId":"490G00016401"},{"icsId":"1016400","id":"490016400N","lat":51.483492,"lon":-0.337353,"name":"Braybourne Drive / Great West Road","parentId":"490G00016400","stationId":"490G00016400","stopLetter":"G","topMostParentId":"490G00016400"},{"icsId":"1016399","id":"490016399N","lat":51.485131,"lon":-0.338791,"name":"Conquest Club","parentId":"490G00016399","stationId":"490G00016399","stopLetter":"->N","topMostParentId":"490G00016399"},{"icsId":"1016406","id":"490016406N","lat":51.486377,"lon":-0.339826,"name":"Wood Lane / Railway Bridge","parentId":"490G00016406","stationId":"490G00016406","stopLetter":"->N","topMostParentId":"490G00016406"},{"icsId":"1016398","id":"490016398W","lat":51.487305,"lon":-0.341204,"name":"Jersey Road","parentId":"490G00016398","stationId":"490G00016398","stopLetter":"->W","topMostParentId":"490G00016398"},{"icsId":"1016397","id":"490016397S","lat":51.484484,"lon":-0.34266,"name":"Ridgeway Road","parentId":"490G00016397","stationId":"490G00016397","stopLetter":"->S","topMostParentId":"490G00016397"},{"icsId":"1016396","id":"490016396W","lat":51.483173,"lon":-0.343427,"name":"Jersey Gardens","parentId":"490G00016396","stationId":"490G00016396","stopLetter":"H","topMostParentId":"490G00016396"},{"icsId":"1016395","id":"490016395W","lat":51.482601,"lon":-0.345565,"name":"Osterley Library","parentId":"490G00016395","stationId":"490G00016395","stopLetter":"J","topMostParentId":"490G00016395"},{"icsId":"1016394","id":"490016394S","lat":51.481235,"lon":-0.346911,"name":"Thornbury Avenue / Great West Road","parentId":"490G00016394","stationId":"490G00016394","stopLetter":"K","topMostParentId":"490G00016394"},{"icsId":"1016393","id":"490016393S2","lat":51.477877,"lon":-0.345347,"name":"Eversley Crescent","parentId":"490G00016393","stationId":"490G00016393","topMostParentId":"490G00016393"},{"icsId":"1016392","id":"490016392W","lat":51.475989,"lon":-0.346654,"name":"Witham Road","parentId":"490G00016392","stationId":"490G00016392","stopLetter":"X","topMostParentId":"490G00016392"},{"icsId":"1016391","id":"490016391W","lat":51.476065,"lon":-0.350122,"name":"Worton Gardens","parentId":"490G00016391","stationId":"490G00016391","stopLetter":"->W","topMostParentId":"490G00016391"},{"icsId":"1016654","id":"490016654W","lat":51.476046,"lon":-0.35329,"name":"Worton Way","parentId":"490G00016654","stationId":"490G00016654","topMostParentId":"490G00016654"},{"icsId":"1012406","id":"490012406S","lat":51.476688,"lon":-0.360626,"name":"Kings Avenue","parentId":"490G00012406","stationId":"490G00012406","stopLetter":"->S","topMostParentId":"490G00012406"},{"icsId":"1000117","id":"490000117D","lat":51.473464,"lon":-0.357041,"name":"Hounslow East Station","parentId":"490G00117E","stationId":"490G00117E","stopLetter":"DD","topMostParentId":"940GZZLUHWE","zone":"4"},{"icsId":"1008392","id":"490015241S","lat":51.47119,"lon":-0.355193,"name":"Hounslow Bus Station","parentId":"490G000601","stationId":"490G000601","stopLetter":"D","topMostParentId":"490G000601"},{"icsId":"1008397","id":"490007766M","lat":51.468267,"lon":-0.360308,"name":"Douglas Road","parentId":"490G00008397","stationId":"490G00008397","stopLetter":"M","topMostParentId":"490G00008397"},{"icsId":"1007573","id":"490007573N","lat":51.467084,"lon":-0.362482,"name":"Grove Road","parentId":"490G00007573","stationId":"490G00007573","stopLetter":"N","topMostParentId":"490G00007573"},{"icsId":"1008126","id":"490008126E","lat":51.462931,"lon":-0.36646,"name":"Hibernia Road","parentId":"490G00008126","stationId":"490G00008126","stopLetter":"SN","topMostParentId":"490G00008126"},{"icsId":"1005798","id":"490005798S","lat":51.459987,"lon":-0.369458,"name":"Cromwell Road","parentId":"490G00005798","stationId":"490G00005798","stopLetter":"SP","topMostParentId":"490G00005798"},{"icsId":"1010173","id":"490010173S","lat":51.457868,"lon":-0.371621,"name":"Nelson Road","parentId":"490G00010173","stationId":"490G00010173","stopLetter":"A","topMostParentId":"490G00010173"},{"icsId":"1007371","id":"490007371N","lat":51.459553,"lon":-0.37444,"name":"Granville Avenue","parentId":"490G00007371","stationId":"490G00007371","stopLetter":"->N","topMostParentId":"490G00007371"},{"icsId":"1016807","id":"490016507N","lat":51.462285,"lon":-0.3763,"name":"Marshall Close","parentId":"490G00016807","stationId":"490G00016807","stopLetter":"->N","topMostParentId":"490G00016807"},{"icsId":"1019052","id":"490003961N1","lat":51.464674,"lon":-0.378001,"name":"Staines Road","parentId":"490G00019052","stationId":"490G00019052","stopLetter":"H","topMostParentId":"490G00019052"},{"icsId":"1012483","id":"490012483N2","lat":51.466342,"lon":-0.378374,"name":"The Greenway","parentId":"490G00012483","stationId":"490G00012483","stopLetter":"J","topMostParentId":"490G00012483"},{"icsId":"1003679","id":"490003679N1","lat":51.46967,"lon":-0.379076,"name":"Bath Road","parentId":"490G00003679","stationId":"490G00003679","stopLetter":"S","topMostParentId":"490G00003679"},{"icsId":"1006031","id":"490006031N","lat":51.471261,"lon":-0.378991,"name":"Dene Avenue","parentId":"490G00006031","stationId":"490G00006031","stopLetter":"T","topMostParentId":"490G00006031"},{"icsId":"1011370","id":"490011370N","lat":51.475143,"lon":-0.37557,"name":"Queenswood Avenue","parentId":"490G00011370","stationId":"490G00011370","stopLetter":"->N","topMostParentId":"490G00011370"},{"icsId":"1007426","id":"490007426N","lat":51.478614,"lon":-0.372999,"name":"Willow Gardens / Great West Road","parentId":"490G00007426","stationId":"490G00007426","stopLetter":"CK","topMostParentId":"490G00007426"},{"icsId":"1013946","id":"490013946N","lat":51.480018,"lon":-0.372387,"name":"Upper Sutton Lane","parentId":"490G00013946","stationId":"490G00013946","stopLetter":"CL","topMostParentId":"490G00013946"},{"icsId":"1016389","id":"490016389W","lat":51.480693,"lon":-0.37569,"name":"Sutton Way","parentId":"490G00016389","stationId":"490G00016389","stopLetter":"CM","topMostParentId":"490G00016389"},{"icsId":"1016388","id":"490016388W","lat":51.481185,"lon":-0.380079,"name":"The Warren","parentId":"490G00016388","stationId":"490G00016388","stopLetter":"CN","topMostParentId":"490G00016388"},{"icsId":"1012992","id":"490012992S","lat":51.479347,"lon":-0.382405,"name":"Heston House","parentId":"490G00012992","stationId":"490G00012992","stopLetter":"VL","topMostParentId":"490G00012992"},{"icsId":"1016387","id":"490016387W","lat":51.479476,"lon":-0.384575,"name":"Beaufort Gardens","parentId":"490G00016387","stationId":"490G00016387","topMostParentId":"490G00016387"},{"icsId":"1016386","id":"490016386W","lat":51.480325,"lon":-0.388146,"name":"Victoria Gardens","parentId":"490G00016386","stationId":"490G00016386","stopLetter":"->W","topMostParentId":"490G00016386"},{"icsId":"1016385","id":"490016385N","lat":51.48208,"lon":-0.387565,"name":"Blackthorn Court","parentId":"490G00016385","stationId":"490G00016385","stopLetter":"P","topMostParentId":"490G00016385"},{"icsId":"1016384","id":"490016384N","lat":51.483441,"lon":-0.386538,"name":"Speart Lane","parentId":"490G00016384","stationId":"490G00016384","stopLetter":"R","topMostParentId":"490G00016384"},{"icsId":"1012229","id":"490012229W","lat":51.483786,"lon":-0.387419,"name":"Somerset Waye","parentId":"490G00012229","stationId":"490G00012229","stopLetter":"H","topMostParentId":"490G00012229"},{"icsId":"1010365","id":"490010365W","lat":51.484305,"lon":-0.392485,"name":"Northfield Road","parentId":"490G00010365","stationId":"490G00010365","stopLetter":"J","topMostParentId":"490G00010365"},{"icsId":"1016383","id":"490016383S","lat":51.48321,"lon":-0.393891,"name":"Armytage Road","parentId":"490G00016383","stationId":"490G00016383","stopLetter":"S","topMostParentId":"490G00016383"},{"icsId":"1016382","id":"490016382W","lat":51.482437,"lon":-0.394639,"name":"Alcock Road","parentId":"490G00016382","stationId":"490G00016382","stopLetter":"T","topMostParentId":"490G00016382"},{"icsId":"1016381","id":"490016381W","lat":51.481359,"lon":-0.397312,"name":"Johnson Road","parentId":"490G00016381","stationId":"490G00016381","stopLetter":"U","topMostParentId":"490G00016381"},{"icsId":"1016380","id":"490016380N","lat":51.482798,"lon":-0.399983,"name":"Bleriot Road","parentId":"490G00016380","stationId":"490G00016380","stopLetter":"V","topMostParentId":"490G00016380"},{"icsId":"1016379","id":"490016379N","lat":51.484418,"lon":-0.40069,"name":"Brabazon Road / Cranford Lane","parentId":"490G00016379","stationId":"490G00016379","stopLetter":"W","topMostParentId":"490G00016379"},{"icsId":"1012243","id":"490012243W","lat":51.484865,"lon":-0.403843,"name":"Cranford Lane / Redwood Estate","parentId":"490G00012243","stationId":"490G00012243","stopLetter":"L","topMostParentId":"490G00012243"},{"icsId":"1005703","id":"490005703N","lat":51.48708,"lon":-0.405364,"name":"Cranford Community School","parentId":"490G00005703","stationId":"490G00005703","stopLetter":"X","topMostParentId":"490G00005703"},{"icsId":"1008113","id":"490008113N","lat":51.493324,"lon":-0.402323,"name":"Heston Centre","parentId":"490G00008113","stationId":"490G00008113","stopLetter":"Y","topMostParentId":"490G00008113"},{"icsId":"1007802","id":"490007802N","lat":51.497057,"lon":-0.401083,"name":"Navigator Park","parentId":"490G00007802","stationId":"490G00007802","stopLetter":"BU","topMostParentId":"490G00007802"},{"icsId":"1004573","id":"490004573W","lat":51.497752,"lon":-0.40394,"name":"Hayes Road / Tesco","parentId":"490G00004573","stationId":"490G00004573","stopLetter":"BS","topMostParentId":"490G00004573"},{"icsId":"1004576","id":"490015280N","lat":51.498643,"lon":-0.405941,"name":"Bulls Bridge Tesco","parentId":"490G00004576","stationId":"490G00004576","stopLetter":"BW","topMostParentId":"490G00004576"}]}]}