{"direction":"inbound","lineId":"h98","lineName":"H98","mode":"bus","stopPointSequences":[{"stopPoint":[{"icsId":"1014839","id":"490014839E","lat":51.523095,"lon":-0.435473,"name":"Wood End Green Road","parentId":"490G00014839","stationId":"490G00014839","stopLetter":"XP","topMostParentId":"490G00014839"},{"icsId":"1007757","id":"490007757W","lat":51.522861,"lon":-0.438148,"name":"Hanover Circle","parentId":"490G00007757","stationId":"490G00007757","stopLetter":"XQ","topMostParentId":"490G00007757"},{"icsId":"1015007","id":"490015007W","lat":51.522911,"lon":-0.439919,"name":"York Avenue","parentId":"490G00015007","stationId":"490G00015007","stopLetter":"XR","topMostParentId":"490G00015007"},{"icsId":"1007469","id":"490007469E","lat":51.523946,"lon":-0.441325,"name":"Green Lane","parentId":"490G00007469","stationId":"490G00007469","stopLetter":"XS","topMostParentId":"490G00007469"},{"icsId":"1010252","id":"490010252E","lat":51.525966,"lon":-0.439714,"name":"New Road","parentId":"490G00010252","stationId":"490G00010252","stopLetter":"XT","topMostParentId":"490G00010252"},{"icsId":"1007952","id":"490007952E","lat":51.52536,"lon":-0.434084,"name":"Hayes Police Station","parentId":"490G00007952","stationId":"490G00007952","stopLetter":"XB","topMostParentId":"490G00007952"},{"icsId":"1007946","id":"490007946E","lat":51.524686,"lon":-0.430705,"name":"Hayes End","parentId":"490G00007946","stationId":"490G00007946","stopLetter":"XC","topMostParentId":"490G00007946"},{"icsId":"1010802","id":"490010802E","lat":51.524078,"lon":-0.426963,"name":"Park Road","parentId":"490G00010802","stationId":"490G00010802","stopLetter":"XD","topMostParentId":"490G00010802"},{"icsId":"1011690","id":"490011690A","lat":51.523685,"lon":-0.424483,"name":"Rosedale Park","parentId":"490G00011690","stationId":"490G00011690","stopLetter":"A","topMostParentId":"490G00011690"},{"icsId":"1008962","id":"490008962E","lat":51.522376,"lon":-0.420117,"name":"Uxbridge County Court","parentId":"490G00008962","stationId":"490G00008962","stopLetter":"E","topMostParentId":"490G00008962"},{"icsId":"1013977","id":"490013977H","lat":51.520757,"lon":-0.417406,"name":"Adam & Eve","parentId":"490G00013977","stationId":"490G00013977","stopLetter":"H","topMostParentId":"490G00013977"},{"icsId":"1005262","id":"490005262S","lat":51.517863,"lon":-0.418847,"name":"Church Green","parentId":"490G00005262","stationId":"490G00005262","stopLetter":"SK","topMostParentId":"490G00005262"},{"icsId":"1009334","id":"490009334S","lat":51.515396,"lon":-0.419955,"name":"Longmead Road","parentId":"490G00009334","stationId":"490G00009334","stopLetter":"SL","topMostParentId":"490G00009334"},{"icsId":"1013751","id":"490013751S","lat":51.512951,"lon":-0.419982,"name":"Townfield Road","parentId":"490G00013751","stationId":"490G00013751","stopLetter":"SM","topMostParentId":"490G00013751"},{"icsId":"1004178","id":"490004178S","lat":51.509303,"lon":-0.420858,"name":"Botwell Lane","parentId":"490G00004178","stationId":"490G00004178","stopLetter":"SN","topMostParentId":"490G00004178"},{"icsId":"1004177","id":"490004177E","lat":51.507618,"lon":-0.419331,"name":"Botwell Green","parentId":"490G00004177","stationId":"490G00004177","stopLetter":"SP","topMostParentId":"490G00004177"},{"icsId":"1000828","id":"490000828Y","lat":51.506542,"lon":-0.418864,"name":"Hayes Town","parentId":"490G000162","stationId":"490G000162","stopLetter":"D","topMostParentId":"490G000162"},{"icsId":"1001144","id":"490001144M","lat":51.503061,"lon":-0.420771,"name":"Hayes and Harlington Station","parentId":"490G01144N","stationId":"490G01144N","stopLetter":"E","topMostParentId":"910GHAYESAH"},{"icsId":"1006702","id":"490006702S1","lat":51.500958,"lon":-0.424201,"name":"Fairey Corner","parentId":"490G00006702","stationId":"490G00006702","stopLetter":"F","topMostParentId":"490G00006702"},{"icsId":"1011489","id":"490011489S1","lat":51.497894,"lon":-0.42641,"name":"Redmead Road","parentId":"490G00011489","stationId":"490G00011489","stopLetter":"R","topMostParentId":"490G00011489"},{"icsId":"1007812","id":"490007812S","lat":51.496665,"lon":-0.427317,"name":"Croyde Avenue","parentId":"490G00007812","stationId":"490G00007812","stopLetter":"S","topMostParentId":"490G00007812"},{"icsId":"1007808","id":"490007808S","lat":51.489503,"lon":-0.435053,"name":"Brickfield Lane","parentId":"490G00007808","stationId":"490G00007808","stopLetter":"A","topMostParentId":"490G00007808"},{"icsId":"1009567","id":"490009564S","lat":51.486728,"lon":-0.43535,"name":"Manse Close","parentId":"490G00009567","stationId":"490G00009567","stopLetter":"B","topMostParentId":"490G00009567"},{"icsId":"1014434","id":"490014434A","lat":51.483799,"lon":-0.434125,"name":"West End Lane","parentId":"490G00014434","stationId":"490G00014434","stopLetter":"C","topMostParentId":"490G00014434"},{"icsId":"1007811","id":"490007811C","lat":51.480745,"lon":-0.433092,"name":"Harlington Corner","parentId":"490G00007811","stationId":"490G00007811","stopLetter":"E","topMostParentId":"490G00007811"},{"icsId":"1015397","id":"490015397E","lat":51.480801,"lon":-0.426523,"name":"Nobel Drive","parentId":"490G00015397","stationId":"490G00015397","stopLetter":"F","topMostParentId":"490G00015397"},{"icsId":"1010677","id":"490010677W2","lat":51.481064,"lon":-0.422626,"name":"Oxford Avenue","parentId":"490G00010677","stationId":"490G00010677","stopLetter":"CA","topMostParentId":"490G00010677"},{"icsId":"1013596","id":"490013596E","lat":51.481313,"lon":-0.419737,"name":"Craneswater","parentId":"490G00013596","stationId":"490G00013596","stopLetter":"CB","topMostParentId":"490G00013596"},{"icsId":"1005704","id":"490005704E","lat":51.480085,"lon":-0.412031,"name":"Waye Avenue","parentId":"490G00005704","stationId":"490G00005704","stopLetter":"CC","topMostParentId":"490G00005704"},{"icsId":"1013235","id":"490013235E","lat":51.479535,"lon":-0.409962,"name":"The Avenue","parentId":"490G00013235","stationId":"490G00013235","stopLetter":"CD","topMostParentId":"490G00013235"},{"icsId":"1013495","id":"490013495E","lat":51.478195,"lon":-0.405314,"name":"The Parkway","parentId":"490G00013495","stationId":"490G00013495","stopLetter":"CE","topMostParentId":"490G00013495"},{"icsId":"1011470","id":"490011470E","lat":51.477032,"lon":-0.401136,"name":"Rectory Road","parentId":"490G00011470","stationId":"490G00011470","stopLetter":"CF","topMostParentId":"490G00011470"},{"icsId":"1015462","id":"490013776E1","lat":51.475914,"lon":-0.396956,"name":"Henlys Roundabout","parentId":"490G00015462","stationId":"490G00015462","stopLetter":"CH","topMostParentId":"490G00015462"},{"icsId":"1000391","id":"490007425E","lat":51.474448,"lon":-0.39106,"name":"Great West Road / Renfrew Road","parentId":"490G000040","stationId":"490G000040","stopLetter":"M","topMostParentId":"490G000040"},{"icsId":"1000118","id":"490000118A","lat":51.472944,"lon":-0.385656,"name":"Hounslow West Station","parentId":"490G00118B","stationId":"490G00118B","stopLetter":"A","topMostParentId":"940GZZLUHWT","zone":"5"},{"icsId":"1012458","id":"490014357E","lat":51.471179,"lon":-0.380895,"name":"St Paul's Church","parentId":"490G00012458","stationId":"490G00012458","stopLetter":"E","topMostParentId":"490G00012458"},{"icsId":"1006406","id":"490006406E","lat":51.469717,"lon":-0.376584,"name":"Wellington Road North","parentId":"490G00006406","stationId":"490G00006406","stopLetter":"F","topMostParentId":"490G00006406"},{"icsId":"1012454","id":"490005431E","lat":51.468967,"lon":-0.373126,"name":"St Michael & St Martin Church","parentId":"490G00012454","stationId":"490G00012454","stopLetter":"G","topMostParentId":"490G00012454"},{"icsId":"1013259","id":"490013259V","lat":51.467293,"lon":-0.366505,"name":"The Bell","parentId":"490G00013259","stationId":"490G00013259","stopLetter":"V","topMostParentId":"490G00013259"},{"icsId":"1013777","id":"490013777P","lat":51.467281,"lon":-0.363065,"name":"Treaty Centre","parentId":"490G00013777","stationId":"490G00013777","stopLetter":"P","topMostParentId":"490G00013777"},{"icsId":"1008399","id":"490008399K","lat":51.469449,"lon":-0.358006,"name":"Hounslow High Street","parentId":"490G00008399","stationId":"490G00008399","stopLetter":"K","topMostParentId":"490G00008399"},{"icsId":"1008392","id":"490008392Z1","lat":51.470928,"lon":-0.354454,"name":"Hounslow Bus Station","parentId":"490G000601","stationId":"490G000601","stopLetter":"Z1","topMostParentId":"490G000601"}]}]}