{"direction":"inbound","lineId":"jubilee","lineName":"Jubilee","mode":"tube","orderedLineRoutes":[{"$type":"Tfl.Api.Presentation.Entities.OrderedRoute, Tfl.Api.Presentation.Entities","name":"Stratford  &harr;  Stanmore ","naptanIds":["940GZZLUSTD","940GZZLUWHM","940GZZLUCGT","940GZZLUNGW","940GZZLUCYF","940GZZLUCWR","940GZZLUBMY","940GZZLULNB","940GZZLUSWK","940GZZLUWLO","940GZZLUWSM","940GZZLUGPK","940GZZLUBND","940GZZLUBST","940GZZLUSJW","940GZZLUSWC","940GZZLUFYR","940GZZLUWHP","940GZZLUKBN","940GZZLUWIG","940GZZLUDOH","940GZZLUNDN","940GZZLUWYP","940GZZLUKBY","940GZZLUQBY","940GZZLUCPK","940GZZLUSTM"],"serviceType":"Regular"}],"stopPointSequences":[{"stopPoint":[{"icsId":"1000226","id":"940GZZLUSTD","lat":51.541806,"lon":-0.003458,"name":"Stratford Underground Station","parentId":"HUBSRA","stationId":"940GZZLUSTD","topMostParentId":"HUBSRA","zone":"2/3"},{"icsId":"1000262","id":"940GZZLUWHM","lat":51.528136,"lon":0.005055,"name":"West Ham Underground Station","parentId":"HUBWEH","stationId":"940GZZLUWHM","topMostParentId":"HUBWEH","zone":"2/3"},{"icsId":"1000039","id":"940GZZLUCGT","lat":51.513584,"lon":0.008322,"name":"Canning Town Underground Station","parentId":"HUBCAN","stationId":"940GZZLUCGT","topMostParentId":"HUBCAN","zone":"2/3"},{"icsId":"1000160","id":"940GZZLUNGW","lat":51.50047,"lon":0.004287,"name":"North Greenwich Underground Station","parentId":"HUBNGW","stationId":"940GZZLUNGW","topMostParentId":"HUBNGW","zone":"2+3"},{"icsId":"1000038","id":"940GZZLUCYF","lat":51.503488,"lon":-0.018246,"name":"Canary Wharf Underground Station","parentId":"HUBCAW","stationId":"940GZZLUCYF","topMostParentId":"HUBCAW","zone":"2"},{"icsId":"1000037","id":"940GZZLUCWR","lat":51.497931,"lon":-0.049405,"name":"Canada Water Underground Station","parentId":"HUBZCW","stationId":"940GZZLUCWR","topMostParentId":"HUBZCW","zone":"2"},{"icsId":"1000021","id":"940GZZLUBMY","lat":51.49775,"lon":-0.063993,"name":"Bermondsey Underground Station","stationId":"940GZZLUBMY","topMostParentId":"940GZZLUBMY","zone":"2"},{"icsId":"1000139","id":"940GZZLULNB","lat":51.505721,"lon":-0.088873,"name":"London Bridge Underground Station","parentId":"HUBLBG","stationId":"940GZZLULNB","topMostParentId":"HUBLBG","zone":"1"},{"icsId":"1000215","id":"940GZZLUSWK","lat":51.50427,"lon":-0.105331,"name":"Southwark Underground Station","stationId":"940GZZLUSWK","topMostParentId":"940GZZLUSWK","zone":"1"},{"icsId":"1000254","id":"940GZZLUWLO","lat":51.503299,"lon":-0.11478,"name":"Waterloo Underground Station","parentId":"HUBWAT","stationId":"940GZZLUWLO","topMostParentId":"HUBWAT","zone":"1"},{"icsId":"1000266","id":"940GZZLUWSM","lat":51.50132,"lon":-0.124861,"name":"Westminster Underground Station","parentId":"HUBWSM","stationId":"940GZZLUWSM","topMostParentId":"HUBWSM","zone":"1"},{"icsId":"1000093","id":"940GZZLUGPK","lat":51.506947,"lon":-0.142787,"name":"Green Park Underground Station","stationId":"940GZZLUGPK","topMostParentId":"940GZZLUGPK","zone":"1"},{"icsId":"1000025","id":"940GZZLUBND","lat":51.514304,"lon":-0.149723,"name":"Bond Street Underground Station","stationId":"940GZZLUBND","topMostParentId":"940GZZLUBND","zone":"1"},{"icsId":"1000011","id":"940GZZLUBST","lat":51.522883,"lon":-0.15713,"name":"Baker Street Underground Station","stationId":"940GZZLUBST","topMostParentId":"940GZZLUBST","zone":"1"},{"icsId":"1000222","id":"940GZZLUSJW","lat":51.534521,"lon":-0.173948,"name":"St. John's Wood Underground Station","stationId":"940GZZLUSJW","topMostParentId":"940GZZLUSJW","zone":"2"},{"icsId":"1000230","id":"940GZZLUSWC","lat":51.543681,"lon":-0.174894,"name":"Swiss Cottage Underground Station","stationId":"940GZZLUSWC","topMostParentId":"940GZZLUSWC","zone":"2"},{"icsId":"1000082","id":"940GZZLUFYR","lat":51.546825,"lon":-0.179845,"name":"Finchley Road Underground Station","stationId":"940GZZLUFYR","topMostParentId":"940GZZLUFYR","zone":"2"},{"icsId":"1000263","id":"940GZZLUWHP","lat":51.546638,"lon":-0.191059,"name":"West Hampstead Underground Station","parentId":"HUBWHD","stationId":"940GZZLUWHP","topMostParentId":"HUBWHD","zone":"2"},{"icsId":"1000126","id":"940GZZLUKBN","lat":51.547183,"lon":-0.204248,"name":"Kilburn Underground Station","stationId":"940GZZLUKBN","topMostParentId":"940GZZLUKBN","zone":"2"},{"icsId":"1000270","id":"940GZZLUWIG","lat":51.549146,"lon":-0.221537,"name":"Willesden Green Underground Station","stationId":"940GZZLUWIG","topMostParentId":"940GZZLUWIG","zone":"2+3"},{"icsId":"1000061","id":"940GZZLUDOH","lat":51.551955,"lon":-0.239068,"name":"Dollis Hill Underground Station","stationId":"940GZZLUDOH","topMostParentId":"940GZZLUDOH","zone":"3"},{"icsId":"1000153","id":"940GZZLUNDN","lat":51.553986,"lon":-0.249837,"name":"Neasden Underground Station","stationId":"940GZZLUNDN","topMostParentId":"940GZZLUNDN","zone":"3"},{"icsId":"1000257","id":"940GZZLUWYP","lat":51.563198,"lon":-0.279262,"name":"Wembley Park Underground Station","stationId":"940GZZLUWYP","topMostParentId":"940GZZLUWYP","zone":"4"},{"icsId":"1000128","id":"940GZZLUKBY","lat":51.584845,"lon":-0.27879,"name":"Kingsbury Underground Station","stationId":"940GZZLUKBY","topMostParentId":"940GZZLUKBY","zone":"4"},{"icsId":"1000185","id":"940GZZLUQBY","lat":51.594188,"lon":-0.286219,"name":"Queensbury Underground Station","stationId":"940GZZLUQBY","topMostParentId":"940GZZLUQBY","zone":"4"},{"icsId":"1000041","id":"940GZZLUCPK","lat":51.607701,"lon":-0.294693,"name":"Canons Park Underground Station","stationId":"940GZZLUCPK","topMostParentId":"940GZZLUCPK","zone":"5"},{"icsId":"1000219","id":"940GZZLUSTM","lat":51.619839,"lon":-0.303266,"name":"Stanmore Underground Station","stationId":"940GZZLUSTM","topMostParentId":"940GZZLUSTM","zone":"5"}]}]}