{"direction":"inbound","lineId":"n1","lineName":"N1","mode":"bus","stopPointSequences":[{"stopPoint":[{"icsId":"1013459","id":"490013459W","lat":51.502911,"lon":0.116642,"name":"Titmuss Avenue","parentId":"490G00013459","stationId":"490G00013459","stopLetter":"SF","topMostParentId":"490G00013459"},{"icsId":"1012364","id":"490012364N","lat":51.502136,"lon":0.112715,"name":"Southwood Road","parentId":"490G00012364","stationId":"490G00012364","stopLetter":"SG","topMostParentId":"490G00012364"},{"icsId":"1007923","id":"490007923N","lat":51.504141,"lon":0.111252,"name":"Hawksmoor School","parentId":"490G00007923","stationId":"490G00007923","stopLetter":"SH","topMostParentId":"490G00007923"},{"icsId":"1007092","id":"490007092F","lat":51.506115,"lon":0.110032,"name":"Gallions Reach Health Centre","parentId":"490G00007092","stationId":"490G00007092","stopLetter":"F","topMostParentId":"490G00007092"},{"icsId":"1013214","id":"490013214A","lat":51.507389,"lon":0.109183,"name":"Thamesmead Town Centre","parentId":"490G00013214","stationId":"490G00013214","stopLetter":"A","topMostParentId":"490G00013214"},{"icsId":"1009198","id":"490009198D","lat":51.507586,"lon":0.112708,"name":"Linton Mead Primary School","parentId":"490G00009198","stationId":"490G00009198","stopLetter":"D","topMostParentId":"490G00009198"},{"icsId":"1008405","id":"490008405E","lat":51.509319,"lon":0.116377,"name":"Hoveton Road","parentId":"490G00008405","stationId":"490G00008405","topMostParentId":"490G00008405"},{"icsId":"1010268","id":"490010268E","lat":51.509522,"lon":0.120061,"name":"Nickelby Close","parentId":"490G00010268","stationId":"490G00010268","stopLetter":"NE","topMostParentId":"490G00010268"},{"icsId":"1006355","id":"490006355S","lat":51.509107,"lon":0.126066,"name":"Eastgate Close","parentId":"490G00006355","stationId":"490G00006355","stopLetter":"NG","topMostParentId":"490G00006355"},{"icsId":"1009206","id":"490009206W","lat":51.506652,"lon":0.1266,"name":"Lister Walk","parentId":"490G00009206","stationId":"490G00009206","stopLetter":"NH","topMostParentId":"490G00009206"},{"icsId":"1011113","id":"490011113W","lat":51.506063,"lon":0.12137,"name":"Poplar Place","parentId":"490G00011113","stationId":"490G00011113","stopLetter":"SE","topMostParentId":"490G00011113"},{"icsId":"1004130","id":"490004130S","lat":51.503737,"lon":0.119202,"name":"Carlyle Road / Crossway","parentId":"490G00004130","stationId":"490G00004130","stopLetter":"SJ","topMostParentId":"490G00004130"},{"icsId":"1010190","id":"490010190S","lat":51.497482,"lon":0.121476,"name":"Newacres Library","parentId":"490G00010190","stationId":"490G00010190","stopLetter":"->S","topMostParentId":"490G00010190"},{"icsId":"1013257","id":"490013257B","lat":51.49523,"lon":0.121199,"name":"Harrow Manorway / Yarnton Way","parentId":"490G00013257","stationId":"490G00013257","stopLetter":"B","topMostParentId":"490G00013257"},{"icsId":"1010675","id":"490010675BA","lat":51.493486,"lon":0.121175,"name":"Overton Road","parentId":"490G00010675","stationId":"490G00010675","stopLetter":"BA","topMostParentId":"490G00010675"},{"icsId":"1019855","id":"490001001D","lat":51.490915,"lon":0.122093,"name":"Harrow Manorway / Abbey Wood Station","parentId":"490G000957","stationId":"490G000957","stopLetter":"D","topMostParentId":"490G000957"},{"icsId":"1005546","id":"490005546K","lat":51.488503,"lon":0.120209,"name":"Conference Road","parentId":"490G00005546","stationId":"490G00005546","stopLetter":"K","topMostParentId":"490G00005546"},{"icsId":"1007459","id":"490007459W","lat":51.488108,"lon":0.117195,"name":"Greening Street","parentId":"490G00007459","stationId":"490G00007459","topMostParentId":"490G00007459"},{"icsId":"1004164","id":"490004164W","lat":51.487481,"lon":0.113075,"name":"Mcleod Road / Bostall Lane","parentId":"490G00004164","stationId":"490G00004164","stopLetter":"->W","topMostParentId":"490G00004164"},{"icsId":"1004162","id":"490004162W","lat":51.487069,"lon":0.110478,"name":"Bostall Gardens","parentId":"490G00004162","stationId":"490G00004162","stopLetter":"->W","topMostParentId":"490G00004162"},{"icsId":"1004835","id":"490004835S","lat":51.486521,"lon":0.107413,"name":"Cassilda Road","parentId":"490G00004835","stationId":"490G00004835","stopLetter":"->S","topMostParentId":"490G00004835"},{"icsId":"1004163","id":"490004163S","lat":51.48487,"lon":0.106732,"name":"Basildon Road / Bostall Hill","parentId":"490G00004163","stationId":"490G00004163","stopLetter":"->S","topMostParentId":"490G00004163"},{"icsId":"1011075","id":"490011075W1","lat":51.485662,"lon":0.100704,"name":"Plumstead Corner / Rockmount Road","parentId":"490G00011075","stationId":"490G00011075","stopLetter":"WE","topMostParentId":"490G00011075"},{"icsId":"1011077","id":"490011077W","lat":51.486618,"lon":0.096024,"name":"Plumstead High Street / Police Station","parentId":"490G00011077","stationId":"490G00011077","stopLetter":"WH","topMostParentId":"490G00011077"},{"icsId":"1003584","id":"490003584O","lat":51.48719,"lon":0.093198,"name":"Bannockburn Road","parentId":"490G00003584","stationId":"490G00003584","stopLetter":"WJ","topMostParentId":"490G00003584"},{"icsId":"1008908","id":"490008908S","lat":51.487841,"lon":0.090448,"name":"Lakedale Road","parentId":"490G00008908","stationId":"490G00008908","stopLetter":"WK","topMostParentId":"490G00008908"},{"icsId":"1019871","id":"490001227E","lat":51.490365,"lon":0.083533,"name":"Plumstead Road / Plumstead Station","parentId":"490G000959","stationId":"490G000959","stopLetter":"WM","topMostParentId":"490G000959"},{"icsId":"1014924","id":"490014924D","lat":51.4909,"lon":0.080273,"name":"Greenwich Community College","parentId":"490G00014924","stationId":"490G00014924","stopLetter":"WP","topMostParentId":"490G00014924"},{"icsId":"1009723","id":"490009723W","lat":51.49087,"lon":0.076872,"name":"Maxey Road","parentId":"490G00009723","stationId":"490G00009723","stopLetter":"->W","topMostParentId":"490G00009723"},{"icsId":"1014934","id":"490014934W1","lat":51.491116,"lon":0.071136,"name":"Plumstead Road / Woolwich Public Market","parentId":"490G00014934","stationId":"490G00014934","stopLetter":"D","topMostParentId":"490G00014934"},{"icsId":"1003917","id":"490003917D","lat":51.491933,"lon":0.068119,"name":"Beresford Sq / Woolwich Arsenal Stn","parentId":"490G000411","stationId":"490G000411","stopLetter":"U","topMostParentId":"490G000411"},{"icsId":"1014928","id":"490014928A","lat":51.493458,"lon":0.062224,"name":"Woolwich Ferry","parentId":"490G00014928","stationId":"490G00014928","stopLetter":"A","topMostParentId":"490G00014928"},{"icsId":"1006982","id":"490006982DG","lat":51.492843,"lon":0.055238,"name":"Kingsman Street","parentId":"490G00006982","stationId":"490G00006982","stopLetter":"DG","topMostParentId":"490G00006982"},{"icsId":"1011247","id":"490011247DC","lat":51.49209,"lon":0.051012,"name":"Prospect Vale","parentId":"490G00011247","stationId":"490G00011247","stopLetter":"DC","topMostParentId":"490G00011247"},{"icsId":"1014247","id":"490014247W","lat":51.492397,"lon":0.046834,"name":"Warspite Road","parentId":"490G00014247","stationId":"490G00014247","stopLetter":"U","topMostParentId":"490G00014247"},{"icsId":"1020099","id":"490014923W","lat":51.491424,"lon":0.042267,"name":"Cleveley Close","parentId":"490G00020099","stationId":"490G00020099","stopLetter":"V","topMostParentId":"490G00020099"},{"icsId":"1013207","id":"490013207W","lat":51.490261,"lon":0.039881,"name":"Greenwich Trust School","parentId":"490G00013207","stationId":"490G00013207","stopLetter":"W","topMostParentId":"490G00013207"},{"icsId":"1010911","id":"490015556W","lat":51.4896,"lon":0.038065,"name":"Woolwich Road / Charlton Lane","parentId":"490G00010911","stationId":"490G00010911","stopLetter":"B","topMostParentId":"490G00010911"},{"icsId":"1012854","id":"490012854W","lat":51.488696,"lon":0.03523,"name":"Stone Lake Retail Park","parentId":"490G00012854","stationId":"490G00012854","stopLetter":"D","topMostParentId":"490G00012854"},{"icsId":"1019754","id":"490001058F","lat":51.488078,"lon":0.032495,"name":"Charlton Station  / Woolwich Road","parentId":"490G000946","stationId":"490G000946","stopLetter":"F","topMostParentId":"490G000946"},{"icsId":"1007093","id":"490007093W1","lat":51.487419,"lon":0.027928,"name":"Woolwich Road / Gallions Road","parentId":"490G00007093","stationId":"490G00007093","topMostParentId":"490G00007093"},{"icsId":"1011704","id":"490011704W","lat":51.487184,"lon":0.025397,"name":"Woolwich Road / Victoria Way","parentId":"490G00011704","stationId":"490G00011704","stopLetter":"->W","topMostParentId":"490G00011704"},{"icsId":"1011398","id":"490011398J","lat":51.486631,"lon":0.022578,"name":"Rainton Road","parentId":"490G00011398","stationId":"490G00011398","stopLetter":"J","topMostParentId":"490G00011398"},{"icsId":"1006356","id":"490006356W","lat":51.486293,"lon":0.016586,"name":"Kemsing Road","parentId":"490G00006356","stationId":"490G00006356","stopLetter":"D","topMostParentId":"490G00006356"},{"icsId":"1009685","id":"490009685W","lat":51.486104,"lon":0.012962,"name":"Marlton Street","parentId":"490G00009685","stationId":"490G00009685","stopLetter":"Q","topMostParentId":"490G00009685"},{"icsId":"1003334","id":"490003334W","lat":51.486146,"lon":0.011019,"name":"Calvert Road","parentId":"490G00003334","stationId":"490G00003334","topMostParentId":"490G00003334"},{"icsId":"1015332","id":"490007510A","lat":51.486172,"lon":0.008442,"name":"Vanbrugh Hill","parentId":"490G00015332","stationId":"490G00015332","stopLetter":"A","topMostParentId":"490G00015332"},{"icsId":"1004081","id":"490005224L","lat":51.485286,"lon":0.005595,"name":"Tyler Street","parentId":"490G00004081","stationId":"490G00004081","stopLetter":"L","topMostParentId":"490G00004081"},{"icsId":"1009754","id":"490009754G","lat":51.483635,"lon":0.000107,"name":"Trafalgar Road / Maze Hill","parentId":"490G000663","stationId":"490G000663","stopLetter":"G","topMostParentId":"490G000663"},{"icsId":"1013764","id":"490013764T","lat":51.482928,"lon":-0.002747,"name":"Trafalgar Estate","parentId":"490G00013764","stationId":"490G00013764","stopLetter":"T","topMostParentId":"490G00013764"},{"icsId":"1006196","id":"490006196G","lat":51.481465,"lon":-0.007117,"name":"National Maritime Museum","parentId":"490G000489","stationId":"490G000489","stopLetter":"G","topMostParentId":"490G000489"},{"icsId":"1007507","id":"490007507B","lat":51.481199,"lon":-0.009981,"name":"Greenwich Church Street","parentId":"490G000547","stationId":"490G000547","stopLetter":"B","topMostParentId":"490G000547"},{"icsId":"1010309","id":"490010309W","lat":51.481365,"lon":-0.013934,"name":"Creek Road / Norman Road","parentId":"490G00010309","stationId":"490G00010309","stopLetter":"W","topMostParentId":"490G00010309"},{"icsId":"1005736","id":"490005736W","lat":51.48122,"lon":-0.018146,"name":"Creekside","parentId":"490G00005736","stationId":"490G00005736","stopLetter":"G","topMostParentId":"490G00005736"},{"icsId":"1011687","id":"490011687H","lat":51.4808,"lon":-0.022052,"name":"Macmillan Students Village","parentId":"490G00011687","stationId":"490G00011687","stopLetter":"H","topMostParentId":"490G00011687"},{"icsId":"1006050","id":"490006050A","lat":51.481793,"lon":-0.027626,"name":"Deptford High Street","parentId":"490G00006050","stationId":"490G00006050","stopLetter":"A","topMostParentId":"490G00006050"},{"icsId":"1007585","id":"490007585W","lat":51.483798,"lon":-0.031846,"name":"Abinger Grove","parentId":"490G00007585","stationId":"490G00007585","stopLetter":"N","topMostParentId":"490G00007585"},{"icsId":"1006049","id":"490006049N","lat":51.485349,"lon":-0.034228,"name":"Deptford Fire Station","parentId":"490G00006049","stationId":"490G00006049","stopLetter":"P","topMostParentId":"490G00006049"},{"icsId":"1006052","id":"490006052W","lat":51.487928,"lon":-0.038439,"name":"Deptford Park School","parentId":"490G00006052","stationId":"490G00006052","stopLetter":"Q","topMostParentId":"490G00006052"},{"icsId":"1003944","id":"490003944N","lat":51.489766,"lon":-0.041889,"name":"Bestwood Street","parentId":"490G00003944","stationId":"490G00003944","stopLetter":"->N","topMostParentId":"490G00003944"},{"icsId":"1004655","id":"490004655N","lat":51.491071,"lon":-0.045175,"name":"Bush Road","parentId":"490G00004655","stationId":"490G00004655","stopLetter":"N","topMostParentId":"490G00004655"},{"icsId":"1011722","id":"490011722Q","lat":51.491064,"lon":-0.049079,"name":"Warndon Street","parentId":"490G00011722","stationId":"490G00011722","stopLetter":"Q","topMostParentId":"490G00011722"},{"icsId":"1005603","id":"490005603W","lat":51.490643,"lon":-0.054038,"name":"Corbetts Lane","parentId":"490G00005603","stationId":"490G00005603","stopLetter":"RE","topMostParentId":"490G00005603"},{"icsId":"1011719","id":"490011719A","lat":51.488926,"lon":-0.057309,"name":"Rotherhithe New Rd / Sth Bermondsey Stn","parentId":"490G000728","stationId":"490G000728","stopLetter":"RF","topMostParentId":"490G000728"},{"icsId":"1009482","id":"490009482N","lat":51.490198,"lon":-0.059776,"name":"Lynton Road","parentId":"490G00009482","stationId":"490G00009482","stopLetter":"GP","topMostParentId":"490G00009482"},{"icsId":"1003311","id":"490003311N","lat":51.491579,"lon":-0.060625,"name":"Anchor Street","parentId":"490G00003311","stationId":"490G00003311","stopLetter":"GQ","topMostParentId":"490G00003311"},{"icsId":"1012353","id":"490012353W","lat":51.492252,"lon":-0.064874,"name":"Southwark Park Road / St James's Road","parentId":"490G00012353","stationId":"490G00012353","stopLetter":"PG","topMostParentId":"490G00012353"},{"icsId":"1011538","id":"490011538W","lat":51.492688,"lon":-0.069523,"name":"Reverdy Road","parentId":"490G00011538","stationId":"490G00011538","stopLetter":"PH","topMostParentId":"490G00011538"},{"icsId":"1003275","id":"490003275W","lat":51.493624,"lon":-0.07444,"name":"Alscot Road","parentId":"490G00003275","stationId":"490G00003275","stopLetter":"U","topMostParentId":"490G00003275"},{"icsId":"1012367","id":"490012367W","lat":51.495376,"lon":-0.077665,"name":"Spa Road","parentId":"490G00012367","stationId":"490G00012367","stopLetter":"V","topMostParentId":"490G00012367"},{"icsId":"1007362","id":"490007362S","lat":51.496405,"lon":-0.082275,"name":"Grange Road / Caledonian Market","parentId":"490G00007362","stationId":"490G00007362","stopLetter":"J","topMostParentId":"490G00007362"},{"icsId":"1019012","id":"490015272BJ","lat":51.495155,"lon":-0.083955,"name":"Bricklayer's Arms / Tower Bridge Road","parentId":"490G00019012","stationId":"490G00019012","stopLetter":"BJ","topMostParentId":"490G00019012"},{"icsId":"1003658","id":"490003658BS","lat":51.494035,"lon":-0.09024,"name":"Bricklayer's Arms / New Kent Road","parentId":"490G00003658","stationId":"490G00003658","stopLetter":"BS","topMostParentId":"490G00003658"},{"icsId":"1011632","id":"490011632BT","lat":51.49417,"lon":-0.094672,"name":"Rodney Place","parentId":"490G00011632","stationId":"490G00011632","stopLetter":"BT","topMostParentId":"490G00011632"},{"icsId":"1009298","id":"490000073N","lat":51.495008,"lon":-0.099218,"name":"Elephant & Castle / New Kent Road","parentId":"490G000645","stationId":"490G000645","stopLetter":"N","topMostParentId":"HUBEPH"},{"icsId":"1009281","id":"490009281A","lat":51.496136,"lon":-0.101706,"name":"Elephant & Castle / London Road","parentId":"490G000642","stationId":"490G000642","stopLetter":"A","topMostParentId":"490G000642"},{"icsId":"1012693","id":"490012693N1","lat":51.49967,"lon":-0.107236,"name":"St George's Circus","parentId":"490G00012693","stationId":"490G00012693","stopLetter":"P","topMostParentId":"490G00012693"},{"icsId":"1013485","id":"490013485N","lat":51.501291,"lon":-0.109085,"name":"The Old Vic","parentId":"490G00013485","stationId":"490G00013485","stopLetter":"Q","topMostParentId":"490G00013485"},{"icsId":"1003713","id":"490000254K","lat":51.504361,"lon":-0.113742,"name":"Waterloo Station / Tenison Way","parentId":"490G000402","stationId":"490G000402","stopLetter":"K","topMostParentId":"HUBWAT"},{"icsId":"1014271","id":"490014270P","lat":51.506261,"lon":-0.115004,"name":"Waterloo Bridge / South Bank","parentId":"490G000819","stationId":"490G000819","stopLetter":"P","topMostParentId":"HUBWAT"},{"icsId":"1008932","id":"490008932T","lat":51.510523,"lon":-0.118935,"name":"Lancaster Place","parentId":"490G00008932","stationId":"490G00008932","stopLetter":"T","topMostParentId":"490G00008932"},{"icsId":"1003195","id":"490003191F","lat":51.513142,"lon":-0.117948,"name":"Aldwych / Kingsway","parentId":"490G00003195","stationId":"490G00003195","stopLetter":"F","topMostParentId":"490G00003195"},{"icsId":"1000112","id":"490000112P","lat":51.516928,"lon":-0.120213,"name":"Holborn Station","parentId":"490G00112L","stationId":"490G00112L","stopLetter":"P","topMostParentId":"940GZZLUHBN","zone":"1"},{"icsId":"1006203","id":"490006203RA","lat":51.516366,"lon":-0.12384,"name":"Drury Lane","parentId":"490G00006203","stationId":"490G00006203","stopLetter":"S","topMostParentId":"490G00006203"},{"icsId":"1000235","id":"490000235N","lat":51.516022,"lon":-0.12874,"name":"Tottenham Court Road","parentId":"490G00235Z","stationId":"490G00235Z","stopLetter":"T","topMostParentId":"940GZZLUTCR","zone":"1"}]}]}