{"direction":"inbound","lineId":"n133","lineName":"N133","mode":"bus","stopPointSequences":[{"stopPoint":[{"icsId":"1003172","id":"490003172A","lat":51.516688,"lon":-0.084781,"name":"All Hallows Church","parentId":"490G00003172","stationId":"490G00003172","stopLetter":"U","topMostParentId":"490G00003172"},{"icsId":"1010177","id":"490010177S","lat":51.515332,"lon":-0.084319,"name":"Great Winchester Street","parentId":"490G00010177","stationId":"490G00010177","stopLetter":"R","topMostParentId":"490G00010177"},{"icsId":"1009037","id":"490012823W","lat":51.514475,"lon":-0.085854,"name":"Threadneedle Street","parentId":"490G00009037","stationId":"490G00009037","stopLetter":"LJ","topMostParentId":"490G00009037"},{"icsId":"1019175","id":"490000148G","lat":51.511467,"lon":-0.087205,"name":"King William Street / Monument Stn","parentId":"490G00019175","stationId":"490G00019175","stopLetter":"G","topMostParentId":"490G00019175"},{"icsId":"1000148","id":"490009267E","lat":51.509504,"lon":-0.087028,"name":"Monument Station","parentId":"490G09267E","stationId":"490G09267E","stopLetter":"P","topMostParentId":"940GZZLUMMT","zone":"1"},{"icsId":"1018542","id":"490000139Y","lat":51.506581,"lon":-0.088116,"name":"London Bridge","parentId":"490G000922","stationId":"490G000922","stopLetter":"Y","topMostParentId":"HUBLBG"},{"icsId":"1019864","id":"490013910S","lat":51.504037,"lon":-0.09096,"name":"Southwark Street","parentId":"490G00019864","stationId":"490G00019864","topMostParentId":"490G00019864"},{"icsId":"1013910","id":"490013910H","lat":51.502403,"lon":-0.092224,"name":"Union Street","parentId":"490G00013910","stationId":"490G00013910","stopLetter":"H","topMostParentId":"490G00013910"},{"icsId":"1000026","id":"490000026A","lat":51.500641,"lon":-0.093926,"name":"Borough Station","parentId":"490G00026B","stationId":"490G00026B","stopLetter":"A","topMostParentId":"940GZZLUBOR","zone":"1"},{"icsId":"1003548","id":"490003548B","lat":51.498402,"lon":-0.097794,"name":"Inner London Crown Court","parentId":"490G00003548","stationId":"490G00003548","stopLetter":"B","topMostParentId":"490G00003548"},{"icsId":"1009297","id":"490000073G","lat":51.496934,"lon":-0.099325,"name":"Elephant & Castle / Newington Causeway","parentId":"490G000644","stationId":"490G000644","stopLetter":"G","topMostParentId":"490G000644"},{"icsId":"1000073","id":"490000073P","lat":51.494221,"lon":-0.100605,"name":"Elephant & Castle Station","parentId":"490G00073G","stationId":"490G00073G","stopLetter":"P","topMostParentId":"HUBEPH","zone":"1+2"},{"icsId":"1010223","id":"490010223S1","lat":51.491672,"lon":-0.102555,"name":"Newington Butts","parentId":"490G00010223","stationId":"490G00010223","stopLetter":"BD","topMostParentId":"490G00010223"},{"icsId":"1010925","id":"490010925S","lat":51.490839,"lon":-0.103353,"name":"Penton Place","parentId":"490G00010925","stationId":"490G00010925","stopLetter":"BE","topMostParentId":"490G00010925"},{"icsId":"1000121","id":"490000121S","lat":51.488653,"lon":-0.105489,"name":"Kennington Station","parentId":"490G00121B","stationId":"490G00121B","stopLetter":"KA","topMostParentId":"940GZZLUKNG","zone":"2"},{"icsId":"1008656","id":"490008645Z","lat":51.484856,"lon":-0.10929,"name":"Kennington Road","parentId":"490G00008656","stationId":"490G00008656","stopLetter":"Z","topMostParentId":"490G00008656"},{"icsId":"1008642","id":"490008642J","lat":51.480185,"lon":-0.111269,"name":"St Mark's Church","parentId":"490G00008642","stationId":"490G00008642","stopLetter":"J","topMostParentId":"490G00008642"},{"icsId":"1014013","id":"490014013S","lat":51.476058,"lon":-0.112419,"name":"Vassall Road","parentId":"490G00014013","stationId":"490G00014013","stopLetter":"RH","topMostParentId":"490G00014013"},{"icsId":"1007587","id":"490007587S","lat":51.473544,"lon":-0.112652,"name":"Groveway","parentId":"490G00007587","stationId":"490G00007587","stopLetter":"RJ","topMostParentId":"490G00007587"},{"icsId":"1009373","id":"490009373S1","lat":51.470942,"lon":-0.112472,"name":"Loughborough Road","parentId":"490G00009373","stationId":"490G00009373","stopLetter":"RK","topMostParentId":"490G00009373"},{"icsId":"1014085","id":"490014085S","lat":51.468316,"lon":-0.11245,"name":"Villa Road","parentId":"490G00014085","stationId":"490G00014085","stopLetter":"RL","topMostParentId":"490G00014085"},{"icsId":"1007523","id":"490007523G","lat":51.465396,"lon":-0.113723,"name":"Brixton Road / Brixton Police Station","parentId":"490G000549","stationId":"490G000549","stopLetter":"G","topMostParentId":"490G000549"},{"icsId":"1000031","id":"490000031P","lat":51.461796,"lon":-0.115253,"name":"Brixton Station","parentId":"490G00031N","stationId":"490G00031N","stopLetter":"P","topMostParentId":"HUBBRX","zone":"2"},{"icsId":"1011793","id":"490011793S","lat":51.458793,"lon":-0.116931,"name":"Rush Common","parentId":"490G00011793","stationId":"490G00011793","stopLetter":"BA","topMostParentId":"490G00011793"},{"icsId":"1004362","id":"490004362S1","lat":51.456342,"lon":-0.118328,"name":"Brixton Water Lane","parentId":"490G00004362","stationId":"490G00004362","stopLetter":"BB","topMostParentId":"490G00004362"},{"icsId":"1004101","id":"490004101S","lat":51.454058,"lon":-0.120005,"name":"Blenheim Gardens","parentId":"490G00004101","stationId":"490G00004101","stopLetter":"BC","topMostParentId":"490G00004101"},{"icsId":"1008544","id":"490008544S","lat":51.452216,"lon":-0.121203,"name":"Jebb Avenue / Brixton Prison","parentId":"490G00008544","stationId":"490G00008544","stopLetter":"BD","topMostParentId":"490G00008544"},{"icsId":"1015218","id":"490015218S","lat":51.44882,"lon":-0.12366,"name":"New Park Road","parentId":"490G00015218","stationId":"490G00015218","stopLetter":"BE","topMostParentId":"490G00015218"},{"icsId":"1008310","id":"490008310S","lat":51.447781,"lon":-0.123947,"name":"Holmewood Road","parentId":"490G00008310","stationId":"490G00008310","stopLetter":"BF","topMostParentId":"490G00008310"},{"icsId":"1019763","id":"490005234S","lat":51.444291,"lon":-0.124421,"name":"Streatham Hill / Christchurch Road","parentId":"490G00019763","stationId":"490G00019763","stopLetter":"BH","topMostParentId":"490G00019763"},{"icsId":"1013186","id":"490013186S","lat":51.442024,"lon":-0.124384,"name":"Telford Avenue","parentId":"490G00013186","stationId":"490G00013186","stopLetter":"W","topMostParentId":"490G00013186"},{"icsId":"1019944","id":"490001281D","lat":51.439403,"lon":-0.12583,"name":"Streatham Hill Stn  / Streatham Hill","parentId":"490G000969","stationId":"490G000969","stopLetter":"D","topMostParentId":"490G000969"},{"icsId":"1009076","id":"490009076E","lat":51.437492,"lon":-0.127203,"name":"Leigham Court Road","parentId":"490G000632","stationId":"490G000632","stopLetter":"E","topMostParentId":"490G000632"},{"icsId":"1010078","id":"490010078J","lat":51.435927,"lon":-0.127742,"name":"Mount Ephraim Road","parentId":"490G00010078","stationId":"490G00010078","stopLetter":"J","topMostParentId":"490G00010078"},{"icsId":"1008765","id":"490008765L","lat":51.434447,"lon":-0.127961,"name":"Kingscourt Road","parentId":"490G00008765","stationId":"490G00008765","stopLetter":"L","topMostParentId":"490G00008765"},{"icsId":"1003758","id":"490003758NA","lat":51.432658,"lon":-0.128566,"name":"Becmead Avenue","parentId":"490G00003758","stationId":"490G00003758","stopLetter":"NA","topMostParentId":"490G00003758"},{"icsId":"1012761","id":"490012761U","lat":51.428566,"lon":-0.130805,"name":"St Leonard's Church","parentId":"490G00012761","stationId":"490G00012761","stopLetter":"SA","topMostParentId":"490G00012761"},{"icsId":"1001279","id":"490001279S1","lat":51.425704,"lon":-0.130691,"name":"Streatham Station","parentId":"490G01279S3","stationId":"490G01279S3","stopLetter":"SB","topMostParentId":"910GSTRETHM"},{"icsId":"1012929","id":"490012929S6","lat":51.423686,"lon":-0.129853,"name":"Streatham United Reformed Church","parentId":"490G00012929","stationId":"490G00012929","stopLetter":"SE","topMostParentId":"490G00012929"},{"icsId":"1012922","id":"490012922SD","lat":51.421279,"lon":-0.130081,"name":"Greyhound Lane / Streatham High Road","parentId":"490G00012922","stationId":"490G00012922","stopLetter":"CP","topMostParentId":"490G00012922"},{"icsId":"1001280","id":"490001280SB","lat":51.418704,"lon":-0.134386,"name":"Streatham Common Station","parentId":"490G01280SA","stationId":"490G01280SA","stopLetter":"CQ","topMostParentId":"910GSTRHCOM"},{"icsId":"1003057","id":"490003057S2","lat":51.417251,"lon":-0.136904,"name":"Aberfoyle Road","parentId":"490G00003057","stationId":"490G00003057","stopLetter":"CR","topMostParentId":"490G00003057"},{"icsId":"1004233","id":"490004233S","lat":51.415618,"lon":-0.139358,"name":"Braeside Road","parentId":"490G00004233","stationId":"490G00004233","stopLetter":"VK","topMostParentId":"490G00004233"},{"icsId":"1007531","id":"490013458S","lat":51.413601,"lon":-0.141496,"name":"Greyhound Terrace","parentId":"490G00007531","stationId":"490G00007531","stopLetter":"VL","topMostParentId":"490G00007531"},{"icsId":"1011737","id":"490011737S","lat":51.411422,"lon":-0.140146,"name":"Rowan Crescent","parentId":"490G00011737","stationId":"490G00011737","stopLetter":"VM","topMostParentId":"490G00011737"},{"icsId":"1009338","id":"490009338S","lat":51.409869,"lon":-0.141475,"name":"Longthornton Road","parentId":"490G00009338","stationId":"490G00009338","stopLetter":"VN","topMostParentId":"490G00009338"},{"icsId":"1012930","id":"490012930S","lat":51.408478,"lon":-0.142207,"name":"Streatham Park Cemetery","parentId":"490G00012930","stationId":"490G00012930","stopLetter":"VP","topMostParentId":"490G00012930"},{"icsId":"1011758","id":"490011739S","lat":51.405873,"lon":-0.139034,"name":"Rosemead Avenue","parentId":"490G000049","stationId":"490G000049","stopLetter":"VQ","topMostParentId":"490G000049"},{"icsId":"1010321","id":"490010321M","lat":51.403635,"lon":-0.137386,"name":"Northborough Road","parentId":"490G00010321","stationId":"490G00010321","stopLetter":"M","topMostParentId":"490G00010321"},{"icsId":"1011609","id":"490011609S","lat":51.402106,"lon":-0.140754,"name":"Robinhood Lane","parentId":"490G00011609","stationId":"490G00011609","stopLetter":"T","topMostParentId":"490G00011609"},{"icsId":"1013425","id":"490013425S","lat":51.399842,"lon":-0.144843,"name":"Sherwood Park Road","parentId":"490G00013425","stationId":"490G00013425","stopLetter":"->S","topMostParentId":"490G00013425"},{"icsId":"1013150","id":"490013150W","lat":51.400642,"lon":-0.150547,"name":"Tamworth Park","parentId":"490G00013150","stationId":"490G00013150","stopLetter":"->W","topMostParentId":"490G00013150"},{"icsId":"1015306","id":"490015306W","lat":51.401394,"lon":-0.152615,"name":"Pentlands Close","parentId":"490G00015306","stationId":"490G00015306","stopLetter":"->W","topMostParentId":"490G00015306"},{"icsId":"1004911","id":"490004911W1","lat":51.402277,"lon":-0.154995,"name":"Cedars Avenue","parentId":"490G00004911","stationId":"490G00004911","stopLetter":"->W","topMostParentId":"490G00004911"},{"icsId":"1013650","id":"490013650W1","lat":51.403533,"lon":-0.160537,"name":"Three Kings Pond","parentId":"490G00013650","stationId":"490G00013650","stopLetter":"S","topMostParentId":"490G00013650"},{"icsId":"1000935","id":"490009949L","lat":51.405105,"lon":-0.163307,"name":"Upper Green East","parentId":"490G000244","stationId":"490G000244","stopLetter":"I","topMostParentId":"490G000244"},{"icsId":"1007213","id":"490007213M","lat":51.403416,"lon":-0.165704,"name":"Glebe Court","parentId":"490G00007213","stationId":"490G00007213","stopLetter":"K","topMostParentId":"490G00007213"},{"icsId":"1009944","id":"490009944X","lat":51.400335,"lon":-0.169349,"name":"Mitcham / Cricket Green","parentId":"490G00009944","stationId":"490G00009944","stopLetter":"Q","topMostParentId":"490G00009944"},{"icsId":"1002058","id":"490002058Z","lat":51.397245,"lon":-0.173038,"name":"Mitcham Tram Stop","parentId":"490G02058Y","stationId":"490G02058Y","stopLetter":"W","topMostParentId":"940GZZCRMCH"},{"icsId":"1014189","id":"490014182W","lat":51.394268,"lon":-0.174709,"name":"Bishopsford Road","parentId":"490G00014189","stationId":"490G00014189","stopLetter":"->W","topMostParentId":"490G00014189"},{"icsId":"1009928","id":"490009928W","lat":51.395621,"lon":-0.179068,"name":"Milner Road","parentId":"490G00009928","stationId":"490G00009928","stopLetter":"G","topMostParentId":"490G00009928"},{"icsId":"1013328","id":"490013328W","lat":51.396915,"lon":-0.183013,"name":"The Drive","parentId":"490G00013328","stationId":"490G00013328","stopLetter":"H","topMostParentId":"490G00013328"},{"icsId":"1004931","id":"490004931N","lat":51.399717,"lon":-0.188609,"name":"Morden Hall Road / Central Road","parentId":"490G00004931","stationId":"490G00004931","stopLetter":"R","topMostParentId":"490G00004931"},{"icsId":"1010060","id":"490010060W","lat":51.401463,"lon":-0.191042,"name":"Aberconway Road","parentId":"490G00010060","stationId":"490G00010060","stopLetter":"S","topMostParentId":"490G00010060"},{"icsId":"1000151","id":"490000151L","lat":51.402,"lon":-0.194917,"name":"Morden Station","parentId":"490G00151H","stationId":"490G00151H","stopLetter":"N","topMostParentId":"940GZZLUMDN","zone":"4"}]}]}