{"direction":"inbound","lineId":"n199","lineName":"N199","mode":"bus","stopPointSequences":[{"stopPoint":[{"icsId":"1001271","id":"490001271SA","lat":51.395742,"lon":0.107206,"name":"St Mary Cray Station","parentId":"490G01271SB","stationId":"490G01271SB","stopLetter":"SA","topMostParentId":"910GSTMRYC"},{"icsId":"1015962","id":"490015962E","lat":51.397262,"lon":0.109662,"name":"Murray Road","parentId":"490G00015962","stationId":"490G00015962","stopLetter":"S","topMostParentId":"490G00015962"},{"icsId":"1010455","id":"490010455SG","lat":51.393038,"lon":0.111537,"name":"Nugent Retail Park","parentId":"490G00010455","stationId":"490G00010455","stopLetter":"SG","topMostParentId":"490G00010455"},{"icsId":"1012563","id":"490012563SH","lat":51.390414,"lon":0.11041,"name":"Stanley Way","parentId":"490G00012563","stationId":"490G00012563","stopLetter":"SH","topMostParentId":"490G00012563"},{"icsId":"1008673","id":"490011155ST","lat":51.38878,"lon":0.109746,"name":"Kent Road","parentId":"490G00008673","stationId":"490G00008673","stopLetter":"ST","topMostParentId":"490G00008673"},{"icsId":"1004801","id":"490004801S1","lat":51.38163,"lon":0.105781,"name":"High Street / Carlton Parade","parentId":"490G00004801","stationId":"490G00004801","stopLetter":"P","topMostParentId":"490G00004801"},{"icsId":"1010635","id":"490010635W","lat":51.37927,"lon":0.102526,"name":"High Street / Church Hill","parentId":"490G00010635","stationId":"490G00010635","stopLetter":"W","topMostParentId":"490G00010635"},{"icsId":"1014142","id":"490014142U","lat":51.377089,"lon":0.100285,"name":"Walnuts Centre","parentId":"490G00014142","stationId":"490G00014142","stopLetter":"U","topMostParentId":"490G00014142"},{"icsId":"1019892","id":"490015411S","lat":51.374282,"lon":0.098317,"name":"High Street / Orpington War Memorial","parentId":"490G00019892","stationId":"490G00019892","stopLetter":"S","topMostParentId":"490G00019892"},{"icsId":"1013818","id":"490013818J","lat":51.371761,"lon":0.091449,"name":"Tubbenden Lane","parentId":"490G00013818","stationId":"490G00013818","stopLetter":"J","topMostParentId":"490G00013818"},{"icsId":"1001220","id":"490001220A","lat":51.372711,"lon":0.087095,"name":"Orpington Station","parentId":"490G01220B","stationId":"490G01220B","stopLetter":"A","topMostParentId":"910GORPNGTN"},{"icsId":"1011150","id":"490011150W","lat":51.373119,"lon":0.078809,"name":"Pound Court Drive","parentId":"490G00011150","stationId":"490G00011150","stopLetter":"CA","topMostParentId":"490G00011150"},{"icsId":"1005788","id":"490005788N","lat":51.374183,"lon":0.075624,"name":"Crofton Lane / Crofton Road","parentId":"490G00005788","stationId":"490G00005788","stopLetter":"CE","topMostParentId":"490G00005788"},{"icsId":"1012952","id":"490012952N","lat":51.375778,"lon":0.076458,"name":"St Thomas Drive","parentId":"490G00012952","stationId":"490G00012952","stopLetter":"CF","topMostParentId":"490G00012952"},{"icsId":"1011033","id":"490011033N","lat":51.378841,"lon":0.07868,"name":"Place Farm Avenue","parentId":"490G00011033","stationId":"490G00011033","stopLetter":"CH","topMostParentId":"490G00011033"},{"icsId":"1005792","id":"490005792N","lat":51.380809,"lon":0.07979,"name":"Crofton School","parentId":"490G00005792","stationId":"490G00005792","topMostParentId":"490G00005792"},{"icsId":"1008551","id":"490008551N2","lat":51.384684,"lon":0.077278,"name":"Jersey Drive","parentId":"490G00008551","stationId":"490G00008551","stopLetter":"->N","topMostParentId":"490G00008551"},{"icsId":"1010976","id":"490010976C","lat":51.388711,"lon":0.072803,"name":"Queensway / Petts Wood Station","parentId":"490G000703","stationId":"490G000703","stopLetter":"C","topMostParentId":"490G000703"},{"icsId":"1010977","id":"490010977E","lat":51.389538,"lon":0.070814,"name":"Petts Wood Library","parentId":"490G00010977","stationId":"490G00010977","stopLetter":"E","topMostParentId":"490G00010977"},{"icsId":"1005738","id":"490005738W","lat":51.388614,"lon":0.067122,"name":"Crescent Drive","parentId":"490G00005738","stationId":"490G00005738","topMostParentId":"490G00005738"},{"icsId":"1010693","id":"490010693W","lat":51.388611,"lon":0.063729,"name":"Oxhawth Crescent / East Arm","parentId":"490G00010693","stationId":"490G00010693","stopLetter":"G","topMostParentId":"490G00010693"},{"icsId":"1010694","id":"490010694W","lat":51.389429,"lon":0.059138,"name":"Oxhawth Crescent / West Arm","parentId":"490G00010694","stationId":"490G00010694","stopLetter":"H","topMostParentId":"490G00010694"},{"icsId":"1004055","id":"490004055W","lat":51.390373,"lon":0.052985,"name":"Southborough Lane / Blackbrook Lane","parentId":"490G00004055","stationId":"490G00004055","stopLetter":"J","topMostParentId":"490G00004055"},{"icsId":"1013351","id":"490013351W","lat":51.389728,"lon":0.050312,"name":"The Fairway","parentId":"490G00013351","stationId":"490G00013351","stopLetter":"->W","topMostParentId":"490G00013351"},{"icsId":"1012253","id":"490012253W","lat":51.389535,"lon":0.043332,"name":"Southborough Library","parentId":"490G00012253","stationId":"490G00012253","stopLetter":"->W","topMostParentId":"490G00012253"},{"icsId":"1005838","id":"490005838W1","lat":51.388836,"lon":0.038026,"name":"Newton Terrace","parentId":"490G00005838","stationId":"490G00005838","stopLetter":"BD","topMostParentId":"490G00005838"},{"icsId":"1008573","id":"490008573N","lat":51.389994,"lon":0.034498,"name":"Bromley Common / The Crown","parentId":"490G00008573","stationId":"490G00008573","stopLetter":"BU","topMostParentId":"490G00008573"},{"icsId":"1012309","id":"490012309W","lat":51.39311,"lon":0.030094,"name":"Southlands Road","parentId":"490G00012309","stationId":"490G00012309","stopLetter":"BV","topMostParentId":"490G00012309"},{"icsId":"1008330","id":"490008330N","lat":51.394713,"lon":0.026844,"name":"Homesdale Road","parentId":"490G00008330","stationId":"490G00008330","stopLetter":"PH","topMostParentId":"490G00008330"},{"icsId":"1003934","id":"490003934W","lat":51.396919,"lon":0.023075,"name":"Bertha James Day Centre","parentId":"490G00003934","stationId":"490G00003934","stopLetter":"BJ","topMostParentId":"490G00003934"},{"icsId":"1004423","id":"490004423TA","lat":51.398404,"lon":0.019359,"name":"Cromwell Avenue","parentId":"490G00004423","stationId":"490G00004423","stopLetter":"H","topMostParentId":"490G00004423"},{"icsId":"1001037","id":"490001037A","lat":51.400346,"lon":0.016785,"name":"Bromley South Station","parentId":"490G01037U","stationId":"490G01037U","stopLetter":"A","topMostParentId":"910GBROMLYS"},{"icsId":"1004410","id":"490004410V","lat":51.402801,"lon":0.01675,"name":"Elmfield Road / The Mall","parentId":"490G00004410","stationId":"490G00004410","stopLetter":"V","topMostParentId":"490G00004410"},{"icsId":"1008665","id":"490008665Q","lat":51.404237,"lon":0.018495,"name":"Bromley Civic Centre","parentId":"490G00008665","stationId":"490G00008665","stopLetter":"S","topMostParentId":"490G00008665"},{"icsId":"1004435","id":"4900004408P","lat":51.406046,"lon":0.016849,"name":"Bromley Town Hall","parentId":"490G00004435","stationId":"490G00004435","stopLetter":"P","topMostParentId":"490G00004435"},{"icsId":"1004409","id":"490004408Z","lat":51.406161,"lon":0.013288,"name":"High Street / Market Square","parentId":"490G00004409","stationId":"490G00004409","stopLetter":"Z","topMostParentId":"490G00004409"},{"icsId":"1004419","id":"490004419B","lat":51.407834,"lon":0.011205,"name":"Bromley Magistrates Court","parentId":"490G00004419","stationId":"490G00004419","stopLetter":"F","topMostParentId":"490G00004419"},{"icsId":"1006765","id":"490006765N2","lat":51.411338,"lon":0.009274,"name":"Farwig Lane","parentId":"490G00006765","stationId":"490G00006765","topMostParentId":"490G00006765"},{"icsId":"1014230","id":"490014230N","lat":51.413424,"lon":0.00774,"name":"Warner Road","parentId":"490G00014230","stationId":"490G00014230","stopLetter":"->N","topMostParentId":"490G00014230"},{"icsId":"1010748","id":"490010748N","lat":51.416265,"lon":0.005146,"name":"Park Avenue","parentId":"490G00010748","stationId":"490G00010748","stopLetter":"DD","topMostParentId":"490G00010748"},{"icsId":"1004418","id":"490004418S2","lat":51.41753,"lon":0.003231,"name":"Bromley Court Hotel","parentId":"490G00004418","stationId":"490G00004418","stopLetter":"DE","topMostParentId":"490G00004418"},{"icsId":"1004422","id":"490004422N","lat":51.419283,"lon":0.000633,"name":"Bromley Hill Cemetery","parentId":"490G00004422","stationId":"490G00004422","stopLetter":"DF","topMostParentId":"490G00004422"},{"icsId":"1003438","id":"490003438S1","lat":51.422086,"lon":-0.002395,"name":"Ashgrove Road","parentId":"490G00003438","stationId":"490G00003438","stopLetter":"DJ","topMostParentId":"490G00003438"},{"icsId":"1004430","id":"490004430N","lat":51.42479,"lon":-0.004348,"name":"Bromley Road / Downham Way","parentId":"490G00004430","stationId":"490G00004430","stopLetter":"DK","topMostParentId":"490G00004430"},{"icsId":"1010528","id":"490010528N","lat":51.4261,"lon":-0.006808,"name":"Old Bromley Road","parentId":"490G00010528","stationId":"490G00010528","stopLetter":"SU","topMostParentId":"490G00010528"},{"icsId":"1012286","id":"490012286N1","lat":51.426736,"lon":-0.009845,"name":"Green Man Community Hub","parentId":"490G00012286","stationId":"490G00012286","stopLetter":"SV","topMostParentId":"490G00012286"},{"icsId":"1013572","id":"490013572N","lat":51.429029,"lon":-0.014047,"name":"Southend Lane","parentId":"490G00013572","stationId":"490G00013572","stopLetter":"SW","topMostParentId":"490G00013572"},{"icsId":"1004866","id":"490004866N","lat":51.431015,"lon":-0.015586,"name":"Catford Police Station","parentId":"490G00004866","stationId":"490G00004866","stopLetter":"BA","topMostParentId":"490G00004866"},{"icsId":"1003852","id":"490003852A","lat":51.432575,"lon":-0.017418,"name":"Bellingham Road","parentId":"490G000410","stationId":"490G000410","stopLetter":"BB","topMostParentId":"490G000410"},{"icsId":"1010248","id":"490010248N","lat":51.43655,"lon":-0.018483,"name":"Newquay Road","parentId":"490G00010248","stationId":"490G00010248","stopLetter":"BC","topMostParentId":"490G00010248"},{"icsId":"1005020","id":"490005020N","lat":51.438406,"lon":-0.019237,"name":"Inchmery Road","parentId":"490G00005020","stationId":"490G00005020","stopLetter":"BD","topMostParentId":"490G00005020"},{"icsId":"1003596","id":"490003596N","lat":51.440544,"lon":-0.020713,"name":"Bargery Road","parentId":"490G00003596","stationId":"490G00003596","topMostParentId":"490G00003596"},{"icsId":"1015150","id":"490015150W","lat":51.443813,"lon":-0.020456,"name":"Bromley Road / Lewisham Town Hall","parentId":"490G00015150","stationId":"490G00015150","stopLetter":"W","topMostParentId":"490G00015150"},{"icsId":"1013282","id":"490013282A","lat":51.447111,"lon":-0.018731,"name":"The Catford Centre","parentId":"490G00013282","stationId":"490G00013282","stopLetter":"A","topMostParentId":"490G00013282"},{"icsId":"1011703","id":"490011703HE","lat":51.449254,"lon":-0.017242,"name":"Rosenthal Road","parentId":"490G00011703","stationId":"490G00011703","stopLetter":"B","topMostParentId":"490G00011703"},{"icsId":"1000914","id":"490007163HF","lat":51.451703,"lon":-0.016934,"name":"Mount Pleasant Road","parentId":"490G000231","stationId":"490G000231","stopLetter":"HF","topMostParentId":"490G000231"},{"icsId":"1009109","id":"490009109HH","lat":51.452866,"lon":-0.016582,"name":"Lewisham Hospital","parentId":"490G00009109","stationId":"490G00009109","stopLetter":"HH","topMostParentId":"490G00009109"},{"icsId":"1009113","id":"490009113HJ","lat":51.454549,"lon":-0.016106,"name":"Lewisham Park","parentId":"490G00009113","stationId":"490G00009113","stopLetter":"HJ","topMostParentId":"490G00009113"},{"icsId":"1009111","id":"490009111HL","lat":51.457145,"lon":-0.013791,"name":"Lewisham Fire Station","parentId":"490G00009111","stationId":"490G00009111","stopLetter":"HL","topMostParentId":"490G00009111"},{"icsId":"1009105","id":"490009105V","lat":51.461127,"lon":-0.010494,"name":"Lewisham Centre","parentId":"490G00009105","stationId":"490G00009105","stopLetter":"V","topMostParentId":"490G00009105"},{"icsId":"1009106","id":"490009106P","lat":51.462779,"lon":-0.010379,"name":"Lewisham Clock Tower","parentId":"490G00009106","stationId":"490G00009106","stopLetter":"P","topMostParentId":"490G00009106"},{"icsId":"1001177","id":"490009104A","lat":51.464369,"lon":-0.011318,"name":"Lewisham Station","parentId":"490G01177G","stationId":"490G01177G","stopLetter":"G","topMostParentId":"HUBLEW","zone":"2+3"},{"icsId":"1004068","id":"490004068N","lat":51.467881,"lon":-0.01213,"name":"Blackheath Rise","parentId":"490G00004068","stationId":"490G00004068","stopLetter":"ED","topMostParentId":"490G00004068"},{"icsId":"1010022","id":"490010022C","lat":51.469316,"lon":-0.013521,"name":"Morden Hill","parentId":"490G00010022","stationId":"490G00010022","stopLetter":"EC","topMostParentId":"490G00010022"},{"icsId":"1012371","id":"490012371N","lat":51.471573,"lon":-0.015108,"name":"Sparta Street","parentId":"490G00012371","stationId":"490G00012371","stopLetter":"D","topMostParentId":"490G00012371"},{"icsId":"1015265","id":"490015265N","lat":51.473797,"lon":-0.014695,"name":"Greenwich South Street / Blackheath Road","parentId":"490G00015265","stationId":"490G00015265","stopLetter":"E","topMostParentId":"490G00015265"},{"icsId":"1003411","id":"490003411N","lat":51.475263,"lon":-0.013133,"name":"Ashburnham Grove","parentId":"490G00003411","stationId":"490G00003411","stopLetter":"F","topMostParentId":"490G00003411"},{"icsId":"1001123","id":"490001123R","lat":51.477266,"lon":-0.012485,"name":"Greenwich Station","parentId":"490G01123L","stationId":"490G01123L","stopLetter":"R","topMostParentId":"HUBGNW","zone":"2+3"},{"icsId":"1007513","id":"490007513H","lat":51.479589,"lon":-0.010007,"name":"Greenwich High Road / Roan Street","parentId":"490G00007513","stationId":"490G00007513","stopLetter":"H","topMostParentId":"490G00007513"},{"icsId":"1007507","id":"490007507B","lat":51.481199,"lon":-0.009981,"name":"Greenwich Church Street","parentId":"490G000547","stationId":"490G000547","stopLetter":"B","topMostParentId":"490G000547"},{"icsId":"1010309","id":"490010309W","lat":51.481365,"lon":-0.013934,"name":"Creek Road / Norman Road","parentId":"490G00010309","stationId":"490G00010309","stopLetter":"W","topMostParentId":"490G00010309"},{"icsId":"1005736","id":"490005736W","lat":51.48122,"lon":-0.018146,"name":"Creekside","parentId":"490G00005736","stationId":"490G00005736","stopLetter":"G","topMostParentId":"490G00005736"},{"icsId":"1011687","id":"490011687H","lat":51.4808,"lon":-0.022052,"name":"Macmillan Students Village","parentId":"490G00011687","stationId":"490G00011687","stopLetter":"H","topMostParentId":"490G00011687"},{"icsId":"1006050","id":"490006050A","lat":51.481793,"lon":-0.027626,"name":"Deptford High Street","parentId":"490G00006050","stationId":"490G00006050","stopLetter":"A","topMostParentId":"490G00006050"},{"icsId":"1007585","id":"490007585W","lat":51.483798,"lon":-0.031846,"name":"Abinger Grove","parentId":"490G00007585","stationId":"490G00007585","stopLetter":"N","topMostParentId":"490G00007585"},{"icsId":"1006049","id":"490006049N","lat":51.485349,"lon":-0.034228,"name":"Deptford Fire Station","parentId":"490G00006049","stationId":"490G00006049","stopLetter":"P","topMostParentId":"490G00006049"},{"icsId":"1006052","id":"490006052N","lat":51.488309,"lon":-0.037039,"name":"Deptford Park School","parentId":"490G00006052","stationId":"490G00006052","stopLetter":"R","topMostParentId":"490G00006052"},{"icsId":"1011605","id":"490011605N","lat":51.488953,"lon":-0.034678,"name":"Riverside Youth Club","parentId":"490G00011605","stationId":"490G00011605","stopLetter":"S","topMostParentId":"490G00011605"},{"icsId":"1007582","id":"490007582N","lat":51.490496,"lon":-0.034439,"name":"Windlass Place","parentId":"490G00007582","stationId":"490G00007582","stopLetter":"->N","topMostParentId":"490G00007582"},{"icsId":"1016665","id":"490016665N","lat":51.492332,"lon":-0.034562,"name":"Grove Street / Plough Way","parentId":"490G00016665","stationId":"490G00016665","stopLetter":"->N","topMostParentId":"490G00016665"},{"icsId":"1006258","id":"490006258W","lat":51.492362,"lon":-0.036318,"name":"Dunnage Crescent","parentId":"490G00006258","stationId":"490G00006258","stopLetter":"->W","topMostParentId":"490G00006258"},{"icsId":"1015001","id":"490015001W","lat":51.492578,"lon":-0.041149,"name":"Yeoman Street","parentId":"490G00015001","stationId":"490G00015001","stopLetter":"->W","topMostParentId":"490G00015001"},{"icsId":"1000229","id":"490000229O","lat":51.492711,"lon":-0.048101,"name":"Surrey Quays Station","parentId":"490G00229O","stationId":"490G00229O","stopLetter":"S","topMostParentId":"910GSURREYQ"},{"icsId":"1011723","id":"490011723P","lat":51.495359,"lon":-0.05159,"name":"Rotherhithe Police Station","parentId":"490G00011723","stationId":"490G00011723","stopLetter":"P","topMostParentId":"490G00011723"},{"icsId":"1004733","id":"490004733B","lat":51.49815,"lon":-0.050145,"name":"Canada Water Bus Station","parentId":"490G000438","stationId":"490G000438","stopLetter":"B1","topMostParentId":"HUBZCW"},{"icsId":"1010176","id":"490010176N","lat":51.497477,"lon":-0.054049,"name":"Neptune Street / St Olaves Estate","parentId":"490G000670","stationId":"490G000670","stopLetter":"R","topMostParentId":"490G000670"},{"icsId":"1012349","id":"490012349C","lat":51.498799,"lon":-0.057264,"name":"Southwark Park","parentId":"490G00012349","stationId":"490G00012349","stopLetter":"C","topMostParentId":"490G00012349"},{"icsId":"1006202","id":"490006202B","lat":51.498396,"lon":-0.061733,"name":"Drummond Road","parentId":"490G00006202","stationId":"490G00006202","stopLetter":"B","topMostParentId":"490G00006202"},{"icsId":"1000021","id":"490000021W","lat":51.498051,"lon":-0.064773,"name":"Bermondsey Station","parentId":"490G00021W","stationId":"490G00021W","stopLetter":"A","topMostParentId":"940GZZLUBMY","zone":"2"},{"icsId":"1012729","id":"490012729W","lat":51.497981,"lon":-0.067643,"name":"St James's Road","parentId":"490G000765","stationId":"490G000765","stopLetter":"C","topMostParentId":"490G000765"},{"icsId":"1003034","id":"490003034W","lat":51.498932,"lon":-0.070801,"name":"Jamaica Road / Abbey Street","parentId":"490G00003034","stationId":"490G00003034","stopLetter":"D","topMostParentId":"490G00003034"},{"icsId":"1006091","id":"490006091W","lat":51.500008,"lon":-0.072802,"name":"Dockhead","parentId":"490G00006091","stationId":"490G00006091","stopLetter":"E","topMostParentId":"490G00006091"},{"icsId":"1013154","id":"490013154A","lat":51.500843,"lon":-0.074899,"name":"Tanner Street","parentId":"490G00013154","stationId":"490G00013154","stopLetter":"A","topMostParentId":"490G00013154"},{"icsId":"1013745","id":"490013745T","lat":51.502132,"lon":-0.077294,"name":"Boss Street","parentId":"490G00013745","stationId":"490G00013745","stopLetter":"T","topMostParentId":"490G00013745"},{"icsId":"1019766","id":"490016580M","lat":51.503549,"lon":-0.080318,"name":"Tooley Street / City Hall","parentId":"490G00019766","stationId":"490G00019766","stopLetter":"M","topMostParentId":"490G00019766"},{"icsId":"1000139","id":"490000139S","lat":51.50593,"lon":-0.087351,"name":"London Bridge Station","parentId":"490G00139R","stationId":"490G00139R","stopLetter":"S","topMostParentId":"HUBLBG","zone":"1"},{"icsId":"1018542","id":"490000139M","lat":51.506555,"lon":-0.088175,"name":"London Bridge","parentId":"490G000922","stationId":"490G000922","stopLetter":"M","topMostParentId":"HUBLBG"},{"icsId":"1000148","id":"490009267D","lat":51.509466,"lon":-0.087476,"name":"Monument Station","parentId":"490G09267E","stationId":"490G09267E","stopLetter":"Q","topMostParentId":"940GZZLUMMT","zone":"1"},{"icsId":"1000040","id":"490000040A","lat":51.511346,"lon":-0.089185,"name":"Cannon Street Station","parentId":"490G00040E","stationId":"490G00040E","stopLetter":"MA","topMostParentId":"HUBCST","zone":"1"},{"icsId":"1010200","id":"490010200C","lat":51.512912,"lon":-0.096959,"name":"St Paul's Churchyard","parentId":"490G00010200","stationId":"490G00010200","stopLetter":"SH","topMostParentId":"490G00010200"},{"icsId":"1012873","id":"490012873B","lat":51.513387,"lon":-0.099635,"name":"St Paul's Cathedral","parentId":"490G00012873","stationId":"490G00012873","stopLetter":"SJ","topMostParentId":"490G00012873"},{"icsId":"1019767","id":"490009443F","lat":51.514124,"lon":-0.103524,"name":"City Thameslink Stn  / Ludgate Circus","parentId":"490G00019767","stationId":"490G00019767","stopLetter":"F","topMostParentId":"490G00019767"},{"icsId":"1012105","id":"490012105HB","lat":51.514084,"lon":-0.106639,"name":"Shoe Lane","parentId":"490G00012105","stationId":"490G00012105","stopLetter":"H","topMostParentId":"490G00012105"},{"icsId":"1006826","id":"490006826W","lat":51.51414,"lon":-0.108395,"name":"Fetter Lane","parentId":"490G00006826","stationId":"490G00006826","stopLetter":"->W","topMostParentId":"490G00006826"},{"icsId":"1015067","id":"490015067W","lat":51.513876,"lon":-0.110438,"name":"Chancery Lane","parentId":"490G00015067","stationId":"490G00015067","stopLetter":"->W","topMostParentId":"490G00015067"},{"icsId":"1011757","id":"490011757P","lat":51.512963,"lon":-0.113531,"name":"The Royal Courts Of Justice","parentId":"490G000731","stationId":"490G000731","stopLetter":"P","topMostParentId":"490G000731"},{"icsId":"1003193","id":"490003193R","lat":51.5121,"lon":-0.116291,"name":"Aldwych / Somerset House","parentId":"490G000386","stationId":"490G000386","stopLetter":"R","topMostParentId":"490G000386"},{"icsId":"1011938","id":"490011938U","lat":51.510773,"lon":-0.120481,"name":"Savoy Street","parentId":"490G000737","stationId":"490G000737","stopLetter":"U","topMostParentId":"490G000737"},{"icsId":"1003112","id":"490003112J","lat":51.509674,"lon":-0.123193,"name":"Bedford Street","parentId":"490G00003112","stationId":"490G00003112","stopLetter":"J","topMostParentId":"490G00003112"},{"icsId":"1013766","id":"490013766K","lat":51.508007,"lon":-0.126345,"name":"Trafalgar Square / Charing Cross Stn","parentId":"490G000803","stationId":"490G000803","stopLetter":"K","topMostParentId":"HUBCHX"}]}]}