{"direction":"inbound","lineId":"n20","lineName":"N20","mode":"bus","stopPointSequences":[{"stopPoint":[{"icsId":"1013767","id":"490013767C","lat":51.508123,"lon":-0.127406,"name":"Trafalgar Sq / Charing Cross Stn","parentId":"490G000804","stationId":"490G000804","stopLetter":"C","topMostParentId":"490G000804"},{"icsId":"1000135","id":"490000135A","lat":51.51055,"lon":-0.128474,"name":"Leicester Square Station","parentId":"490G00135B","stationId":"490G00135B","stopLetter":"L","topMostParentId":"940GZZLULSQ","zone":"1"},{"icsId":"1004695","id":"490004695N","lat":51.512514,"lon":-0.128711,"name":"Cambridge Circus","parentId":"490G00004695","stationId":"490G00004695","stopLetter":"M","topMostParentId":"490G00004695"},{"icsId":"1019157","id":"490004695A","lat":51.514339,"lon":-0.129803,"name":"Denmark Street","parentId":"490G00019157","stationId":"490G00019157","stopLetter":"A","topMostParentId":"490G00019157"},{"icsId":"1000235","id":"490000235C","lat":51.517319,"lon":-0.131137,"name":"Tottenham Court Road Station","parentId":"490G00235C","stationId":"490G00235C","stopLetter":"C","topMostParentId":"940GZZLUTCR","zone":"1"},{"icsId":"1000089","id":"490000089A","lat":51.521131,"lon":-0.135032,"name":"Goodge Street Station","parentId":"490G00089B","stationId":"490G00089B","stopLetter":"A","topMostParentId":"940GZZLUGDG","zone":"1"},{"icsId":"1000252","id":"490000252X","lat":51.524095,"lon":-0.137678,"name":"Warren Street Station","parentId":"490G00252X","stationId":"490G00252X","stopLetter":"X","topMostParentId":"940GZZLUWRR","zone":"1"},{"icsId":"1000078","id":"490000078Q","lat":51.525602,"lon":-0.136853,"name":"Euston Square Station","parentId":"490G00078P","stationId":"490G00078P","stopLetter":"Q","topMostParentId":"940GZZLUESQ","zone":"1"},{"icsId":"1000077","id":"490000077C","lat":51.527378,"lon":-0.132628,"name":"Euston Station","parentId":"490G00077G","stationId":"490G00077G","stopLetter":"C","topMostParentId":"HUBEUS","zone":"1"},{"icsId":"1009503","id":"490000077A","lat":51.528889,"lon":-0.132624,"name":"Euston Station  / Eversholt Street","parentId":"490G000651","stationId":"490G000651","stopLetter":"A","topMostParentId":"HUBEUS"},{"icsId":"1003174","id":"490003174N","lat":51.531579,"lon":-0.135542,"name":"Aldenham Street","parentId":"490G00003174","stationId":"490G00003174","stopLetter":"T","topMostParentId":"490G00003174"},{"icsId":"1000152","id":"490000152A","lat":51.534031,"lon":-0.13932,"name":"Mornington Crescent Station","parentId":"490G00152G","stationId":"490G00152G","stopLetter":"A","topMostParentId":"940GZZLUMTC","zone":"2"},{"icsId":"1004714","id":"490004714E","lat":51.536275,"lon":-0.140728,"name":"Camden High Street","parentId":"490G000437","stationId":"490G000437","stopLetter":"E","topMostParentId":"490G000437"},{"icsId":"1000036","id":"490015041Y","lat":51.538013,"lon":-0.142042,"name":"Camden Town Station","parentId":"490G00036N","stationId":"490G00036N","stopLetter":"Y","topMostParentId":"940GZZLUCTN","zone":"2"},{"icsId":"1008663","id":"490000036L","lat":51.53995,"lon":-0.142251,"name":"Kentish Town Road","parentId":"490G00008663","stationId":"490G00008663","stopLetter":"L","topMostParentId":"490G00008663"},{"icsId":"1007927","id":"490007927A","lat":51.542123,"lon":-0.142047,"name":"Hawley Road","parentId":"490G00007927","stationId":"490G00007927","stopLetter":"A","topMostParentId":"490G00007927"},{"icsId":"1019924","id":"490011199R","lat":51.546032,"lon":-0.141903,"name":"Prince Of Wales Road","parentId":"490G00019924","stationId":"490G00019924","stopLetter":"KM","topMostParentId":"490G00019924"},{"icsId":"1004894","id":"490004894L","lat":51.548789,"lon":-0.141084,"name":"Kentish Town Post Office","parentId":"490G00004894","stationId":"490G00004894","stopLetter":"KE","topMostParentId":"490G00004894"},{"icsId":"1000123","id":"490000123B","lat":51.551368,"lon":-0.140978,"name":"Kentish Town Station","parentId":"490G00123B","stationId":"490G00123B","stopLetter":"KF","topMostParentId":"HUBKTN","zone":"2"},{"icsId":"1008661","id":"490008661N","lat":51.553436,"lon":-0.140937,"name":"Fortess Walk","parentId":"490G00008661","stationId":"490G00008661","stopLetter":"TP","topMostParentId":"490G00008661"},{"icsId":"1008904","id":"490008904N1","lat":51.554993,"lon":-0.139907,"name":"Lady Somerset Road","parentId":"490G00008904","stationId":"490G00008904","stopLetter":"TR","topMostParentId":"490G00008904"},{"icsId":"1000239","id":"490005973F","lat":51.55621,"lon":-0.138992,"name":"Tufnell Park Station","parentId":"490G00239A","stationId":"490G00239A","stopLetter":"TS","topMostParentId":"940GZZLUTFP","zone":"2"},{"icsId":"1000722","id":"490015053J","lat":51.557937,"lon":-0.138417,"name":"Fulbrook Road","parentId":"490G000132","stationId":"490G000132","stopLetter":"TT","topMostParentId":"490G000132"},{"icsId":"1009985","id":"490009985N","lat":51.559642,"lon":-0.13764,"name":"Monnery Road","parentId":"490G00009985","stationId":"490G00009985","stopLetter":"TU","topMostParentId":"490G00009985"},{"icsId":"1003989","id":"490003989Y","lat":51.561999,"lon":-0.136577,"name":"Pemberton Gardens","parentId":"490G00003989","stationId":"490G00003989","stopLetter":"T","topMostParentId":"490G00003989"},{"icsId":"1000008","id":"490000008U","lat":51.564932,"lon":-0.134957,"name":"Archway Station","parentId":"490G00008O","stationId":"490G00008O","stopLetter":"U","topMostParentId":"940GZZLUACY","zone":"2+3"},{"icsId":"1014277","id":"490014277N","lat":51.569139,"lon":-0.137122,"name":"Waterlow Road","parentId":"490G00014277","stationId":"490G00014277","stopLetter":"X","topMostParentId":"490G00014277"},{"icsId":"1008943","id":"490008943N","lat":51.572153,"lon":-0.140058,"name":"Langdon Park Road","parentId":"490G00008943","stationId":"490G00008943","stopLetter":"HX","topMostParentId":"490G00008943"},{"icsId":"1010433","id":"490010433N","lat":51.574232,"lon":-0.141907,"name":"Northwood Road","parentId":"490G00010433","stationId":"490G00010433","stopLetter":"F","topMostParentId":"490G00010433"},{"icsId":"1000109","id":"490012359E","lat":51.575953,"lon":-0.143251,"name":"Highgate Station","parentId":"490G00109S","stationId":"490G00109S","stopLetter":"G","topMostParentId":"940GZZLUHGT","zone":"3"},{"icsId":"1010136","id":"490012363N","lat":51.577952,"lon":-0.147947,"name":"Muswell Hill Road","parentId":"490G00010136","stationId":"490G00010136","stopLetter":"H","topMostParentId":"490G00010136"},{"icsId":"1013147","id":"490013147N","lat":51.579911,"lon":-0.152457,"name":"Talbot Road / North Hill","parentId":"490G00013147","stationId":"490G00013147","stopLetter":"J","topMostParentId":"490G00013147"},{"icsId":"1014894","id":"490014894N","lat":51.58252,"lon":-0.15824,"name":"Woodside Avenue","parentId":"490G00014894","stationId":"490G00014894","stopLetter":"K","topMostParentId":"490G00014894"},{"icsId":"1013265","id":"490013265N","lat":51.585323,"lon":-0.163237,"name":"The Bishops Avenue","parentId":"490G00013265","stationId":"490G00013265","stopLetter":"D","topMostParentId":"490G00013265"},{"icsId":"1000067","id":"490000067E","lat":51.586589,"lon":-0.164254,"name":"East Finchley Station","parentId":"490G00067G","stationId":"490G00067G","stopLetter":"E","topMostParentId":"940GZZLUEFY","zone":"3"},{"icsId":"1013254","id":"490013254I","lat":51.588647,"lon":-0.164171,"name":"Fairlawn Avenue","parentId":"490G00013254","stationId":"490G00013254","stopLetter":"S","topMostParentId":"490G00013254"},{"icsId":"1003043","id":"490003043W","lat":51.589194,"lon":-0.169851,"name":"Abbots Gardens","parentId":"490G00003043","stationId":"490G00003043","topMostParentId":"490G00003043"},{"icsId":"1013799","id":"490013799W","lat":51.590782,"lon":-0.173642,"name":"Trinity Avenue","parentId":"490G00013799","stationId":"490G00013799","topMostParentId":"490G00013799"},{"icsId":"1010656","id":"490010656W2","lat":51.592009,"lon":-0.179714,"name":"Ossulton Way","parentId":"490G00010656","stationId":"490G00010656","stopLetter":"G","topMostParentId":"490G00010656"},{"icsId":"1006353","id":"490006353E1","lat":51.592869,"lon":-0.181816,"name":"East Finchley Cemetery","parentId":"490G00006353","stationId":"490G00006353","stopLetter":"H","topMostParentId":"490G00006353"},{"icsId":"1003670","id":"490003670W","lat":51.594582,"lon":-0.186729,"name":"Basing Way","parentId":"490G00003670","stationId":"490G00003670","stopLetter":"D","topMostParentId":"490G00003670"},{"icsId":"1009594","id":"490009594W1","lat":51.595858,"lon":-0.189566,"name":"Manor View","parentId":"490G00009594","stationId":"490G00009594","stopLetter":"E","topMostParentId":"490G00009594"},{"icsId":"1008311","id":"490008311W","lat":51.596382,"lon":-0.192693,"name":"Holmwood Gardens","parentId":"490G00008311","stationId":"490G00008311","stopLetter":"F","topMostParentId":"490G00008311"},{"icsId":"1005254","id":"490005254W","lat":51.596713,"lon":-0.197228,"name":"Church End","parentId":"490G00005254","stationId":"490G00005254","stopLetter":"G","topMostParentId":"490G00005254"},{"icsId":"1008054","id":"490008054J","lat":51.598883,"lon":-0.196838,"name":"Hendon Lane","parentId":"490G00008054","stationId":"490G00008054","stopLetter":"J","topMostParentId":"490G00008054"},{"icsId":"1015495","id":"490015495E","lat":51.60071,"lon":-0.194614,"name":"Dollis Park / Finchley Central Stn","parentId":"490G000903","stationId":"490G000903","stopLetter":"E","topMostParentId":"490G000903"},{"icsId":"1000081","id":"490000081C","lat":51.602552,"lon":-0.192159,"name":"Finchley Central Station","parentId":"490G00081W","stationId":"490G00081W","stopLetter":"C","topMostParentId":"940GZZLUFYC","zone":"4"},{"icsId":"1009322","id":"490009322A","lat":51.605156,"lon":-0.188402,"name":"Long Lane","parentId":"490G00009322","stationId":"490G00009322","stopLetter":"A","topMostParentId":"490G00009322"},{"icsId":"1006642","id":"490006642N","lat":51.607278,"lon":-0.185501,"name":"Victoria Park","parentId":"490G000508","stationId":"490G000508","stopLetter":"NN","topMostParentId":"490G000508"},{"icsId":"1007373","id":"490007373F3","lat":51.608871,"lon":-0.182679,"name":"Granville Road","parentId":"490G00007373","stationId":"490G00007373","stopLetter":"KK","topMostParentId":"490G00007373"},{"icsId":"1014813","id":"490014813J","lat":51.61129,"lon":-0.179203,"name":"Woodberry Grove","parentId":"490G00014813","stationId":"490G00014813","stopLetter":"L","topMostParentId":"490G00014813"},{"icsId":"1013149","id":"490013149K","lat":51.61372,"lon":-0.17704,"name":"Tally Ho Corner","parentId":"490G00013149","stationId":"490G00013149","stopLetter":"K","topMostParentId":"490G00013149"},{"icsId":"1013718","id":"490013718B","lat":51.616739,"lon":-0.17689,"name":"Torrington Park","parentId":"490G00013718","stationId":"490G00013718","stopLetter":"C","topMostParentId":"490G00013718"},{"icsId":"1011442","id":"490011442Z","lat":51.617962,"lon":-0.176856,"name":"Ravensdale Avenue","parentId":"490G00011442","stationId":"490G00011442","stopLetter":"B","topMostParentId":"490G00011442"},{"icsId":"1013099","id":"490013099N","lat":51.621027,"lon":-0.176805,"name":"Finchley Park","parentId":"490G00013099","stationId":"490G00013099","stopLetter":"E","topMostParentId":"490G00013099"},{"icsId":"1006060","id":"490006060N","lat":51.624025,"lon":-0.176454,"name":"Derwent Crescent","parentId":"490G00006060","stationId":"490G00006060","stopLetter":"F","topMostParentId":"490G00006060"},{"icsId":"1013104","id":"490013104N","lat":51.626027,"lon":-0.1762,"name":"Swan Lane","parentId":"490G00013104","stationId":"490G00013104","stopLetter":"->N","topMostParentId":"490G00013104"},{"icsId":"1007028","id":"490007028N","lat":51.62827,"lon":-0.174723,"name":"Whetstone High Road / Friern Barnet Lane","parentId":"490G00007028","stationId":"490G00007028","stopLetter":"I","topMostParentId":"490G00007028"},{"icsId":"1015488","id":"490015488J","lat":51.631157,"lon":-0.17533,"name":"Athenaeum Road","parentId":"490G000901","stationId":"490G000901","stopLetter":"J","topMostParentId":"490G000901"},{"icsId":"1004978","id":"490004978N","lat":51.633333,"lon":-0.175936,"name":"Chandos Avenue","parentId":"490G00004978","stationId":"490G00004978","stopLetter":"K","topMostParentId":"490G00004978"},{"icsId":"1004553","id":"490004553N","lat":51.635762,"lon":-0.177168,"name":"Buckingham Avenue","parentId":"490G00004553","stationId":"490G00004553","topMostParentId":"490G00004553"},{"icsId":"1007031","id":"490007031N","lat":51.637056,"lon":-0.178258,"name":"Friern Mount Drive","parentId":"490G00007031","stationId":"490G00007031","stopLetter":"->N","topMostParentId":"490G00007031"},{"icsId":"1014131","id":"490014131N","lat":51.638669,"lon":-0.179638,"name":"Walfield Avenue","parentId":"490G00014131","stationId":"490G00014131","stopLetter":"L","topMostParentId":"490G00014131"},{"icsId":"1009489","id":"490009489N","lat":51.641892,"lon":-0.181605,"name":"Lyonsdown Road","parentId":"490G00009489","stationId":"490G00009489","stopLetter":"P","topMostParentId":"490G00009489"},{"icsId":"1006086","id":"490006086N","lat":51.643779,"lon":-0.183856,"name":"Dinsdale Gardens","parentId":"490G00006086","stationId":"490G00006086","stopLetter":"Q","topMostParentId":"490G00006086"},{"icsId":"1012613","id":"490003640N","lat":51.646089,"lon":-0.186655,"name":"Barnet Everyman Cinema","parentId":"490G00012613","stationId":"490G00012613","stopLetter":"R","topMostParentId":"490G00012613"},{"icsId":"1013897","id":"490013897N","lat":51.648139,"lon":-0.191343,"name":"Underhill","parentId":"490G00013897","stationId":"490G00013897","topMostParentId":"490G00013897"},{"icsId":"1000107","id":"490000107Q","lat":51.650081,"lon":-0.194836,"name":"High Barnet Station","parentId":"490G00107E","stationId":"490G00107E","stopLetter":"Q","topMostParentId":"940GZZLUHBT","zone":"5"},{"icsId":"1019008","id":"490003634M","lat":51.652216,"lon":-0.198582,"name":"Fitzjohn Avenue","parentId":"490G00019008","stationId":"490G00019008","stopLetter":"M","topMostParentId":"490G00019008"}]}]}