{"direction":"inbound","lineId":"n33","lineName":"N33","mode":"bus","stopPointSequences":[{"stopPoint":[{"icsId":"1007705","id":"490007705K","lat":51.49258,"lon":-0.223105,"name":"Hammersmith Bus Station","parentId":"490G000565","stationId":"490G000565","stopLetter":"K","topMostParentId":"HUBHMS"},{"icsId":"1007702","id":"490007702Z","lat":51.490957,"lon":-0.223413,"name":"Hammersmith Broadway","parentId":"490G000563","stationId":"490G000563","stopLetter":"M","topMostParentId":"490G000563"},{"icsId":"1004991","id":"490004991S","lat":51.487288,"lon":-0.221021,"name":"Charing Cross Hospital","parentId":"490G00004991","stationId":"490G00004991","stopLetter":"HA","topMostParentId":"490G00004991"},{"icsId":"1007530","id":"490007530S","lat":51.485762,"lon":-0.219985,"name":"Greyhound Road","parentId":"490G00007530","stationId":"490G00007530","stopLetter":"HB","topMostParentId":"490G00007530"},{"icsId":"1009155","id":"490009155S","lat":51.482718,"lon":-0.218534,"name":"Lillie Road","parentId":"490G00009155","stationId":"490G00009155","stopLetter":"HL","topMostParentId":"490G00009155"},{"icsId":"1008677","id":"490008677S","lat":51.480124,"lon":-0.217656,"name":"Fulham Cemetery","parentId":"490G00008677","stationId":"490G00008677","stopLetter":"HM","topMostParentId":"490G00008677"},{"icsId":"1006845","id":"490008845S","lat":51.477952,"lon":-0.216776,"name":"Kingwood Road","parentId":"490G00006845","stationId":"490G00006845","stopLetter":"FM","topMostParentId":"490G00006845"},{"icsId":"1000284","id":"490000284FQ","lat":51.47605,"lon":-0.215295,"name":"Lambrook Terrace","parentId":"490G00000284","stationId":"490G00000284","stopLetter":"FQ","topMostParentId":"490G00000284"},{"icsId":"1004044","id":"490004044S","lat":51.474279,"lon":-0.213506,"name":"Bishop's Park Road","parentId":"490G00004044","stationId":"490G00004044","stopLetter":"FN","topMostParentId":"490G00004044"},{"icsId":"1007068","id":"490007054S","lat":51.472108,"lon":-0.211518,"name":"Fulham Road","parentId":"490G00007068","stationId":"490G00007068","stopLetter":"FO","topMostParentId":"490G00007068"},{"icsId":"1007051","id":"490007051S","lat":51.470229,"lon":-0.210396,"name":"Fulham High Street / New Kings Road","parentId":"490G00007051","stationId":"490G00007051","stopLetter":"FU","topMostParentId":"490G00007051"},{"icsId":"1007281","id":"490015157T","lat":51.467814,"lon":-0.211786,"name":"Putney Bridge Stn  / Gonville Street","parentId":"490G000536","stationId":"490G000536","stopLetter":"FE","topMostParentId":"490G000536"},{"icsId":"1002026","id":"490013344P","lat":51.466428,"lon":-0.215296,"name":"Putney Pier","parentId":"490G13344P","stationId":"490G13344P","stopLetter":"P","topMostParentId":"930GPUT"},{"icsId":"1011828","id":"490011828W","lat":51.467162,"lon":-0.218564,"name":"Ruvigny Gardens","parentId":"490G00011828","stationId":"490G00011828","stopLetter":"H","topMostParentId":"490G00011828"},{"icsId":"1006825","id":"490006825W","lat":51.467978,"lon":-0.222592,"name":"Festing Road","parentId":"490G00006825","stationId":"490G00006825","stopLetter":"J","topMostParentId":"490G00006825"},{"icsId":"1012375","id":"490012375W","lat":51.468361,"lon":-0.22707,"name":"Commondale","parentId":"490G00012375","stationId":"490G00012375","stopLetter":"K","topMostParentId":"490G00012375"},{"icsId":"1001014","id":"490001014B","lat":51.466652,"lon":-0.242023,"name":"Barnes Station","parentId":"490G01014A","stationId":"490G01014A","stopLetter":"B","topMostParentId":"910GBARNES"},{"icsId":"1011642","id":"490011642F","lat":51.465199,"lon":-0.244684,"name":"Queen's Ride","parentId":"490G00011642","stationId":"490G00011642","stopLetter":"M","topMostParentId":"490G00011642"},{"icsId":"1011229","id":"490011229W","lat":51.465019,"lon":-0.249428,"name":"Priory Lane","parentId":"490G00011229","stationId":"490G00011229","stopLetter":"N","topMostParentId":"490G00011229"},{"icsId":"1011184","id":"490011184W","lat":51.465144,"lon":-0.254188,"name":"Priests Bridge","parentId":"490G00011184","stationId":"490G00011184","stopLetter":"K","topMostParentId":"490G00011184"},{"icsId":"1007186","id":"490007186W","lat":51.465084,"lon":-0.260439,"name":"Kings Road","parentId":"490G00007186","stationId":"490G00007186","stopLetter":"L","topMostParentId":"490G00007186"},{"icsId":"1012044","id":"490012044W","lat":51.464807,"lon":-0.265459,"name":"Richmond Park Road","parentId":"490G00012044","stationId":"490G00012044","stopLetter":"N","topMostParentId":"490G00012044"},{"icsId":"1012049","id":"490012049W","lat":51.464325,"lon":-0.268126,"name":"East Sheen","parentId":"490G00012049","stationId":"490G00012049","stopLetter":"D","topMostParentId":"490G00012049"},{"icsId":"1013196","id":"490013196W","lat":51.464133,"lon":-0.272769,"name":"Temple Sheen Road","parentId":"490G00013196","stationId":"490G00013196","stopLetter":"X","topMostParentId":"490G00013196"},{"icsId":"1003941","id":"490003941W","lat":51.463941,"lon":-0.279888,"name":"Berwyn Road","parentId":"490G00003941","stationId":"490G00003941","stopLetter":"Y","topMostParentId":"490G00003941"},{"icsId":"1012046","id":"490012046W","lat":51.463301,"lon":-0.282288,"name":"Sheen Court","parentId":"490G00012046","stationId":"490G00012046","stopLetter":"Z","topMostParentId":"490G00012046"},{"icsId":"1006377","id":"490006377SE","lat":51.461641,"lon":-0.289274,"name":"Manor Road / North Sheen Station","parentId":"490G00006377","stationId":"490G00006377","stopLetter":"SE","topMostParentId":"490G00006377"},{"icsId":"1019932","id":"490012452W","lat":51.462117,"lon":-0.292913,"name":"Sheen Road / Kings Road","parentId":"490G00019932","stationId":"490G00019932","stopLetter":"SF","topMostParentId":"490G00019932"},{"icsId":"1012051","id":"490012051W","lat":51.461554,"lon":-0.297526,"name":"Church Road","parentId":"490G00012051","stationId":"490G00012051","topMostParentId":"490G00012051"},{"icsId":"1012050","id":"490012050L","lat":51.461158,"lon":-0.301802,"name":"Eton Street","parentId":"490G00012050","stationId":"490G00012050","stopLetter":"L","topMostParentId":"490G00012050"},{"icsId":"1011556","id":"490011556J","lat":51.459103,"lon":-0.304584,"name":"Richmond Bus Station","parentId":"490G00011556","stationId":"490G00011556","stopLetter":"J","topMostParentId":"490G00011556"},{"icsId":"1005755","id":"490005755W","lat":51.456112,"lon":-0.309186,"name":"Cresswell Road","parentId":"490G00005755","stationId":"490G00005755","stopLetter":"X","topMostParentId":"490G00005755"},{"icsId":"1004705","id":"490004705W","lat":51.454804,"lon":-0.311436,"name":"Cambridge Park","parentId":"490G00004705","stationId":"490G00004705","stopLetter":"B","topMostParentId":"490G00004705"},{"icsId":"1012460","id":"490012460S","lat":51.453023,"lon":-0.313215,"name":"St Stephen's Church","parentId":"490G00012460","stationId":"490G00012460","stopLetter":"C","topMostParentId":"490G00012460"},{"icsId":"1005841","id":"490005841T","lat":51.451689,"lon":-0.316804,"name":"Marble Hill Park / Crown Road","parentId":"490G00005841","stationId":"490G00005841","stopLetter":"D","topMostParentId":"490G00005841"},{"icsId":"1018556","id":"490018556E","lat":51.450707,"lon":-0.320439,"name":"Orleans Park School","parentId":"490G00018556","stationId":"490G00018556","stopLetter":"E","topMostParentId":"490G00018556"},{"icsId":"1009053","id":"490009053W","lat":51.448851,"lon":-0.323932,"name":"Lebanon Court","parentId":"490G00009053","stationId":"490G00009053","stopLetter":"F","topMostParentId":"490G00009053"},{"icsId":"1015022","id":"490015022W","lat":51.44707,"lon":-0.32771,"name":"York Street / Twickenham","parentId":"490G00015022","stationId":"490G00015022","stopLetter":"G","topMostParentId":"490G00015022"},{"icsId":"1011148","id":"490001148Z","lat":51.445102,"lon":-0.329696,"name":"Poulett Gardens","parentId":"490G00011148","stationId":"490G00011148","stopLetter":"P","topMostParentId":"490G00011148"},{"icsId":"1011104","id":"490011104S","lat":51.442118,"lon":-0.331632,"name":"Popes Grotto","parentId":"490G00011104","stationId":"490G00011104","stopLetter":"SL","topMostParentId":"490G00011104"},{"icsId":"1012917","id":"490012917D","lat":51.439065,"lon":-0.333902,"name":"Strawberry Vale","parentId":"490G00012917","stationId":"490G00012917","stopLetter":"SM","topMostParentId":"490G00012917"},{"icsId":"1012796","id":"490012796S","lat":51.4376,"lon":-0.335854,"name":"St Mary's University","parentId":"490G00012796","stationId":"490G00012796","stopLetter":"SN","topMostParentId":"490G00012796"},{"icsId":"1000342","id":"490012796S2","lat":51.434841,"lon":-0.337235,"name":"Southfield Gardens","parentId":"490G00000342","stationId":"490G00000342","stopLetter":"SP","topMostParentId":"490G00000342"},{"icsId":"1012017","id":"490012017S","lat":51.432022,"lon":-0.338171,"name":"Shacklegate Lane","parentId":"490G00012017","stationId":"490G00012017","stopLetter":"SZ","topMostParentId":"490G00012017"},{"icsId":"1013177","id":"490013177S","lat":51.430285,"lon":-0.336782,"name":"Teddington Park Road","parentId":"490G00013177","stationId":"490G00013177","stopLetter":"->S","topMostParentId":"490G00013177"},{"icsId":"1013173","id":"490013173A","lat":51.427654,"lon":-0.334518,"name":"Teddington Library","parentId":"490G00013173","stationId":"490G00013173","stopLetter":"A","topMostParentId":"490G00013173"},{"icsId":"1004377","id":"490004377F","lat":51.425952,"lon":-0.336867,"name":"Broad Street / Teddington","parentId":"490G00004377","stationId":"490G00004377","stopLetter":"F","topMostParentId":"490G00004377"},{"icsId":"1013176","id":"490013176N","lat":51.427059,"lon":-0.340739,"name":"Teddington Memorial Hospital","parentId":"490G00013176","stationId":"490G00013176","stopLetter":"M","topMostParentId":"490G00013176"},{"icsId":"1007249","id":"490007249N","lat":51.429044,"lon":-0.34317,"name":"Gloucester Road","parentId":"490G00007249","stationId":"490G00007249","stopLetter":"N","topMostParentId":"490G00007249"},{"icsId":"1011215","id":"490011215S1","lat":51.431463,"lon":-0.345687,"name":"Princes Road","parentId":"490G00011215","stationId":"490G00011215","stopLetter":"->N","topMostParentId":"490G00011215"},{"icsId":"1001113","id":"490005445C","lat":51.434853,"lon":-0.346946,"name":"Fulwell Station","parentId":"490G05445D","stationId":"490G05445D","stopLetter":"C","topMostParentId":"910GFULWELL"}]}]}