{"direction":"inbound","lineId":"n5","lineName":"N5","mode":"bus","stopPointSequences":[{"stopPoint":[{"icsId":"1013767","id":"490013767C","lat":51.508123,"lon":-0.127406,"name":"Trafalgar Sq / Charing Cross Stn","parentId":"490G000804","stationId":"490G000804","stopLetter":"C","topMostParentId":"490G000804"},{"icsId":"1000135","id":"490000135A","lat":51.51055,"lon":-0.128474,"name":"Leicester Square Station","parentId":"490G00135B","stationId":"490G00135B","stopLetter":"L","topMostParentId":"940GZZLULSQ","zone":"1"},{"icsId":"1004695","id":"490004695N","lat":51.512514,"lon":-0.128711,"name":"Cambridge Circus","parentId":"490G00004695","stationId":"490G00004695","stopLetter":"M","topMostParentId":"490G00004695"},{"icsId":"1019157","id":"490004695A","lat":51.514339,"lon":-0.129803,"name":"Denmark Street","parentId":"490G00019157","stationId":"490G00019157","stopLetter":"A","topMostParentId":"490G00019157"},{"icsId":"1000235","id":"490000235C","lat":51.517676,"lon":-0.131541,"name":"Tottenham Court Road Station","parentId":"490G00235C","stationId":"490G00235C","stopLetter":"C","topMostParentId":"940GZZLUTCR","zone":"1"},{"icsId":"1000089","id":"490000089A","lat":51.521131,"lon":-0.135046,"name":"Goodge Street Station","parentId":"490G00089B","stationId":"490G00089B","stopLetter":"A","topMostParentId":"940GZZLUGDG","zone":"1"},{"icsId":"1000252","id":"490000252X","lat":51.524113,"lon":-0.137649,"name":"Warren Street Station","parentId":"490G00252X","stationId":"490G00252X","stopLetter":"X","topMostParentId":"940GZZLUWRR","zone":"1"},{"icsId":"1000078","id":"490000078Q","lat":51.525602,"lon":-0.136853,"name":"Euston Square Station","parentId":"490G00078P","stationId":"490G00078P","stopLetter":"Q","topMostParentId":"940GZZLUESQ","zone":"1"},{"icsId":"1000077","id":"490000077C","lat":51.527378,"lon":-0.132628,"name":"Euston Station","parentId":"490G00077G","stationId":"490G00077G","stopLetter":"C","topMostParentId":"HUBEUS","zone":"1"},{"icsId":"1009503","id":"490000077A","lat":51.528889,"lon":-0.132624,"name":"Euston Station  / Eversholt Street","parentId":"490G000651","stationId":"490G000651","stopLetter":"A","topMostParentId":"HUBEUS"},{"icsId":"1003174","id":"490003174N","lat":51.531579,"lon":-0.135542,"name":"Aldenham Street","parentId":"490G00003174","stationId":"490G00003174","stopLetter":"T","topMostParentId":"490G00003174"},{"icsId":"1000152","id":"490000152A","lat":51.534031,"lon":-0.13932,"name":"Mornington Crescent Station","parentId":"490G00152G","stationId":"490G00152G","stopLetter":"A","topMostParentId":"940GZZLUMTC","zone":"2"},{"icsId":"1004714","id":"490004714J","lat":51.536515,"lon":-0.140574,"name":"Camden High Street","parentId":"490G000437","stationId":"490G000437","stopLetter":"J","topMostParentId":"490G000437"},{"icsId":"1000036","id":"490015041X","lat":51.538314,"lon":-0.142318,"name":"Camden Town Station","parentId":"490G00036N","stationId":"490G00036N","stopLetter":"X","topMostParentId":"940GZZLUCTN","zone":"2"},{"icsId":"1007876","id":"490007876O","lat":51.54229,"lon":-0.146929,"name":"Hartland Road / Camden Market","parentId":"490G00007876","stationId":"490G00007876","stopLetter":"CQ","topMostParentId":"490G00007876"},{"icsId":"1013538","id":"490013538CF","lat":51.543404,"lon":-0.151427,"name":"The Roundhouse","parentId":"490G00013538","stationId":"490G00013538","stopLetter":"CF","topMostParentId":"490G00013538"},{"icsId":"1000043","id":"490000043CC","lat":51.544337,"lon":-0.154129,"name":"Chalk Farm Station","parentId":"490G00043CD","stationId":"490G00043CD","stopLetter":"CC","topMostParentId":"940GZZLUCFM","zone":"2"},{"icsId":"1012664","id":"490012664N","lat":51.546517,"lon":-0.157849,"name":"Steele's Road / Steele's Village","parentId":"490G00012664","stationId":"490G00012664","stopLetter":"Q","topMostParentId":"490G00012664"},{"icsId":"1013939","id":"490013939N","lat":51.549221,"lon":-0.162802,"name":"Upper Park Road","parentId":"490G00013939","stationId":"490G00013939","stopLetter":"W","topMostParentId":"490G00013939"},{"icsId":"1000020","id":"490000020K","lat":51.550698,"lon":-0.165281,"name":"Belsize Park Station","parentId":"490G00020L","stationId":"490G00020L","stopLetter":"K","topMostParentId":"940GZZLUBZP","zone":"2"},{"icsId":"1011714","id":"490015255G","lat":51.552781,"lon":-0.1685,"name":"Rosslyn Hill","parentId":"490G00011714","stationId":"490G00011714","stopLetter":"G","topMostParentId":"490G00011714"},{"icsId":"1011000","id":"490011000N","lat":51.55467,"lon":-0.172565,"name":"Pilgrim's Lane","parentId":"490G00011000","stationId":"490G00011000","stopLetter":"A","topMostParentId":"490G00011000"},{"icsId":"1000098","id":"490000098B","lat":51.555961,"lon":-0.177504,"name":"Hampstead Station","parentId":"490G00098S","stationId":"490G00098S","stopLetter":"B","topMostParentId":"940GZZLUHTD","zone":"2+3"},{"icsId":"1008547","id":"490008531N1","lat":51.560544,"lon":-0.179095,"name":"Whitestone Pond / Jack Straw's Castle","parentId":"490G00008547","stationId":"490G00008547","stopLetter":"E","topMostParentId":"490G00008547"},{"icsId":"1008490","id":"490008490N","lat":51.563648,"lon":-0.180328,"name":"Inverforth House","parentId":"490G00008490","stationId":"490G00008490","stopLetter":"F","topMostParentId":"490G00008490"},{"icsId":"1020289","id":"490009562W","lat":51.567989,"lon":-0.183689,"name":"North End Road / Golders Hill Park","parentId":"490G00020289","stationId":"490G00020289","topMostParentId":"490G00020289"},{"icsId":"1014346","id":"490014346W","lat":51.570202,"lon":-0.1878,"name":"Wellgarth Road","parentId":"490G00014346","stationId":"490G00014346","stopLetter":"->W","topMostParentId":"490G00014346"},{"icsId":"1000087","id":"490000087GK","lat":51.571399,"lon":-0.193669,"name":"Golders Green Station","parentId":"490G00087GK","stationId":"490G00087GK","stopLetter":"GK","topMostParentId":"940GZZLUGGN","zone":"3"},{"icsId":"1006838","id":"490006838GN","lat":51.571887,"lon":-0.196161,"name":"Finchley Road","parentId":"490G00006838","stationId":"490G00006838","stopLetter":"GN","topMostParentId":"490G00006838"},{"icsId":"1015322","id":"490015322GQ","lat":51.573784,"lon":-0.200877,"name":"Hoop Lane","parentId":"490G00015322","stationId":"490G00015322","stopLetter":"A","topMostParentId":"490G00015322"},{"icsId":"1014904","id":"490014904W","lat":51.575383,"lon":-0.203671,"name":"Woodstock Avenue","parentId":"490G00014904","stationId":"490G00014904","stopLetter":"B","topMostParentId":"490G00014904"},{"icsId":"1008157","id":"490008152W","lat":51.577372,"lon":-0.206696,"name":"Limes Avenue","parentId":"490G00008157","stationId":"490G00008157","stopLetter":"C","topMostParentId":"490G00008157"},{"icsId":"1007270","id":"490007270W","lat":51.580008,"lon":-0.209753,"name":"Golders Manor Drive","parentId":"490G00007270","stationId":"490G00007270","stopLetter":"D","topMostParentId":"490G00007270"},{"icsId":"1010331","id":"490010331W","lat":51.581626,"lon":-0.213225,"name":"North Circular Road","parentId":"490G00010331","stationId":"490G00010331","stopLetter":"E","topMostParentId":"490G00010331"},{"icsId":"1007464","id":"490007464N","lat":51.583427,"lon":-0.216402,"name":"Brent Street / Green Lane","parentId":"490G00007464","stationId":"490G00007464","stopLetter":"F","topMostParentId":"490G00007464"},{"icsId":"1004295","id":"490004295Z","lat":51.584165,"lon":-0.219996,"name":"Brent Green","parentId":"490G00004295","stationId":"490G00004295","stopLetter":"Z","topMostParentId":"490G00004295"},{"icsId":"1000106","id":"490000106B","lat":51.582841,"lon":-0.225172,"name":"Hendon Central Station","parentId":"490G00106A","stationId":"490G00106A","stopLetter":"B","topMostParentId":"940GZZLUHCL","zone":"3+4"},{"icsId":"1008060","id":"490008060C","lat":51.5826,"lon":-0.22827,"name":"Hendon Way","parentId":"490G000591","stationId":"490G000591","stopLetter":"C","topMostParentId":"490G000591"},{"icsId":"1003476","id":"490003476W","lat":51.582217,"lon":-0.233886,"name":"Audley Road","parentId":"490G00003476","stationId":"490G00003476","topMostParentId":"490G00003476"},{"icsId":"1001148","id":"490001148B","lat":51.580022,"lon":-0.237983,"name":"Hendon Station","parentId":"490G01148B","stationId":"490G01148B","stopLetter":"HE","topMostParentId":"910GHDON"},{"icsId":"1014470","id":"490014470N2","lat":51.578179,"lon":-0.24045,"name":"West Hendon Broadway","parentId":"490G00014470","stationId":"490G00014470","stopLetter":"HL","topMostParentId":"490G00014470"},{"icsId":"1014561","id":"490014561D","lat":51.579601,"lon":-0.242344,"name":"West Hendon Broadway / Herbert Road","parentId":"490G00014561","stationId":"490G00014561","stopLetter":"HM","topMostParentId":"490G00014561"},{"icsId":"1014471","id":"490014471N","lat":51.581993,"lon":-0.245355,"name":"Hendon Magistrates Court","parentId":"490G00014471","stationId":"490G00014471","stopLetter":"HP","topMostParentId":"490G00014471"},{"icsId":"1008762","id":"490008762N","lat":51.583873,"lon":-0.24775,"name":"Kingsbury Road","parentId":"490G00008762","stationId":"490G00008762","stopLetter":"HQ","topMostParentId":"490G00008762"},{"icsId":"1012043","id":"490012043CH","lat":51.587018,"lon":-0.251209,"name":"Sheaveshill Avenue","parentId":"490G00012043","stationId":"490G00012043","stopLetter":"CH","topMostParentId":"490G00012043"},{"icsId":"1005483","id":"490005483GZ","lat":51.590407,"lon":-0.255381,"name":"Colindeep Lane","parentId":"490G00005483","stationId":"490G00005483","stopLetter":"GZ","topMostParentId":"490G00005483"},{"icsId":"1005481","id":"490005481CL","lat":51.591526,"lon":-0.256854,"name":"Colindale Avenue","parentId":"490G00005481","stationId":"490G00005481","stopLetter":"CL","topMostParentId":"490G00005481"},{"icsId":"1015288","id":"490015288CV","lat":51.592581,"lon":-0.256438,"name":"Stonecrop Close","parentId":"490G00015288","stationId":"490G00015288","stopLetter":"CV","topMostParentId":"490G00015288"},{"icsId":"1003132","id":"490005786CD","lat":51.594155,"lon":-0.252235,"name":"Ajax Avenue","parentId":"490G00003132","stationId":"490G00003132","stopLetter":"CD","topMostParentId":"490G00003132"},{"icsId":"1000054","id":"490000054CB","lat":51.595122,"lon":-0.250162,"name":"Colindale Station","parentId":"490G00054CB","stationId":"490G00054CB","stopLetter":"CB","topMostParentId":"940GZZLUCND","zone":"4"},{"icsId":"1007070","id":"490012236N","lat":51.598489,"lon":-0.245614,"name":"Cherry Close","parentId":"490G00007070","stationId":"490G00007070","stopLetter":"QT","topMostParentId":"490G00007070"},{"icsId":"1011298","id":"490011298W2","lat":51.601611,"lon":-0.245739,"name":"Quakers Course","parentId":"490G00011298","stationId":"490G00011298","stopLetter":"QD","topMostParentId":"490G00011298"},{"icsId":"1010315","id":"490010315W","lat":51.600864,"lon":-0.249912,"name":"North Acre","parentId":"490G00010315","stationId":"490G00010315","stopLetter":"QU","topMostParentId":"490G00010315"},{"icsId":"1003331","id":"490003331W","lat":51.602572,"lon":-0.255305,"name":"Angus Gardens","parentId":"490G00003331","stationId":"490G00003331","stopLetter":"QV","topMostParentId":"490G00003331"},{"icsId":"1005753","id":"490005753W","lat":51.605011,"lon":-0.257248,"name":"Burnt Oak Leisure Centre","parentId":"490G00005753","stationId":"490G00005753","stopLetter":"QW","topMostParentId":"490G00005753"},{"icsId":"1006942","id":"490006942W","lat":51.60414,"lon":-0.260342,"name":"Gunter Grove","parentId":"490G00006942","stationId":"490G00006942","stopLetter":"T","topMostParentId":"490G00006942"},{"icsId":"1000034","id":"490000034S","lat":51.602037,"lon":-0.264726,"name":"Burnt Oak Station","parentId":"490G00034M","stationId":"490G00034M","stopLetter":"S","topMostParentId":"940GZZLUBTK","zone":"4"},{"icsId":"1004618","id":"490004618C","lat":51.601801,"lon":-0.268836,"name":"Burnt Oak Broadway","parentId":"490G000434","stationId":"490G000434","stopLetter":"C","topMostParentId":"490G000434"},{"icsId":"1004617","id":"490004617B","lat":51.60336,"lon":-0.270885,"name":"North Road","parentId":"490G000433","stationId":"490G000433","stopLetter":"B","topMostParentId":"490G000433"},{"icsId":"1006425","id":"490006425HB","lat":51.606026,"lon":-0.27422,"name":"Edgware Community Hospital","parentId":"490G00006425","stationId":"490G00006425","stopLetter":"HB","topMostParentId":"490G00006425"},{"icsId":"1006004","id":"490006004HC","lat":51.607339,"lon":-0.275427,"name":"Deansbrook Road","parentId":"490G00006004","stationId":"490G00006004","stopLetter":"HC","topMostParentId":"490G00006004"},{"icsId":"1012411","id":"490012411P","lat":51.609821,"lon":-0.27851,"name":"Spring Villa Road","parentId":"490G00012411","stationId":"490G00012411","stopLetter":"P","topMostParentId":"490G00012411"},{"icsId":"1000070","id":"490000070G","lat":51.613401,"lon":-0.275515,"name":"Edgware Station","parentId":"490G00070C","stationId":"490G00070C","stopLetter":"G","topMostParentId":"940GZZLUEGW","zone":"5"}]}]}