{"direction":"inbound","lineId":"n68","lineName":"N68","mode":"bus","stopPointSequences":[{"stopPoint":[{"icsId":"1018892","id":"490000235Z","lat":51.516728,"lon":-0.128466,"name":"New Oxford Street","parentId":"490G00018892","stationId":"490G00018892","stopLetter":"Z","topMostParentId":"490G00018892"},{"icsId":"1010131","id":"490010131WB","lat":51.517579,"lon":-0.124338,"name":"Museum Street","parentId":"490G00010131","stationId":"490G00010131","stopLetter":"E","topMostParentId":"490G00010131"},{"icsId":"1000350","id":"490000112M","lat":51.516741,"lon":-0.11976,"name":"Kingsway / Holborn Station","parentId":"490G00000350","stationId":"490G00000350","stopLetter":"M","topMostParentId":"490G00000350"},{"icsId":"1019704","id":"490019704K","lat":51.513339,"lon":-0.116211,"name":"Aldwych / The Royal Courts Of Justice","parentId":"490G00019704","stationId":"490G00019704","stopLetter":"K","topMostParentId":"490G00019704"},{"icsId":"1003193","id":"490003193S","lat":51.51186,"lon":-0.11705,"name":"Aldwych / Somerset House","parentId":"490G000386","stationId":"490G000386","stopLetter":"S","topMostParentId":"490G000386"},{"icsId":"1014271","id":"490014271N","lat":51.507076,"lon":-0.115403,"name":"Waterloo Bridge / South Bank","parentId":"490G000819","stationId":"490G000819","stopLetter":"N","topMostParentId":"HUBWAT"},{"icsId":"1003705","id":"490000254D","lat":51.502981,"lon":-0.110687,"name":"Waterloo Station   / Waterloo Road","parentId":"490G000401","stationId":"490G000401","stopLetter":"D","topMostParentId":"HUBWAT"},{"icsId":"1013485","id":"490013485S1","lat":51.50134,"lon":-0.108752,"name":"The Old Vic","parentId":"490G00013485","stationId":"490G00013485","stopLetter":"S","topMostParentId":"490G00013485"},{"icsId":"1012693","id":"490012693S2","lat":51.499338,"lon":-0.106198,"name":"St George's Circus","parentId":"490G00012693","stationId":"490G00012693","stopLetter":"T","topMostParentId":"490G00012693"},{"icsId":"1009281","id":"490009281D","lat":51.496636,"lon":-0.102003,"name":"Elephant & Castle / London Road","parentId":"490G000642","stationId":"490G000642","stopLetter":"D","topMostParentId":"490G000642"},{"icsId":"1000073","id":"490000073R","lat":51.493256,"lon":-0.099305,"name":"Elephant & Castle Station","parentId":"490G00073G","stationId":"490G00073G","stopLetter":"R","topMostParentId":"HUBEPH","zone":"1+2"},{"icsId":"1008975","id":"490008975S","lat":51.490448,"lon":-0.096959,"name":"Larcom Street","parentId":"490G00008975","stationId":"490G00008975","stopLetter":"B","topMostParentId":"490G00008975"},{"icsId":"1006380","id":"490006380E","lat":51.487054,"lon":-0.095083,"name":"East Street","parentId":"490G00006380","stationId":"490G00006380","stopLetter":"E","topMostParentId":"490G00006380"},{"icsId":"1014501","id":"490014501K","lat":51.484964,"lon":-0.093701,"name":"Westmoreland Road","parentId":"490G00014501","stationId":"490G00014501","stopLetter":"K","topMostParentId":"490G00014501"},{"icsId":"1003138","id":"490003138N","lat":51.481422,"lon":-0.094353,"name":"Camberwell Road / Albany Road","parentId":"490G00003138","stationId":"490G00003138","stopLetter":"N","topMostParentId":"490G00003138"},{"icsId":"1004221","id":"490004221S","lat":51.479774,"lon":-0.094191,"name":"Bowyer Place","parentId":"490G00004221","stationId":"490G00004221","stopLetter":"N","topMostParentId":"490G00004221"},{"icsId":"1009784","id":"490009784B","lat":51.476926,"lon":-0.093821,"name":"Medlar Street","parentId":"490G00009784","stationId":"490G00009784","stopLetter":"B","topMostParentId":"490G00009784"},{"icsId":"1004687","id":"490004687Q","lat":51.473371,"lon":-0.093076,"name":"Denmark Hill / Camberwell Green","parentId":"490G00004687","stationId":"490G00004687","stopLetter":"Q","topMostParentId":"490G00004687"},{"icsId":"1005464","id":"490005464V","lat":51.470561,"lon":-0.092833,"name":"Coldharbour Lane","parentId":"490G00005464","stationId":"490G00005464","stopLetter":"V","topMostParentId":"490G00005464"},{"icsId":"1008764","id":"490008764H4","lat":51.469312,"lon":-0.092338,"name":"King's College Hospital","parentId":"490G00008764","stationId":"490G00008764","stopLetter":"A","topMostParentId":"490G00008764"},{"icsId":"1004973","id":"490004973S","lat":51.464987,"lon":-0.090129,"name":"Champion Hill","parentId":"490G00004973","stationId":"490G00004973","stopLetter":"K","topMostParentId":"490G00004973"},{"icsId":"1004092","id":"490004092S","lat":51.463027,"lon":-0.090743,"name":"Blanchedowne","parentId":"490G00004092","stationId":"490G00004092","stopLetter":"L","topMostParentId":"490G00004092"},{"icsId":"1013027","id":"490013027S","lat":51.461586,"lon":-0.091696,"name":"Deepdene Road","parentId":"490G00013027","stationId":"490G00013027","stopLetter":"M","topMostParentId":"490G00013027"},{"icsId":"1011491","id":"490011491S","lat":51.45914,"lon":-0.094475,"name":"Herne Hill Road","parentId":"490G00011491","stationId":"490G00011491","stopLetter":"->S","topMostParentId":"490G00011491"},{"icsId":"1006992","id":"490006992S","lat":51.457558,"lon":-0.095578,"name":"Frankfurt Road","parentId":"490G00006992","stationId":"490G00006992","stopLetter":"U","topMostParentId":"490G00006992"},{"icsId":"1008294","id":"490008294S","lat":51.456011,"lon":-0.097787,"name":"Hollingbourne Road","parentId":"490G00008294","stationId":"490G00008294","stopLetter":"V","topMostParentId":"490G00008294"},{"icsId":"1012877","id":"490012877S","lat":51.454849,"lon":-0.099879,"name":"St Paul's Church","parentId":"490G00012877","stationId":"490G00012877","stopLetter":"W","topMostParentId":"490G00012877"},{"icsId":"1001149","id":"490015248C","lat":51.4532,"lon":-0.100782,"name":"Herne Hill Station","parentId":"490G15248C","stationId":"490G15248C","stopLetter":"C","topMostParentId":"910GHERNEH"},{"icsId":"1004403","id":"490004403F","lat":51.451772,"lon":-0.100942,"name":"Brockwell Park","parentId":"490G000428","stationId":"490G000428","stopLetter":"F","topMostParentId":"490G000428"},{"icsId":"1011701","id":"490011701S","lat":51.448121,"lon":-0.102562,"name":"Rosendale Road","parentId":"490G00011701","stationId":"490G00011701","stopLetter":"P","topMostParentId":"490G00011701"},{"icsId":"1004404","id":"490004404S","lat":51.446243,"lon":-0.104884,"name":"Brockwell Park Gardens","parentId":"490G00004404","stationId":"490G00004404","stopLetter":"R","topMostParentId":"490G00004404"},{"icsId":"1006058","id":"490006058S","lat":51.443877,"lon":-0.104867,"name":"Deronda Road","parentId":"490G00006058","stationId":"490G00006058","stopLetter":"->S","topMostParentId":"490G00006058"},{"icsId":"1013656","id":"490013656C","lat":51.441504,"lon":-0.10603,"name":"Thurlow Park Road","parentId":"490G00013656","stationId":"490G00013656","stopLetter":"C","topMostParentId":"490G00013656"},{"icsId":"1001298","id":"490001298G","lat":51.439535,"lon":-0.106025,"name":"Tulse Hill Station","parentId":"490G01298G","stationId":"490G01298G","stopLetter":"G","topMostParentId":"910GTULSEH"},{"icsId":"1014508","id":"490014508H","lat":51.437791,"lon":-0.105536,"name":"Elmcourt Road","parentId":"490G00014508","stationId":"490G00014508","stopLetter":"H","topMostParentId":"490G00014508"},{"icsId":"1008927","id":"490008927L","lat":51.435745,"lon":-0.10411,"name":"Lancaster Avenue","parentId":"490G00008927","stationId":"490G00008927","stopLetter":"L","topMostParentId":"490G00008927"},{"icsId":"1013670","id":"490013655P","lat":51.43402,"lon":-0.103635,"name":"Norwood Road / Robson Road","parentId":"490G00013670","stationId":"490G00013670","stopLetter":"P","topMostParentId":"490G00013670"},{"icsId":"1001331","id":"490001331T","lat":51.431664,"lon":-0.102539,"name":"West Norwood Station","parentId":"490G01331T","stationId":"490G01331T","stopLetter":"T","topMostParentId":"910GWNORWOD"},{"icsId":"1010444","id":"490010444W","lat":51.429522,"lon":-0.103548,"name":"Norwood Bus Garage","parentId":"490G00010444","stationId":"490G00010444","stopLetter":"U","topMostParentId":"490G00010444"},{"icsId":"1011726","id":"490011726S","lat":51.428913,"lon":-0.104278,"name":"Rothschild Street","parentId":"490G00011726","stationId":"490G00011726","stopLetter":"V","topMostParentId":"490G00011726"},{"icsId":"1012969","id":"490012969S","lat":51.426862,"lon":-0.104809,"name":"West Norwood Fire Station","parentId":"490G00012969","stationId":"490G00012969","stopLetter":"CP","topMostParentId":"490G00012969"},{"icsId":"1007066","id":"490007066S","lat":51.423885,"lon":-0.10532,"name":"Furneaux Avenue","parentId":"490G00007066","stationId":"490G00007066","stopLetter":"CR","topMostParentId":"490G00007066"},{"icsId":"1005839","id":"490005839S","lat":51.422008,"lon":-0.106017,"name":"Crown Point / Beulah Hill","parentId":"490G00005839","stationId":"490G00005839","stopLetter":"CQ","topMostParentId":"490G00005839"},{"icsId":"1007430","id":"490007430S","lat":51.420423,"lon":-0.106427,"name":"Grecian Crescent","parentId":"490G00007430","stationId":"490G00007430","topMostParentId":"490G00007430"},{"icsId":"1003992","id":"490003992S","lat":51.418822,"lon":-0.103646,"name":"Biggin Hill","parentId":"490G00003992","stationId":"490G00003992","stopLetter":"->S","topMostParentId":"490G00003992"},{"icsId":"1005559","id":"490005559S","lat":51.418224,"lon":-0.100593,"name":"Convent Hill","parentId":"490G00005559","stationId":"490G00005559","stopLetter":"SB","topMostParentId":"490G00005559"},{"icsId":"1015337","id":"490015337S","lat":51.416387,"lon":-0.096556,"name":"Hermitage Road","parentId":"490G00015337","stationId":"490G00015337","stopLetter":"SC","topMostParentId":"490G00015337"},{"icsId":"1003959","id":"490003959S","lat":51.414244,"lon":-0.092503,"name":"Beulah Spa","parentId":"490G00003959","stationId":"490G00003959","stopLetter":"SD","topMostParentId":"490G00003959"},{"icsId":"1013929","id":"490013929S","lat":51.412673,"lon":-0.088801,"name":"Upper Beulah Hill","parentId":"490G00013929","stationId":"490G00013929","stopLetter":"SK","topMostParentId":"490G00013929"},{"icsId":"1003242","id":"490003242S","lat":51.410986,"lon":-0.087376,"name":"Beulah Hill / All Saints Church","parentId":"490G00003242","stationId":"490G00003242","stopLetter":"SL","topMostParentId":"490G00003242"},{"icsId":"1007344","id":"490007344S","lat":51.408325,"lon":-0.086336,"name":"Grange Avenue","parentId":"490G00007344","stationId":"490G00007344","stopLetter":"SQ","topMostParentId":"490G00007344"},{"icsId":"1014227","id":"490014227S","lat":51.406919,"lon":-0.085029,"name":"Wharncliffe Gardens","parentId":"490G00014227","stationId":"490G00014227","stopLetter":"SR","topMostParentId":"490G00014227"},{"icsId":"1011718","id":"490011718S","lat":51.405556,"lon":-0.083059,"name":"Ross Road","parentId":"490G00011718","stationId":"490G00011718","stopLetter":"ST","topMostParentId":"490G00011718"},{"icsId":"1014601","id":"490014601S","lat":51.403667,"lon":-0.081959,"name":"Nugent Road","parentId":"490G00014601","stationId":"490G00014601","stopLetter":"SP","topMostParentId":"490G00014601"},{"icsId":"1014621","id":"490014621S","lat":51.401419,"lon":-0.084166,"name":"Whitworth Road","parentId":"490G00014621","stationId":"490G00014621","stopLetter":"->S","topMostParentId":"490G00014621"},{"icsId":"1010818","id":"490010818S","lat":51.399199,"lon":-0.08643,"name":"Selhurst Park Stadium","parentId":"490G00010818","stationId":"490G00010818","stopLetter":"->S","topMostParentId":"490G00010818"},{"icsId":"1005424","id":"490005424R","lat":51.398151,"lon":-0.091102,"name":"Clifton Road","parentId":"490G00005424","stationId":"490G00005424","stopLetter":"R","topMostParentId":"490G00005424"},{"icsId":"1015026","id":"490015026N","lat":51.396609,"lon":-0.09246,"name":"Talbot Road","parentId":"490G00015026","stationId":"490G00015026","stopLetter":"N","topMostParentId":"490G00015026"},{"icsId":"1010868","id":"490010868S","lat":51.393113,"lon":-0.093756,"name":"Pawsons Road","parentId":"490G00010868","stationId":"490G00010868","stopLetter":"P","topMostParentId":"490G00010868"},{"icsId":"1016652","id":"490016652S","lat":51.389977,"lon":-0.094979,"name":"Beaconsfield Road","parentId":"490G00016652","stationId":"490G00016652","stopLetter":"Q","topMostParentId":"490G00016652"},{"icsId":"1010350","id":"490010343S","lat":51.38764,"lon":-0.096154,"name":"Northcote Road","parentId":"490G00010350","stationId":"490G00010350","stopLetter":"R","topMostParentId":"490G00010350"},{"icsId":"1019785","id":"490013376S","lat":51.385757,"lon":-0.09708,"name":"Cromwell Road","parentId":"490G00019785","stationId":"490G00019785","stopLetter":"H","topMostParentId":"490G00019785"},{"icsId":"1008271","id":"490015451S","lat":51.383277,"lon":-0.09826,"name":"Hogarth Crescent","parentId":"490G00008271","stationId":"490G00008271","stopLetter":"R","topMostParentId":"490G00008271"},{"icsId":"1012794","id":"490012794W10","lat":51.380214,"lon":-0.099609,"name":"St Mary's Church / West Croydon","parentId":"490G00012794","stationId":"490G00012794","stopLetter":"WG","topMostParentId":"490G00012794"},{"icsId":"1009452","id":"490009452W3","lat":51.377781,"lon":-0.099307,"name":"Lunar House","parentId":"490G00009452","stationId":"490G00009452","stopLetter":"WH","topMostParentId":"490G00009452"},{"icsId":"1014614","id":"490014614E10","lat":51.376832,"lon":-0.098441,"name":"Whitgift Centre","parentId":"490G00014614","stationId":"490G00014614","stopLetter":"WK","topMostParentId":"490G00014614"},{"icsId":"1019808","id":"490001089E8","lat":51.375028,"lon":-0.094234,"name":"Dingwall Road / East Croydon Station","parentId":"490G000951","stationId":"490G000951","stopLetter":"E8","topMostParentId":"490G000951"},{"icsId":"1001089","id":"490001089E7","lat":51.37459,"lon":-0.093275,"name":"East Croydon Station","parentId":"490G01089E7","stationId":"490G01089E7","stopLetter":"E7","topMostParentId":"HUBECY"},{"icsId":"1010839","id":"490010839C3","lat":51.373487,"lon":-0.097933,"name":"Park Street","parentId":"490G00010839","stationId":"490G00010839","stopLetter":"KH","topMostParentId":"490G00010839"},{"icsId":"1005855","id":"490005855C15","lat":51.371178,"lon":-0.100285,"name":"Croydon Flyover","parentId":"490G00005855","stationId":"490G00005855","stopLetter":"KP","topMostParentId":"490G00005855"},{"icsId":"1005574","id":"490005574S","lat":51.368211,"lon":-0.099201,"name":"Coombe Road","parentId":"490G00005574","stationId":"490G00005574","stopLetter":"W","topMostParentId":"490G00005574"},{"icsId":"1013269","id":"490013269S","lat":51.365896,"lon":-0.098966,"name":"Aberdeen Road","parentId":"490G00013269","stationId":"490G00013269","stopLetter":"S","topMostParentId":"490G00013269"},{"icsId":"1013100","id":"490013100J","lat":51.363052,"lon":-0.098236,"name":"Swan & Sugar Loaf","parentId":"490G00013100","stationId":"490G00013100","stopLetter":"J","topMostParentId":"490G00013100"},{"icsId":"1013920","id":"490013920S","lat":51.360077,"lon":-0.097814,"name":"Upland Road","parentId":"490G00013920","stationId":"490G00013920","stopLetter":"GH","topMostParentId":"490G00013920"},{"icsId":"1007670","id":"490007670S","lat":51.356946,"lon":-0.097699,"name":"Haling Park Road","parentId":"490G00007670","stationId":"490G00007670","stopLetter":"GJ","topMostParentId":"490G00007670"},{"icsId":"1012272","id":"490015442S","lat":51.353867,"lon":-0.097482,"name":"South Croydon Bus Garage","parentId":"490G00012272","stationId":"490G00012272","stopLetter":"GK","topMostParentId":"490G00012272"},{"icsId":"1011481","id":"490011481S","lat":51.35193,"lon":-0.098381,"name":"Sanderstead Road","parentId":"490G00011481","stationId":"490G00011481","stopLetter":"GL","topMostParentId":"490G00011481"},{"icsId":"1013603","id":"490013603C","lat":51.34982,"lon":-0.100235,"name":"Purley Oaks Station","parentId":"490G00013603","stationId":"490G00013603","stopLetter":"GM","topMostParentId":"490G00013603"},{"icsId":"1003117","id":"490003117B","lat":51.346349,"lon":-0.10302,"name":"Biddulph Road","parentId":"490G00003117","stationId":"490G00003117","stopLetter":"GN","topMostParentId":"490G00003117"},{"icsId":"1013543","id":"490013543S","lat":51.344035,"lon":-0.106778,"name":"Brighton Road / Purley Downs Road","parentId":"490G00013543","stationId":"490G00013543","stopLetter":"K","topMostParentId":"490G00013543"},{"icsId":"1010002","id":"490010002S","lat":51.342036,"lon":-0.110507,"name":"Montpelier Road","parentId":"490G00010002","stationId":"490G00010002","stopLetter":"L","topMostParentId":"490G00010002"},{"icsId":"1011259","id":"490011259G","lat":51.339286,"lon":-0.115659,"name":"Purley / Downlands Precinct","parentId":"490G00011259","stationId":"490G00011259","stopLetter":"G","topMostParentId":"490G00011259"},{"icsId":"1011274","id":"490011274U","lat":51.336787,"lon":-0.118461,"name":"Purley Tesco","parentId":"490G000716","stationId":"490G000716","stopLetter":"U","topMostParentId":"490G000716"},{"icsId":"1007560","id":"490007560S","lat":51.334184,"lon":-0.121611,"name":"Grovelands Road","parentId":"490G00007560","stationId":"490G00007560","stopLetter":"RE","topMostParentId":"490G00007560"},{"icsId":"1010565","id":"490010565D","lat":51.332093,"lon":-0.124122,"name":"Brighton Road / Old Lodge Lane","parentId":"490G000687","stationId":"490G000687","stopLetter":"RF","topMostParentId":"490G000687"},{"icsId":"1014421","id":"490014421S","lat":51.329753,"lon":-0.126256,"name":"Musgrove Close","parentId":"490G00014421","stationId":"490G00014421","stopLetter":"RH","topMostParentId":"490G00014421"},{"icsId":"1015438","id":"490015438S","lat":51.32773,"lon":-0.127975,"name":"Smitham Downs Road","parentId":"490G00015438","stationId":"490G00015438","stopLetter":"RJ","topMostParentId":"490G00015438"},{"icsId":"1014704","id":"490014704S","lat":51.324558,"lon":-0.133171,"name":"Willow Court","parentId":"490G00014704","stationId":"490G00014704","stopLetter":"RK","topMostParentId":"490G00014704"},{"icsId":"1001253","id":"490001253B","lat":51.322287,"lon":-0.136263,"name":"Coulsdon Town Station","parentId":"490G01253A","stationId":"490G01253A","stopLetter":"B","topMostParentId":"910GCOLSTWN"},{"icsId":"1005640","id":"490005637C","lat":51.320373,"lon":-0.138622,"name":"Coulsdon Library","parentId":"490G00005640","stationId":"490G00005640","stopLetter":"C","topMostParentId":"490G00005640"},{"icsId":"1009202","id":"490009202D","lat":51.318201,"lon":-0.138854,"name":"Lion Green Road","parentId":"490G00009202","stationId":"490G00009202","stopLetter":"D","topMostParentId":"490G00009202"},{"icsId":"1001072","id":"490001072M","lat":51.316527,"lon":-0.13707,"name":"Coulsdon South Station","parentId":"490G01072M","stationId":"490G01072M","stopLetter":"M","topMostParentId":"910GCOLSDNS"},{"icsId":"1006183","id":"490006183H","lat":51.315002,"lon":-0.135625,"name":"Downs Road","parentId":"490G00006183","stationId":"490G00006183","stopLetter":"N","topMostParentId":"490G00006183"},{"icsId":"1004958","id":"490004958S","lat":51.313107,"lon":-0.13464,"name":"Chaldon Way Gardens","parentId":"490G00004958","stationId":"490G00004958","stopLetter":"->S","topMostParentId":"490G00004958"},{"icsId":"1004231","id":"490004231S","lat":51.311017,"lon":-0.133864,"name":"Bradmore Way","parentId":"490G00004231","stationId":"490G00004231","stopLetter":"->S","topMostParentId":"490G00004231"},{"icsId":"1009776","id":"490009776S","lat":51.30935,"lon":-0.13254,"name":"Mead Way / Chaldon Way","parentId":"490G00009776","stationId":"490G00009776","stopLetter":"->E","topMostParentId":"490G00009776"},{"icsId":"1009770","id":"490009770S","lat":51.307948,"lon":-0.128665,"name":"New Hill","parentId":"490G00009770","stationId":"490G00009770","stopLetter":"->S","topMostParentId":"490G00009770"},{"icsId":"1011038","id":"490011038S","lat":51.305398,"lon":-0.123834,"name":"Tollers Lane / Placehouse Lane","parentId":"490G00011038","stationId":"490G00011038","stopLetter":"->S","topMostParentId":"490G00011038"},{"icsId":"1013689","id":"490013689S","lat":51.303432,"lon":-0.123455,"name":"Tollers Lane / The Crossways","parentId":"490G00013689","stationId":"490G00013689","stopLetter":"->S","topMostParentId":"490G00013689"},{"icsId":"1013317","id":"490015542S1","lat":51.303795,"lon":-0.119179,"name":"The Crossways","parentId":"490G00013317","stationId":"490G00013317","stopLetter":"M","topMostParentId":"490G00013317"},{"icsId":"1010535","id":"490010535W","lat":51.306639,"lon":-0.11991,"name":"Old Coulsdon / Tudor Rose","parentId":"490G00010535","stationId":"490G00010535","stopLetter":"L","topMostParentId":"490G00010535"}]}]}