{"direction":"inbound","lineId":"n7","lineName":"N7","mode":"bus","stopPointSequences":[{"stopPoint":[{"icsId":"1015198","id":"490000173OQ","lat":51.514868,"lon":-0.143834,"name":"Oxford Circus Stn  / Harewood Place","parentId":"490G000875","stationId":"490G000875","stopLetter":"OQ","topMostParentId":"490G000875"},{"icsId":"1000025","id":"490000025BW","lat":51.514262,"lon":-0.149883,"name":"Bond Street Station","parentId":"490G00025BW","stationId":"490G00025BW","stopLetter":"BW","topMostParentId":"940GZZLUBND","zone":"1"},{"icsId":"1000144","id":"490000144O","lat":51.513562,"lon":-0.156858,"name":"Marble Arch Station","parentId":"490G00144L","stationId":"490G00144L","stopLetter":"O","topMostParentId":"940GZZLUMBA","zone":"1"},{"icsId":"1008450","id":"490000144E","lat":51.513875,"lon":-0.161299,"name":"Marble Arch / Edgware Road","parentId":"490G00008450","stationId":"490G00008450","stopLetter":"E","topMostParentId":"490G00008450"},{"icsId":"1007169","id":"490007167N1","lat":51.517154,"lon":-0.166255,"name":"Burwood Place","parentId":"490G00007169","stationId":"490G00007169","stopLetter":"EK","topMostParentId":"490G00007169"},{"icsId":"1015044","id":"490015044Z","lat":51.517126,"lon":-0.169095,"name":"Sussex Gardens","parentId":"490G00015044","stationId":"490G00015044","stopLetter":"ES","topMostParentId":"490G00015044"},{"icsId":"1012797","id":"490012797N","lat":51.516702,"lon":-0.172456,"name":"St Mary's Hospital","parentId":"490G00012797","stationId":"490G00012797","stopLetter":"G","topMostParentId":"490G00012797"},{"icsId":"1001221","id":"490001221F","lat":51.515494,"lon":-0.175704,"name":"Paddington Station","parentId":"490G01221H","stationId":"490G01221H","stopLetter":"F","topMostParentId":"HUBPAD"},{"icsId":"1005166","id":"490006321D","lat":51.516948,"lon":-0.179033,"name":"Paddington Stn / Eastbourne Terrace","parentId":"490G000450","stationId":"490G000450","stopLetter":"D","topMostParentId":"HUBPAD"},{"icsId":"1014406","id":"490014406W","lat":51.517682,"lon":-0.181137,"name":"Westbourne Terrace","parentId":"490G00014406","stationId":"490G00014406","stopLetter":"R","topMostParentId":"490G00014406"},{"icsId":"1007252","id":"490007252W","lat":51.51687,"lon":-0.184427,"name":"Gloucester Terrace","parentId":"490G00007252","stationId":"490G00007252","stopLetter":"RQ","topMostParentId":"490G00007252"},{"icsId":"1011365","id":"490011365G","lat":51.515666,"lon":-0.189159,"name":"Westbourne Grove / Queensway","parentId":"490G00011365","stationId":"490G00011365","stopLetter":"G","topMostParentId":"490G00011365"},{"icsId":"1019713","id":"490014402A","lat":51.515835,"lon":-0.195421,"name":"Artesian Road","parentId":"490G00019713","stationId":"490G00019713","stopLetter":"PC","topMostParentId":"490G00019713"},{"icsId":"1012948","id":"490012948N","lat":51.518573,"lon":-0.196293,"name":"St Stephens Gardens","parentId":"490G00012948","stationId":"490G00012948","stopLetter":"->N","topMostParentId":"490G00012948"},{"icsId":"1007429","id":"490007420M","lat":51.518372,"lon":-0.199054,"name":"Great Western Road","parentId":"490G00007429","stationId":"490G00007429","stopLetter":"M","topMostParentId":"490G00007429"},{"icsId":"1011158","id":"490011158W","lat":51.51755,"lon":-0.202301,"name":"Powis Gardens","parentId":"490G00011158","stationId":"490G00011158","stopLetter":"PD","topMostParentId":"490G00011158"},{"icsId":"1011137","id":"490011137W","lat":51.516872,"lon":-0.205023,"name":"Portobello Road","parentId":"490G00011137","stationId":"490G00011137","stopLetter":"PE","topMostParentId":"490G00011137"},{"icsId":"1000131","id":"490000131A","lat":51.517273,"lon":-0.210066,"name":"Ladbroke Grove Station","parentId":"490G00131A","stationId":"490G00131A","stopLetter":"A","topMostParentId":"940GZZLULAD","zone":"2"},{"icsId":"1004702","id":"490004702L","lat":51.517869,"lon":-0.212003,"name":"Cambridge Gardens / Ladbroke Grove","parentId":"490G000436","stationId":"490G000436","stopLetter":"L","topMostParentId":"490G000436"},{"icsId":"1019158","id":"490004699N","lat":51.517713,"lon":-0.215324,"name":"Oxford Gardens","parentId":"490G00019158","stationId":"490G00019158","stopLetter":"F","topMostParentId":"490G00019158"},{"icsId":"1012646","id":"490012646N","lat":51.519874,"lon":-0.217892,"name":"St Charles Square","parentId":"490G00012646","stationId":"490G00012646","stopLetter":"G","topMostParentId":"490G00012646"},{"icsId":"1015456","id":"490015456N","lat":51.520973,"lon":-0.218627,"name":"Oakworth Road","parentId":"490G00015456","stationId":"490G00015456","stopLetter":"H","topMostParentId":"490G00015456"},{"icsId":"1012645","id":"490012645N1","lat":51.522587,"lon":-0.219487,"name":"St Charles Health & Wellbeing Centre","parentId":"490G00012645","stationId":"490G00012645","stopLetter":"J","topMostParentId":"490G00012645"},{"icsId":"1005936","id":"490005936W","lat":51.522114,"lon":-0.222071,"name":"Dalgarno Gardens","parentId":"490G00005936","stationId":"490G00005936","stopLetter":"K","topMostParentId":"490G00005936"},{"icsId":"1008175","id":"490008175W","lat":51.520812,"lon":-0.224024,"name":"Highlever Road","parentId":"490G00008175","stationId":"490G00008175","stopLetter":"L","topMostParentId":"490G00008175"},{"icsId":"1010398","id":"490011962W","lat":51.519876,"lon":-0.225762,"name":"North Pole Road","parentId":"490G00010398","stationId":"490G00010398","stopLetter":"S","topMostParentId":"490G00010398"},{"icsId":"1004895","id":"490004895S","lat":51.517916,"lon":-0.22751,"name":"Caverswall Street","parentId":"490G00004895","stationId":"490G00004895","stopLetter":"K","topMostParentId":"490G00004895"},{"icsId":"1014869","id":"490014869W","lat":51.516659,"lon":-0.228885,"name":"Latymer Upper School / Playing Fields","parentId":"490G00014869","stationId":"490G00014869","stopLetter":"D","topMostParentId":"490G00014869"},{"icsId":"1007707","id":"490007707F","lat":51.516152,"lon":-0.234597,"name":"Hammersmith Hospital","parentId":"490G00007707","stationId":"490G00007707","stopLetter":"E","topMostParentId":"490G00007707"},{"icsId":"1014971","id":"490014971G","lat":51.515505,"lon":-0.243587,"name":"Wulfstan Street","parentId":"490G00014971","stationId":"490G00014971","stopLetter":"G","topMostParentId":"490G00014971"},{"icsId":"1000065","id":"490000065H","lat":51.515184,"lon":-0.248586,"name":"East Acton Station","parentId":"490G00065H","stationId":"490G00065H","stopLetter":"H","topMostParentId":"940GZZLUEAN","zone":"2"},{"icsId":"1014446","id":"490014446I","lat":51.514264,"lon":-0.249039,"name":"Westway","parentId":"490G00014446","stationId":"490G00014446","stopLetter":"D","topMostParentId":"490G00014446"},{"icsId":"1011944","id":"490011937J","lat":51.513401,"lon":-0.248453,"name":"East Acton Lane / Old Oak Road","parentId":"490G00011944","stationId":"490G00011944","stopLetter":"J","topMostParentId":"490G00011944"},{"icsId":"1008744","id":"490008744X","lat":51.512659,"lon":-0.251118,"name":"King Fahad Academy","parentId":"490G00008744","stationId":"490G00008744","stopLetter":"P","topMostParentId":"490G00008744"},{"icsId":"1012067","id":"490012067W","lat":51.512021,"lon":-0.254803,"name":"Beechwood Grove","parentId":"490G00012067","stationId":"490G00012067","stopLetter":"W","topMostParentId":"490G00012067"},{"icsId":"1012016","id":"490012016S","lat":51.511117,"lon":-0.256884,"name":"Shaa Road","parentId":"490G00012016","stationId":"490G00012016","stopLetter":"EX","topMostParentId":"490G00012016"},{"icsId":"1015431","id":"490015431S","lat":51.507008,"lon":-0.256897,"name":"Acton Park / Greenview Close","parentId":"490G00015431","stationId":"490G00015431","stopLetter":"EY","topMostParentId":"490G00015431"},{"icsId":"1003084","id":"490003084W","lat":51.506367,"lon":-0.260999,"name":"Acton Park","parentId":"490G00003084","stationId":"490G00003084","stopLetter":"VQ","topMostParentId":"490G00003084"},{"icsId":"1001002","id":"490001002J","lat":51.506475,"lon":-0.26405,"name":"Acton Central Station","parentId":"490G01002H","stationId":"490G01002H","stopLetter":"J","topMostParentId":"910GACTNCTL"},{"icsId":"1003083","id":"490003083G","lat":51.5067,"lon":-0.268912,"name":"Acton Old Town Hall","parentId":"490G00003083","stationId":"490G00003083","stopLetter":"G","topMostParentId":"490G00003083"},{"icsId":"1007604","id":"490007604C","lat":51.507997,"lon":-0.273935,"name":"Steyne Road","parentId":"490G00007604","stationId":"490G00007604","stopLetter":"C","topMostParentId":"490G00007604"},{"icsId":"1003089","id":"490003089A","lat":51.508337,"lon":-0.277496,"name":"Denehurst Gardens","parentId":"490G00003089","stationId":"490G00003089","stopLetter":"A","topMostParentId":"490G00003089"},{"icsId":"1013879","id":"490013879W","lat":51.508566,"lon":-0.282041,"name":"Twyford Avenue","parentId":"490G00013879","stationId":"490G00013879","stopLetter":"EH","topMostParentId":"490G00013879"},{"icsId":"1004009","id":"490004009W","lat":51.50946,"lon":-0.285394,"name":"Birch Grove","parentId":"490G00004009","stationId":"490G00004009","stopLetter":"EJ","topMostParentId":"490G00004009"},{"icsId":"1000063","id":"490000063U","lat":51.51011,"lon":-0.287445,"name":"Ealing Common Station","parentId":"490G00063U","stationId":"490G00063U","stopLetter":"EK","topMostParentId":"940GZZLUECM","zone":"3"},{"icsId":"1007749","id":"490007749W","lat":51.511723,"lon":-0.293235,"name":"Hanger Lane","parentId":"490G00007749","stationId":"490G00007749","stopLetter":"EL","topMostParentId":"490G00007749"},{"icsId":"1000062","id":"490000062K","lat":51.514025,"lon":-0.300629,"name":"Ealing Broadway Station","parentId":"490G00062H","stationId":"490G00062H","stopLetter":"K","topMostParentId":"HUBEAL","zone":"3"},{"icsId":"1007913","id":"490007913E","lat":51.515614,"lon":-0.304173,"name":"Haven Grn / Ealing Broadway Stn","parentId":"490G000578","stationId":"490G000578","stopLetter":"E","topMostParentId":"HUBEAL"},{"icsId":"1006279","id":"490006279N","lat":51.517266,"lon":-0.306461,"name":"Castlebar Road","parentId":"490G00006279","stationId":"490G00006279","stopLetter":"SE","topMostParentId":"490G00006279"},{"icsId":"1009636","id":"490009636N","lat":51.520564,"lon":-0.30631,"name":"Marchwood Crescent","parentId":"490G00009636","stationId":"490G00009636","stopLetter":"SF","topMostParentId":"490G00009636"},{"icsId":"1010001","id":"490010001N","lat":51.522191,"lon":-0.307547,"name":"Montpelier Road","parentId":"490G00010001","stationId":"490G00010001","stopLetter":"SG","topMostParentId":"490G00010001"},{"icsId":"1005149","id":"490005149N","lat":51.524762,"lon":-0.308734,"name":"Fairlea Place","parentId":"490G00005149","stationId":"490G00005149","stopLetter":"SH","topMostParentId":"490G00005149"},{"icsId":"1012634","id":"490012634N","lat":51.526483,"lon":-0.308988,"name":"St Barnabas Church","parentId":"490G00012634","stationId":"490G00012634","stopLetter":"SJ","topMostParentId":"490G00012634"},{"icsId":"1019883","id":"490011029W","lat":51.525779,"lon":-0.315069,"name":"Harrow View Road","parentId":"490G00019883","stationId":"490G00019883","stopLetter":"SK","topMostParentId":"490G00019883"},{"icsId":"1008654","id":"490008654W","lat":51.525199,"lon":-0.317872,"name":"Kent Gardens","parentId":"490G00008654","stationId":"490G00008654","stopLetter":"SL","topMostParentId":"490G00008654"},{"icsId":"1011949","id":"490011949N","lat":51.525269,"lon":-0.32463,"name":"Scotch Common","parentId":"490G00011949","stationId":"490G00011949","stopLetter":"AH","topMostParentId":"490G00011949"},{"icsId":"1011787","id":"490011787N","lat":51.527397,"lon":-0.326297,"name":"Ruislip Road East","parentId":"490G00011787","stationId":"490G00011787","stopLetter":"AJ","topMostParentId":"490G00011787"},{"icsId":"1007609","id":"490007609W","lat":51.528272,"lon":-0.332824,"name":"Gurnell Leisure Centre","parentId":"490G00007609","stationId":"490G00007609","stopLetter":"RU","topMostParentId":"490G00007609"},{"icsId":"1005880","id":"490005880W","lat":51.52759,"lon":-0.337332,"name":"Cuckoo Avenue","parentId":"490G00005880","stationId":"490G00005880","stopLetter":"RV","topMostParentId":"490G00005880"},{"icsId":"1007443","id":"490007443W","lat":51.52732,"lon":-0.341163,"name":"Greenford Avenue","parentId":"490G00007443","stationId":"490G00007443","stopLetter":"RY","topMostParentId":"490G00007443"},{"icsId":"1007441","id":"490007441K","lat":51.527322,"lon":-0.350865,"name":"Clifton Road","parentId":"490G00007441","stationId":"490G00007441","stopLetter":"M","topMostParentId":"490G00007441"},{"icsId":"1007446","id":"490007446B","lat":51.527848,"lon":-0.354363,"name":"Greenford Broadway","parentId":"490G00007446","stationId":"490G00007446","stopLetter":"N","topMostParentId":"490G00007446"},{"icsId":"1010897","id":"490010897E2","lat":51.528698,"lon":-0.359825,"name":"Pembroke Road","parentId":"490G00010897","stationId":"490G00010897","stopLetter":"R","topMostParentId":"490G00010897"},{"icsId":"1006370","id":"490006370W","lat":51.530805,"lon":-0.364565,"name":"Beechwood Avenue","parentId":"490G00006370","stationId":"490G00006370","stopLetter":"EL","topMostParentId":"490G00006370"},{"icsId":"1007457","id":"490007457W","lat":51.532445,"lon":-0.369985,"name":"Greenford High School","parentId":"490G00007457","stationId":"490G00007457","stopLetter":"EM","topMostParentId":"490G00007457"},{"icsId":"1003116","id":"490003116S","lat":51.532655,"lon":-0.372774,"name":"Adrienne Avenue","parentId":"490G00003116","stationId":"490G00003116","stopLetter":"WS","topMostParentId":"490G00003116"},{"icsId":"1004373","id":"490004373W","lat":51.53268,"lon":-0.379809,"name":"Broadmead Road","parentId":"490G00004373","stationId":"490G00004373","stopLetter":"WT","topMostParentId":"490G00004373"},{"icsId":"1008596","id":"490008596W","lat":51.533537,"lon":-0.386498,"name":"Wayfarer Road","parentId":"490G00008596","stationId":"490G00008596","stopLetter":"->W","topMostParentId":"490G00008596"},{"icsId":"1014992","id":"490014992N1","lat":51.537296,"lon":-0.389162,"name":"Yeading / White Hart","parentId":"490G00014992","stationId":"490G00014992","stopLetter":"V","topMostParentId":"490G00014992"},{"icsId":"1003891","id":"490003891N","lat":51.539195,"lon":-0.38598,"name":"Bengarth Road / Northolt Library","parentId":"490G00003891","stationId":"490G00003891","stopLetter":"TD","topMostParentId":"490G00003891"},{"icsId":"1013120","id":"490013120N","lat":51.540902,"lon":-0.381998,"name":"Sycamore Close","parentId":"490G00013120","stationId":"490G00013120","stopLetter":"TE","topMostParentId":"490G00013120"},{"icsId":"1013155","id":"490013155N","lat":51.542524,"lon":-0.378941,"name":"Target Roundabout","parentId":"490G00013155","stationId":"490G00013155","stopLetter":"TF","topMostParentId":"490G00013155"},{"icsId":"1006638","id":"490006638N","lat":51.543949,"lon":-0.375386,"name":"Kingston Close","parentId":"490G00006638","stationId":"490G00006638","stopLetter":"TH","topMostParentId":"490G00006638"},{"icsId":"1003178","id":"490003178W","lat":51.544931,"lon":-0.372884,"name":"Alderney Gardens","parentId":"490G00003178","stationId":"490G00003178","stopLetter":"TJ","topMostParentId":"490G00003178"},{"icsId":"1009959","id":"490009959C","lat":51.546453,"lon":-0.370479,"name":"Moat Farm Road","parentId":"490G00009959","stationId":"490G00009959","stopLetter":"C","topMostParentId":"490G00009959"},{"icsId":"1000162","id":"490000162A","lat":51.54767,"lon":-0.368777,"name":"Northolt Station","parentId":"490G00162X1","stationId":"490G00162X1","stopLetter":"A","topMostParentId":"940GZZLUNHT","zone":"5"}]}]}