{"direction":"inbound","lineId":"n72","lineName":"N72","mode":"bus","stopPointSequences":[{"stopPoint":[{"icsId":"1010306","id":"490010306W1","lat":51.444352,"lon":-0.240318,"name":"Norley Vale","parentId":"490G00010306","stationId":"490G00010306","stopLetter":"RK","topMostParentId":"490G00010306"},{"icsId":"1008002","id":"490008002N","lat":51.445027,"lon":-0.242105,"name":"Heathmere Primary School","parentId":"490G00008002","stationId":"490G00008002","stopLetter":"RM","topMostParentId":"490G00008002"},{"icsId":"1008445","id":"490008445N","lat":51.44649,"lon":-0.241329,"name":"Hyacinth Road","parentId":"490G00008445","stationId":"490G00008445","stopLetter":"RN","topMostParentId":"490G00008445"},{"icsId":"1010985","id":"490010967D","lat":51.448154,"lon":-0.238948,"name":"Shawford Court","parentId":"490G00010985","stationId":"490G00010985","stopLetter":"D","topMostParentId":"490G00010985"},{"icsId":"1003134","id":"490003134A","lat":51.450541,"lon":-0.24221,"name":"Roehampton Lane / Danebury Avenue","parentId":"490G00003134","stationId":"490G00003134","stopLetter":"A","topMostParentId":"490G00003134"},{"icsId":"1011322","id":"490011322S","lat":51.453138,"lon":-0.243923,"name":"Clarence Lane","parentId":"490G00011322","stationId":"490G00011322","stopLetter":"S","topMostParentId":"490G00011322"},{"icsId":"1015037","id":"490015037N","lat":51.455743,"lon":-0.243147,"name":"Queen Mary's Hospital","parentId":"490G00015037","stationId":"490G00015037","stopLetter":"W","topMostParentId":"490G00015037"},{"icsId":"1006083","id":"490006083N","lat":51.458729,"lon":-0.243147,"name":"Roehampton University / Main Entrance","parentId":"490G00006083","stationId":"490G00006083","stopLetter":"X","topMostParentId":"490G00006083"},{"icsId":"1006697","id":"490006697N","lat":51.461121,"lon":-0.243732,"name":"Fairacres","parentId":"490G00006697","stationId":"490G00006697","stopLetter":"Q","topMostParentId":"490G00006697"},{"icsId":"1011715","id":"490011715C","lat":51.464668,"lon":-0.244028,"name":"Rosslyn Park Rugby Football Club","parentId":"490G00011715","stationId":"490G00011715","stopLetter":"S","topMostParentId":"490G00011715"},{"icsId":"1001014","id":"490001014A","lat":51.467404,"lon":-0.241187,"name":"Barnes Station","parentId":"490G01014A","stationId":"490G01014A","stopLetter":"A","topMostParentId":"910GBARNES"},{"icsId":"1012375","id":"490012375E","lat":51.468498,"lon":-0.227813,"name":"Commondale","parentId":"490G00012375","stationId":"490G00012375","stopLetter":"E","topMostParentId":"490G00012375"},{"icsId":"1006825","id":"490006825E","lat":51.468296,"lon":-0.223415,"name":"Festing Road","parentId":"490G00006825","stationId":"490G00006825","stopLetter":"F","topMostParentId":"490G00006825"},{"icsId":"1011828","id":"490011828E","lat":51.467324,"lon":-0.219206,"name":"Ruvigny Gardens","parentId":"490G00011828","stationId":"490G00011828","stopLetter":"G","topMostParentId":"490G00011828"},{"icsId":"1002026","id":"490013344Q","lat":51.466386,"lon":-0.21488,"name":"Putney Pier","parentId":"490G13344P","stationId":"490G13344P","stopLetter":"Q","topMostParentId":"930GPUT"},{"icsId":"1011278","id":"490011278S","lat":51.466722,"lon":-0.213341,"name":"St Mary's Church / Putney Pier","parentId":"490G00011278","stationId":"490G00011278","stopLetter":"S","topMostParentId":"490G00011278"},{"icsId":"1007281","id":"490015157V","lat":51.468039,"lon":-0.211835,"name":"Putney Bridge Stn  / Gonville Street","parentId":"490G000536","stationId":"490G000536","stopLetter":"FH","topMostParentId":"490G000536"},{"icsId":"1008436","id":"490007051N","lat":51.470672,"lon":-0.211127,"name":"Fulham High Street","parentId":"490G00008436","stationId":"490G00008436","stopLetter":"FJ","topMostParentId":"490G00008436"},{"icsId":"1004044","id":"490005444N","lat":51.474894,"lon":-0.214375,"name":"Bishop's Park Road","parentId":"490G00004044","stationId":"490G00004044","stopLetter":"FK","topMostParentId":"490G00004044"},{"icsId":"1006845","id":"490006845N","lat":51.476899,"lon":-0.216111,"name":"Kingwood Road","parentId":"490G00006845","stationId":"490G00006845","stopLetter":"FL","topMostParentId":"490G00006845"},{"icsId":"1008677","id":"490008677N","lat":51.479612,"lon":-0.217719,"name":"Fulham Cemetery","parentId":"490G00008677","stationId":"490G00008677","stopLetter":"HP","topMostParentId":"490G00008677"},{"icsId":"1009155","id":"490009155N","lat":51.482674,"lon":-0.219198,"name":"Lillie Road","parentId":"490G00009155","stationId":"490G00009155","stopLetter":"HQ","topMostParentId":"490G00009155"},{"icsId":"1007530","id":"490007530N","lat":51.484259,"lon":-0.2199,"name":"Greyhound Road","parentId":"490G00007530","stationId":"490G00007530","stopLetter":"HS","topMostParentId":"490G00007530"},{"icsId":"1004991","id":"490004991N","lat":51.487116,"lon":-0.221531,"name":"Charing Cross Hospital","parentId":"490G00004991","stationId":"490G00004991","stopLetter":"HT","topMostParentId":"490G00004991"},{"icsId":"1007702","id":"490007702Y","lat":51.489977,"lon":-0.223394,"name":"Hammersmith Broadway","parentId":"490G000563","stationId":"490G000563","stopLetter":"N","topMostParentId":"490G000563"},{"icsId":"1007705","id":"490007705B","lat":51.492464,"lon":-0.224348,"name":"Hammersmith Bus Station","parentId":"490G000565","stationId":"490G000565","stopLetter":"A","topMostParentId":"HUBHMS"},{"icsId":"1007708","id":"490007708V","lat":51.49362,"lon":-0.224044,"name":"Hammersmith Library","parentId":"490G000567","stationId":"490G000567","stopLetter":"Q","topMostParentId":"490G000567"},{"icsId":"1004456","id":"490004456N","lat":51.497664,"lon":-0.222691,"name":"Brook Green","parentId":"490G00004456","stationId":"490G00004456","stopLetter":"C","topMostParentId":"490G00004456"},{"icsId":"1004121","id":"490004121N","lat":51.500398,"lon":-0.222167,"name":"Blythe Road","parentId":"490G00004121","stationId":"490G00004121","stopLetter":"D","topMostParentId":"490G00004121"},{"icsId":"1012127","id":"490012127P","lat":51.502468,"lon":-0.222821,"name":"Goldhawk Road","parentId":"490G00012127","stationId":"490G00012127","stopLetter":"H","topMostParentId":"490G00012127"},{"icsId":"1012068","id":"490012068S","lat":51.503874,"lon":-0.224236,"name":"Shepherd's Bush Green","parentId":"490G000742","stationId":"490G000742","stopLetter":"N","topMostParentId":"490G000742"},{"icsId":"1009501","id":"490009501Q","lat":51.506345,"lon":-0.224702,"name":"Uxbridge Rd / Westfield Shopping Centre","parentId":"490G000650","stationId":"490G000650","stopLetter":"S","topMostParentId":"490G000650"},{"icsId":"1018981","id":"490003375WD","lat":51.508449,"lon":-0.224721,"name":"Ariel Way / White City Bus Station","parentId":"490G00018981","stationId":"490G00018981","stopLetter":"WD","topMostParentId":"490G00018981"},{"icsId":"1000269","id":"490000269N","lat":51.512006,"lon":-0.225044,"name":"White City Station","parentId":"490G00269B","stationId":"490G00269B","stopLetter":"WE","topMostParentId":"940GZZLUWCY","zone":"2"},{"icsId":"1012238","id":"490012238N","lat":51.513103,"lon":-0.225607,"name":"Westway","parentId":"490G000748","stationId":"490G000748","stopLetter":"N","topMostParentId":"490G000748"},{"icsId":"1014876","id":"490014869N","lat":51.516297,"lon":-0.226924,"name":"Cavell House","parentId":"490G00014876","stationId":"490G00014876","stopLetter":"P","topMostParentId":"490G00014876"},{"icsId":"1014869","id":"490014869W","lat":51.516659,"lon":-0.228885,"name":"Latymer Upper School / Playing Fields","parentId":"490G00014869","stationId":"490G00014869","stopLetter":"D","topMostParentId":"490G00014869"},{"icsId":"1007707","id":"490007707F","lat":51.516152,"lon":-0.234597,"name":"Hammersmith Hospital","parentId":"490G00007707","stationId":"490G00007707","stopLetter":"E","topMostParentId":"490G00007707"},{"icsId":"1014971","id":"490014971G","lat":51.515505,"lon":-0.243587,"name":"Wulfstan Street","parentId":"490G00014971","stationId":"490G00014971","stopLetter":"G","topMostParentId":"490G00014971"},{"icsId":"1000065","id":"490000065H","lat":51.515184,"lon":-0.248586,"name":"East Acton Station","parentId":"490G00065H","stationId":"490G00065H","stopLetter":"H","topMostParentId":"940GZZLUEAN","zone":"2"},{"icsId":"1013349","id":"490013349M","lat":51.516961,"lon":-0.250147,"name":"The Fairway","parentId":"490G00013349","stationId":"490G00013349","stopLetter":"M","topMostParentId":"490G00013349"},{"icsId":"1009299","id":"490009299N","lat":51.518966,"lon":-0.250762,"name":"Long Drive","parentId":"490G00009299","stationId":"490G00009299","stopLetter":"N","topMostParentId":"490G00009299"},{"icsId":"1004524","id":"490004524W","lat":51.519704,"lon":-0.253818,"name":"Brunel Road","parentId":"490G00004524","stationId":"490G00004524","stopLetter":"X1","topMostParentId":"490G00004524"}]}]}