{"direction":"inbound","lineId":"n83","lineName":"N83","mode":"bus","stopPointSequences":[{"stopPoint":[{"icsId":"1006292","id":"490015231T","lat":51.507736,"lon":-0.346975,"name":"Ealing Hospital","parentId":"490G00006292","stationId":"490G00006292","stopLetter":"R","topMostParentId":"490G00006292"},{"icsId":"1006292","id":"490015230P","lat":51.509018,"lon":-0.347361,"name":"Ealing Hospital / Wharncliffe Drive","parentId":"490G00006292","stationId":"490G00006292","stopLetter":"P","topMostParentId":"490G00006292"},{"icsId":"1013580","id":"490013580M","lat":51.508547,"lon":-0.340101,"name":"Half Acre Road","parentId":"490G00013580","stationId":"490G00013580","stopLetter":"M","topMostParentId":"490G00013580"},{"icsId":"1007760","id":"490007760E1","lat":51.508828,"lon":-0.335177,"name":"Hanwell Broadway","parentId":"490G00007760","stationId":"490G00007760","stopLetter":"G","topMostParentId":"490G00007760"},{"icsId":"1007549","id":"490007549E","lat":51.509632,"lon":-0.329095,"name":"Grosvenor Road","parentId":"490G00007549","stationId":"490G00007549","stopLetter":"->E","topMostParentId":"490G00007549"},{"icsId":"1014430","id":"490014430U","lat":51.510294,"lon":-0.323796,"name":"West Ealing Broadway","parentId":"490G00014430","stationId":"490G00014430","stopLetter":"U","topMostParentId":"490G00014430"},{"icsId":"1010367","id":"490010362R","lat":51.510689,"lon":-0.321246,"name":"Dean Gardens / Bedford Road","parentId":"490G00010367","stationId":"490G00010367","stopLetter":"R","topMostParentId":"490G00010367"},{"icsId":"1004500","id":"490004500M","lat":51.51153,"lon":-0.315955,"name":"Broughton Road","parentId":"490G00004500","stationId":"490G00004500","stopLetter":"M","topMostParentId":"490G00004500"},{"icsId":"1012763","id":"490012763E","lat":51.512083,"lon":-0.312519,"name":"St Leonards Road","parentId":"490G00012763","stationId":"490G00012763","stopLetter":"U","topMostParentId":"490G00012763"},{"icsId":"1006304","id":"490006301E","lat":51.512685,"lon":-0.308749,"name":"Longfield Avenue","parentId":"490G00006304","stationId":"490G00006304","stopLetter":"V","topMostParentId":"490G00006304"},{"icsId":"1004143","id":"490019653E","lat":51.513013,"lon":-0.306547,"name":"Bond Street","parentId":"490G00004143","stationId":"490G00004143","topMostParentId":"490G00004143"},{"icsId":"1000062","id":"490000062H","lat":51.514005,"lon":-0.302979,"name":"Ealing Broadway Station","parentId":"490G00062H","stationId":"490G00062H","stopLetter":"H","topMostParentId":"HUBEAL","zone":"3"},{"icsId":"1010339","id":"490010339E","lat":51.513162,"lon":-0.296943,"name":"North Common Road","parentId":"490G00010339","stationId":"490G00010339","stopLetter":"EM","topMostParentId":"490G00010339"},{"icsId":"1007603","id":"490007603T","lat":51.512203,"lon":-0.292194,"name":"Gunnersbury Avenue","parentId":"490G00007603","stationId":"490G00007603","stopLetter":"EP","topMostParentId":"490G00007603"},{"icsId":"1000158","id":"490011333B","lat":51.516359,"lon":-0.291678,"name":"North Ealing Station","parentId":"490G00158A","stationId":"490G00158A","stopLetter":"ER","topMostParentId":"940GZZLUNEN","zone":"3"},{"icsId":"1008210","id":"490008210N","lat":51.524806,"lon":-0.292516,"name":"Hillcrest Road","parentId":"490G00008210","stationId":"490G00008210","stopLetter":"->N","topMostParentId":"490G00008210"},{"icsId":"1000099","id":"490000099A","lat":51.529044,"lon":-0.292732,"name":"Hanger Lane Station","parentId":"490G00099A","stationId":"490G00099A","stopLetter":"A","topMostParentId":"940GZZLUHGR","zone":"3"},{"icsId":"1007750","id":"490007750C","lat":51.531125,"lon":-0.294831,"name":"Hanger Lane Gyratory","parentId":"490G000568","stationId":"490G000568","stopLetter":"C","topMostParentId":"490G000568"},{"icsId":"1011377","id":"490011377D","lat":51.532281,"lon":-0.295177,"name":"Quill Street","parentId":"490G00011377","stationId":"490G00011377","stopLetter":"D","topMostParentId":"490G00011377"},{"icsId":"1003266","id":"490003266N","lat":51.535915,"lon":-0.297709,"name":"Vicars Bridge Close","parentId":"490G00003266","stationId":"490G00003266","stopLetter":"F","topMostParentId":"490G00003266"},{"icsId":"1007198","id":"490007198G","lat":51.53767,"lon":-0.299071,"name":"Glacier Way","parentId":"490G00007198","stationId":"490G00007198","stopLetter":"G","topMostParentId":"490G00007198"},{"icsId":"1000005","id":"490000005B","lat":51.540871,"lon":-0.299067,"name":"Alperton Station","parentId":"490G00005N2","stationId":"490G00005N2","stopLetter":"B","topMostParentId":"940GZZLUALP","zone":"4"},{"icsId":"1005380","id":"490005380N","lat":51.544654,"lon":-0.297008,"name":"Clayton Avenue","parentId":"490G00005380","stationId":"490G00005380","stopLetter":"S","topMostParentId":"490G00005380"},{"icsId":"1006286","id":"490006286N","lat":51.547011,"lon":-0.297699,"name":"Eagle Road","parentId":"490G00006286","stationId":"490G00006286","stopLetter":"->N","topMostParentId":"490G00006286"},{"icsId":"1009488","id":"490009488N","lat":51.548649,"lon":-0.297796,"name":"Lyon Park Avenue","parentId":"490G00009488","stationId":"490G00009488","stopLetter":"->N","topMostParentId":"490G00009488"},{"icsId":"1008177","id":"490008177C","lat":51.551616,"lon":-0.299027,"name":"High Road Wembley","parentId":"490G00008177","stationId":"490G00008177","stopLetter":"CV","topMostParentId":"490G00008177"},{"icsId":"1000256","id":"490000256G","lat":51.552841,"lon":-0.296038,"name":"Wembley Central Station","parentId":"490G00256G","stationId":"490G00256G","stopLetter":"CM","topMostParentId":"HUBWMB","zone":"4"},{"icsId":"1005588","id":"490005584K","lat":51.553657,"lon":-0.292142,"name":"Arkelvin Academy / Park Lane","parentId":"490G00005588","stationId":"490G00005588","stopLetter":"SG","topMostParentId":"490G00005588"},{"icsId":"1014387","id":"490014387E2","lat":51.553619,"lon":-0.28835,"name":"Wembley Triangle","parentId":"490G00014387","stationId":"490G00014387","stopLetter":"SC","topMostParentId":"490G00014387"},{"icsId":"1001320","id":"490001320B","lat":51.555212,"lon":-0.286545,"name":"Wembley Stadium Station","parentId":"490G01320B","stationId":"490G01320B","stopLetter":"SD","topMostParentId":"910GWEMBLSM"},{"icsId":"1014376","id":"490014376D","lat":51.557807,"lon":-0.285668,"name":"Lakeside Way","parentId":"490G00014376","stationId":"490G00014376","stopLetter":"D","topMostParentId":"490G00014376"},{"icsId":"1014375","id":"490014375G","lat":51.559401,"lon":-0.284598,"name":"Wembley Arena","parentId":"490G00014375","stationId":"490G00014375","stopLetter":"G","topMostParentId":"490G00014375"},{"icsId":"1006565","id":"490014384J","lat":51.561955,"lon":-0.282165,"name":"Empire Way","parentId":"490G00006565","stationId":"490G00006565","stopLetter":"J","topMostParentId":"490G00006565"},{"icsId":"1000257","id":"490000257N","lat":51.563228,"lon":-0.279434,"name":"Wembley Park Station","parentId":"490G00257M","stationId":"490G00257M","stopLetter":"N","topMostParentId":"940GZZLUWYP","zone":"4"},{"icsId":"1004301","id":"490004301E","lat":51.565556,"lon":-0.273877,"name":"Lycee International / Kings Drive","parentId":"490G00004301","stationId":"490G00004301","stopLetter":"BA","topMostParentId":"490G00004301"},{"icsId":"1004051","id":"490004051E","lat":51.565996,"lon":-0.266502,"name":"Blackbird Cross","parentId":"490G00004051","stationId":"490G00004051","stopLetter":"BB","topMostParentId":"490G00004051"},{"icsId":"1015261","id":"490015261N","lat":51.566518,"lon":-0.264708,"name":"Tudor Gardens","parentId":"490G00015261","stationId":"490G00015261","stopLetter":"BC","topMostParentId":"490G00015261"},{"icsId":"1006005","id":"490006005N","lat":51.569174,"lon":-0.263135,"name":"Deanscroft Avenue","parentId":"490G00006005","stationId":"490G00006005","stopLetter":"BD","topMostParentId":"490G00006005"},{"icsId":"1009002","id":"490009002N","lat":51.572259,"lon":-0.262541,"name":"Lavender Avenue","parentId":"490G00009002","stationId":"490G00009002","stopLetter":"BE","topMostParentId":"490G00009002"},{"icsId":"1011327","id":"490011327N","lat":51.575317,"lon":-0.262612,"name":"Queensbury Road","parentId":"490G00011327","stationId":"490G00011327","stopLetter":"P","topMostParentId":"490G00011327"},{"icsId":"1012201","id":"490012201N","lat":51.579197,"lon":-0.262883,"name":"Slough Lane","parentId":"490G00012201","stationId":"490G00012201","stopLetter":"R","topMostParentId":"490G00012201"},{"icsId":"1008761","id":"490008761N","lat":51.582427,"lon":-0.262399,"name":"Kingsbury Green","parentId":"490G00008761","stationId":"490G00008761","stopLetter":"S","topMostParentId":"490G00008761"},{"icsId":"1005271","id":"490005271E","lat":51.582873,"lon":-0.260967,"name":"Church Lane","parentId":"490G00005271","stationId":"490G00005271","stopLetter":"C","topMostParentId":"490G00005271"},{"icsId":"1013758","id":"490013758E","lat":51.582416,"lon":-0.256178,"name":"Townsend Lane","parentId":"490G00013758","stationId":"490G00013758","stopLetter":"D","topMostParentId":"490G00013758"},{"icsId":"1014469","id":"490014469E","lat":51.58406,"lon":-0.249461,"name":"Edgware Road / The Hyde","parentId":"490G00014469","stationId":"490G00014469","stopLetter":"HT","topMostParentId":"490G00014469"},{"icsId":"1014471","id":"490014471S","lat":51.581558,"lon":-0.244476,"name":"Hendon Magistrates Court","parentId":"490G00014471","stationId":"490G00014471","stopLetter":"HB","topMostParentId":"490G00014471"},{"icsId":"1014561","id":"490014561S","lat":51.579324,"lon":-0.2412,"name":"West Hendon Broadway / Herbert Road","parentId":"490G00014561","stationId":"490G00014561","stopLetter":"HC","topMostParentId":"490G00014561"},{"icsId":"1001148","id":"490001148A","lat":51.579343,"lon":-0.23889,"name":"Hendon Station","parentId":"490G01148B","stationId":"490G01148B","stopLetter":"HD","topMostParentId":"910GHDON"},{"icsId":"1003476","id":"490003476E1","lat":51.582342,"lon":-0.233202,"name":"Audley Road","parentId":"490G00003476","stationId":"490G00003476","topMostParentId":"490G00003476"},{"icsId":"1008060","id":"490008060D","lat":51.582741,"lon":-0.228077,"name":"Hendon Way","parentId":"490G000591","stationId":"490G000591","stopLetter":"D","topMostParentId":"490G000591"},{"icsId":"1000106","id":"490000106A","lat":51.582843,"lon":-0.225894,"name":"Hendon Central Station","parentId":"490G00106A","stationId":"490G00106A","stopLetter":"A","topMostParentId":"940GZZLUHCL","zone":"3+4"},{"icsId":"1004295","id":"490004295Y","lat":51.584331,"lon":-0.219672,"name":"Brent Green","parentId":"490G00004295","stationId":"490G00004295","stopLetter":"Y","topMostParentId":"490G00004295"},{"icsId":"1007464","id":"490007464S","lat":51.583163,"lon":-0.215561,"name":"Brent Street / Green Lane","parentId":"490G00007464","stationId":"490G00007464","stopLetter":"L","topMostParentId":"490G00007464"},{"icsId":"1010331","id":"490010331E","lat":51.581475,"lon":-0.212813,"name":"North Circular Road","parentId":"490G00010331","stationId":"490G00010331","stopLetter":"M","topMostParentId":"490G00010331"},{"icsId":"1007270","id":"490007270E","lat":51.580524,"lon":-0.210584,"name":"Golders Manor Drive","parentId":"490G00007270","stationId":"490G00007270","stopLetter":"N","topMostParentId":"490G00007270"},{"icsId":"1008152","id":"490008152S","lat":51.578513,"lon":-0.207805,"name":"Highfield Avenue","parentId":"490G00008152","stationId":"490G00008152","stopLetter":"P","topMostParentId":"490G00008152"},{"icsId":"1014904","id":"490014904E","lat":51.575988,"lon":-0.204412,"name":"Woodstock Avenue","parentId":"490G00014904","stationId":"490G00014904","stopLetter":"R","topMostParentId":"490G00014904"},{"icsId":"1015322","id":"490015322GR","lat":51.57365,"lon":-0.200348,"name":"Hoop Lane","parentId":"490G00015322","stationId":"490G00015322","stopLetter":"S","topMostParentId":"490G00015322"},{"icsId":"1006838","id":"490006838GT","lat":51.572188,"lon":-0.197058,"name":"Finchley Road","parentId":"490G00006838","stationId":"490G00006838","stopLetter":"GT","topMostParentId":"490G00006838"},{"icsId":"1000087","id":"490000087GH","lat":51.571917,"lon":-0.194053,"name":"Golders Green Station","parentId":"490G00087GB","stationId":"490G00087GB","stopLetter":"GH","topMostParentId":"940GZZLUGGN","zone":"3"}]}]}