{"direction":"inbound","lineId":"n89","lineName":"N89","mode":"bus","stopPointSequences":[{"stopPoint":[{"icsId":"1005821","id":"490005817G","lat":51.48066,"lon":0.17865,"name":"Erith Town Centre / Cross Street","parentId":"490G00005821","stationId":"490G00005821","stopLetter":"G","topMostParentId":"490G00005821"},{"icsId":"1003500","id":"490003500K","lat":51.478645,"lon":0.180585,"name":"James Watt Way","parentId":"490G00003500","stationId":"490G00003500","stopLetter":"K","topMostParentId":"490G00003500"},{"icsId":"1013540","id":"490013540E","lat":51.478389,"lon":0.185656,"name":"Manor Road / Aperfield Road","parentId":"490G00013540","stationId":"490G00013540","stopLetter":"->E","topMostParentId":"490G00013540"},{"icsId":"1004006","id":"490004006E","lat":51.477579,"lon":0.191983,"name":"Bilton Road","parentId":"490G00004006","stationId":"490G00004006","stopLetter":"->E","topMostParentId":"490G00004006"},{"icsId":"1012192","id":"490012192S","lat":51.476203,"lon":0.195316,"name":"Slade Green Road / Manor Road","parentId":"490G00012192","stationId":"490G00012192","stopLetter":"->S","topMostParentId":"490G00012192"},{"icsId":"1007367","id":"490007367S","lat":51.472984,"lon":0.195305,"name":"Grange Way","parentId":"490G00007367","stationId":"490G00007367","stopLetter":"->S","topMostParentId":"490G00007367"},{"icsId":"1007973","id":"490007973S","lat":51.470558,"lon":0.193288,"name":"Hazel Road","parentId":"490G00007973","stationId":"490G00007973","stopLetter":"L","topMostParentId":"490G00007973"},{"icsId":"1019839","id":"490001252A","lat":51.467664,"lon":0.190759,"name":"Forest Road / Slade Green Station","parentId":"490G000955","stationId":"490G000955","stopLetter":"A","topMostParentId":"490G000955"},{"icsId":"1007973","id":"490007973N","lat":51.470973,"lon":0.193207,"name":"Hazel Road","parentId":"490G00007973","stationId":"490G00007973","stopLetter":"K","topMostParentId":"490G00007973"},{"icsId":"1012191","id":"490012191W","lat":51.470595,"lon":0.190309,"name":"Bridge Road / Slade Green Road","parentId":"490G00012191","stationId":"490G00012191","stopLetter":"H","topMostParentId":"490G00012191"},{"icsId":"1009713","id":"490009713W","lat":51.468587,"lon":0.186124,"name":"Masefield Close","parentId":"490G00009713","stationId":"490G00009713","stopLetter":"->W","topMostParentId":"490G00009713"},{"icsId":"1010356","id":"490010356W","lat":51.46704,"lon":0.182738,"name":"Bridge Road / Northend Road","parentId":"490G00010356","stationId":"490G00010356","stopLetter":"->W","topMostParentId":"490G00010356"},{"icsId":"1005516","id":"490005516N","lat":51.469624,"lon":0.180687,"name":"Northend Road / Colyers Lane","parentId":"490G00005516","stationId":"490G00005516","stopLetter":"->N","topMostParentId":"490G00005516"},{"icsId":"1004036","id":"490004036W","lat":51.470426,"lon":0.178163,"name":"Myrtle Close","parentId":"490G00004036","stationId":"490G00004036","stopLetter":"->W","topMostParentId":"490G00004036"},{"icsId":"1005518","id":"490005518W","lat":51.470972,"lon":0.17348,"name":"Colyers Walk","parentId":"490G00005518","stationId":"490G00005518","stopLetter":"->W","topMostParentId":"490G00005518"},{"icsId":"1010416","id":"490010416W","lat":51.471574,"lon":0.17011,"name":"Northumberland Way","parentId":"490G00010416","stationId":"490G00010416","stopLetter":"K","topMostParentId":"490G00010416"},{"icsId":"1008440","id":"490008440W","lat":51.471397,"lon":0.164558,"name":"Hurst Road","parentId":"490G00008440","stationId":"490G00008440","stopLetter":"N","topMostParentId":"490G00008440"},{"icsId":"1019145","id":"490004477S","lat":51.470651,"lon":0.160649,"name":"Brook Street","parentId":"490G00019145","stationId":"490G00019145","stopLetter":"L","topMostParentId":"490G00019145"},{"icsId":"1011833","id":"490011833S","lat":51.467622,"lon":0.158145,"name":"Rydal Drive","parentId":"490G00011833","stationId":"490G00011833","stopLetter":"M","topMostParentId":"490G00011833"},{"icsId":"1001013","id":"490001013B","lat":51.465564,"lon":0.157083,"name":"Barnehurst Station","parentId":"490G01013B","stationId":"490G01013B","stopLetter":"A","topMostParentId":"910GBRNHRST"},{"icsId":"1009470","id":"490009470S","lat":51.463329,"lon":0.154401,"name":"Lyndhurst Road","parentId":"490G00009470","stationId":"490G00009470","stopLetter":"NU","topMostParentId":"490G00009470"},{"icsId":"1015358","id":"490015358S","lat":51.461603,"lon":0.153398,"name":"Long Lane","parentId":"490G00015358","stationId":"490G00015358","stopLetter":"NV","topMostParentId":"490G00015358"},{"icsId":"1003974","id":"490003974S2","lat":51.459624,"lon":0.152945,"name":"Bexleyheath Bus Garage","parentId":"490G00003974","stationId":"490G00003974","stopLetter":"NW","topMostParentId":"490G00003974"},{"icsId":"1013748","id":"490013748W","lat":51.45762,"lon":0.149929,"name":"Tower Road","parentId":"490G00013748","stationId":"490G00013748","stopLetter":"NQ","topMostParentId":"490G00013748"},{"icsId":"1003975","id":"490003975M","lat":51.456488,"lon":0.146435,"name":"Bexleyheath Clock Tower","parentId":"490G00003975","stationId":"490G00003975","stopLetter":"M","topMostParentId":"490G00003975"},{"icsId":"1003973","id":"490003973A","lat":51.457235,"lon":0.139978,"name":"Trinity Place","parentId":"490G00003973","stationId":"490G00003973","stopLetter":"A","topMostParentId":"490G00003973"},{"icsId":"1009203","id":"490009203C","lat":51.457915,"lon":0.135245,"name":"Lion Road","parentId":"490G00009203","stationId":"490G00009203","stopLetter":"BM","topMostParentId":"490G00009203"},{"icsId":"1013960","id":"490013960W","lat":51.458389,"lon":0.131942,"name":"Upton Road","parentId":"490G00013960","stationId":"490G00013960","stopLetter":"BN","topMostParentId":"490G00013960"},{"icsId":"1005805","id":"490005805W","lat":51.458986,"lon":0.128299,"name":"Crook Log / Dallin Road","parentId":"490G00005805","stationId":"490G00005805","stopLetter":"BQ","topMostParentId":"490G00005805"},{"icsId":"1019789","id":"490016645W","lat":51.459798,"lon":0.123154,"name":"Park View Road / Crook Log","parentId":"490G00019789","stationId":"490G00019789","stopLetter":"BT","topMostParentId":"490G00019789"},{"icsId":"1003948","id":"490003948W","lat":51.460366,"lon":0.120129,"name":"Bethel Road","parentId":"490G00003948","stationId":"490G00003948","stopLetter":"BU","topMostParentId":"490G00003948"},{"icsId":"1007611","id":"490007611W","lat":51.460802,"lon":0.116881,"name":"Guy, Earl Of Warwick","parentId":"490G00007611","stationId":"490G00007611","stopLetter":"BV","topMostParentId":"490G00007611"},{"icsId":"1014353","id":"490014353R","lat":51.46224,"lon":0.108943,"name":"Welling High Street / Upper Wickham Lane","parentId":"490G00014353","stationId":"490G00014353","stopLetter":"R","topMostParentId":"490G00014353"},{"icsId":"1014351","id":"490014351P","lat":51.462569,"lon":0.106669,"name":"Bellegrove Road / Churchfield Road","parentId":"490G00014351","stationId":"490G00014351","stopLetter":"P","topMostParentId":"490G00014351"},{"icsId":"1011803","id":"490011803G","lat":51.462914,"lon":0.103489,"name":"Ruskin Drive","parentId":"490G00011803","stationId":"490G00011803","stopLetter":"G","topMostParentId":"490G00011803"},{"icsId":"1011802","id":"490011802D","lat":51.463522,"lon":0.100666,"name":"Ruskin Avenue / Welling Station","parentId":"490G000733","stationId":"490G000733","stopLetter":"D","topMostParentId":"490G000733"},{"icsId":"1014364","id":"490014364F","lat":51.464619,"lon":0.093633,"name":"Bellegrove Road / Welling Way","parentId":"490G00014364","stationId":"490G00014364","stopLetter":"F","topMostParentId":"490G00014364"},{"icsId":"1012086","id":"490012086W","lat":51.465432,"lon":0.088891,"name":"Bellegrove Road / Sherwood Road","parentId":"490G00012086","stationId":"490G00012086","stopLetter":"X","topMostParentId":"490G00012086"},{"icsId":"1014349","id":"490014349W","lat":51.466114,"lon":0.084934,"name":"Eastcote Road","parentId":"490G00014349","stationId":"490G00014349","stopLetter":"SJ","topMostParentId":"490G00014349"},{"icsId":"1010701","id":"490010701W","lat":51.467162,"lon":0.079107,"name":"Oxleas Wood / Woodlands Farm","parentId":"490G00010701","stationId":"490G00010701","stopLetter":"SK","topMostParentId":"490G00010701"},{"icsId":"1006288","id":"490006288W","lat":51.468725,"lon":0.069027,"name":"Eaglesfield Road","parentId":"490G00006288","stationId":"490G00006288","stopLetter":"SL","topMostParentId":"490G00006288"},{"icsId":"1009805","id":"490009803W","lat":51.469432,"lon":0.064639,"name":"Memorial Hospital","parentId":"490G00009805","stationId":"490G00009805","stopLetter":"SM","topMostParentId":"490G00009805"},{"icsId":"1011486","id":"490011486W","lat":51.470361,"lon":0.059353,"name":"Red Lion Lane","parentId":"490G00011486","stationId":"490G00011486","stopLetter":"SN","topMostParentId":"490G00011486"},{"icsId":"1012108","id":"490012108W","lat":51.471124,"lon":0.05429,"name":"Shooters Hill Road / Well Hall Road","parentId":"490G00012108","stationId":"490G00012108","stopLetter":"SP","topMostParentId":"490G00012108"},{"icsId":"1004460","id":"490004460W","lat":51.472589,"lon":0.047156,"name":"Shooters Hill Road / Baker Road","parentId":"490G00004460","stationId":"490G00004460","stopLetter":"SQ","topMostParentId":"490G00004460"},{"icsId":"1010733","id":"490010733W","lat":51.47341,"lon":0.042902,"name":"Pallet Way","parentId":"490G00010733","stationId":"490G00010733","stopLetter":"ST","topMostParentId":"490G00010733"},{"icsId":"1005011","id":"490005011W","lat":51.474188,"lon":0.037954,"name":"Charlton Park Lane","parentId":"490G00005011","stationId":"490G00005011","stopLetter":"->W","topMostParentId":"490G00005011"},{"icsId":"1008478","id":"490008478W","lat":51.474788,"lon":0.033978,"name":"Weyman Road","parentId":"490G00008478","stationId":"490G00008478","stopLetter":"A","topMostParentId":"490G00008478"},{"icsId":"1010537","id":"490010537W","lat":51.475165,"lon":0.031402,"name":"Hervey Road","parentId":"490G00010537","stationId":"490G00010537","stopLetter":"B","topMostParentId":"490G00010537"},{"icsId":"1015437","id":"490015427W","lat":51.47532,"lon":0.028716,"name":"Old Dover Road","parentId":"490G00015437","stationId":"490G00015437","stopLetter":"C","topMostParentId":"490G00015437"},{"icsId":"1013014","id":"490013014W2","lat":51.47438,"lon":0.022699,"name":"Shooters Hill Road / Kidbrooke Park Road","parentId":"490G00013014","stationId":"490G00013014","stopLetter":"D","topMostParentId":"490G00013014"},{"icsId":"1008707","id":"490008705W","lat":51.474036,"lon":0.02025,"name":"Kidbrooke Grove","parentId":"490G00008707","stationId":"490G00008707","stopLetter":"E","topMostParentId":"490G00008707"},{"icsId":"1012711","id":"490012711S","lat":51.472837,"lon":0.014696,"name":"St Germans Place","parentId":"490G00012711","stationId":"490G00012711","stopLetter":"F","topMostParentId":"490G00012711"},{"icsId":"1010003","id":"490010003L","lat":51.469952,"lon":0.010912,"name":"Montpelier Row","parentId":"490G00010003","stationId":"490G00010003","stopLetter":"L","topMostParentId":"490G00010003"},{"icsId":"1001029","id":"490001029E","lat":51.465466,"lon":0.009246,"name":"Blackheath Station","parentId":"490G01029C","stationId":"490G01029C","stopLetter":"E","topMostParentId":"910GBLKHTH"},{"icsId":"1004066","id":"490004066A","lat":51.463735,"lon":0.006334,"name":"Blackheath Hospital","parentId":"490G00004066","stationId":"490G00004066","stopLetter":"A","topMostParentId":"490G00004066"},{"icsId":"1012772","id":"490012772W","lat":51.463117,"lon":0.000937,"name":"St Margaret's Church / Brandram Road","parentId":"490G00012772","stationId":"490G00012772","stopLetter":"C","topMostParentId":"490G00012772"},{"icsId":"1013561","id":"490013561W","lat":51.462663,"lon":-0.003517,"name":"The Squirrels","parentId":"490G00013561","stationId":"490G00013561","stopLetter":"E","topMostParentId":"490G00013561"},{"icsId":"1009239","id":"490009239L","lat":51.462856,"lon":-0.008029,"name":"Lockmead Road","parentId":"490G00009239","stationId":"490G00009239","stopLetter":"L","topMostParentId":"490G00009239"},{"icsId":"1009106","id":"490011522E","lat":51.462499,"lon":-0.009786,"name":"Lewisham Clock Tower","parentId":"490G00009106","stationId":"490G00009106","stopLetter":"R","topMostParentId":"490G00009106"},{"icsId":"1001177","id":"490009104A","lat":51.464369,"lon":-0.011318,"name":"Lewisham Station","parentId":"490G01177G","stationId":"490G01177G","stopLetter":"G","topMostParentId":"HUBLEW","zone":"2+3"},{"icsId":"1004068","id":"490004068N","lat":51.467881,"lon":-0.01213,"name":"Blackheath Rise","parentId":"490G00004068","stationId":"490G00004068","stopLetter":"ED","topMostParentId":"490G00004068"},{"icsId":"1010022","id":"490010022C","lat":51.469316,"lon":-0.013521,"name":"Morden Hill","parentId":"490G00010022","stationId":"490G00010022","stopLetter":"EC","topMostParentId":"490G00010022"},{"icsId":"1012371","id":"490012371N","lat":51.471573,"lon":-0.015108,"name":"Sparta Street","parentId":"490G00012371","stationId":"490G00012371","stopLetter":"D","topMostParentId":"490G00012371"},{"icsId":"1006455","id":"490006455N","lat":51.473164,"lon":-0.018236,"name":"Egerton Drive","parentId":"490G00006455","stationId":"490G00006455","stopLetter":"N","topMostParentId":"490G00006455"},{"icsId":"1002029","id":"490002029T","lat":51.474417,"lon":-0.023193,"name":"Deptford Bridge Station","parentId":"490G02029S","stationId":"490G02029S","stopLetter":"T","topMostParentId":"940GZZDLDEP","zone":"2+3"},{"icsId":"1006879","id":"490006879F","lat":51.475242,"lon":-0.028399,"name":"Florence Road","parentId":"490G00006879","stationId":"490G00006879","stopLetter":"F","topMostParentId":"490G00006879"},{"icsId":"1000155","id":"490000155W","lat":51.475685,"lon":-0.031216,"name":"New Cross Station","parentId":"490G00155V","stationId":"490G00155V","stopLetter":"W","topMostParentId":"HUBNWX"},{"icsId":"1007276","id":"490007276Y","lat":51.475052,"lon":-0.035333,"name":"Marquis Of Granby / Goldsmiths","parentId":"490G00007276","stationId":"490G00007276","stopLetter":"Y","topMostParentId":"490G00007276"},{"icsId":"1000156","id":"490000156O","lat":51.474837,"lon":-0.039648,"name":"New Cross Gate Station","parentId":"490G00156M","stationId":"490G00156M","stopLetter":"O","topMostParentId":"HUBNXG"},{"icsId":"1010204","id":"490010204K","lat":51.474095,"lon":-0.044245,"name":"New Cross Bus Garage","parentId":"490G00010204","stationId":"490G00010204","stopLetter":"K","topMostParentId":"490G00010204"},{"icsId":"1010205","id":"490010205A","lat":51.473916,"lon":-0.048587,"name":"New Cross Fire Station","parentId":"490G00010205","stationId":"490G00010205","stopLetter":"A","topMostParentId":"490G00010205"},{"icsId":"1011088","id":"490011088QA","lat":51.473048,"lon":-0.05208,"name":"Pomeroy Street","parentId":"490G00011088","stationId":"490G00011088","stopLetter":"QA","topMostParentId":"490G00011088"},{"icsId":"1001233","id":"490001233QB","lat":51.473597,"lon":-0.059184,"name":"Queen's Road Peckham Station","parentId":"490G01233QN","stationId":"490G01233QN","stopLetter":"QB","topMostParentId":"910GPCKHMQD"},{"icsId":"1004799","id":"490004799QC","lat":51.473936,"lon":-0.061747,"name":"Carlton Grove","parentId":"490G00004799","stationId":"490G00004799","stopLetter":"QC","topMostParentId":"490G00004799"},{"icsId":"1005382","id":"490005382J","lat":51.472948,"lon":-0.065605,"name":"Clayton Road","parentId":"490G00005382","stationId":"490G00005382","stopLetter":"J","topMostParentId":"490G00005382"},{"icsId":"1007768","id":"490011842R","lat":51.472667,"lon":-0.069822,"name":"Hanover Park","parentId":"490G00007768","stationId":"490G00007768","stopLetter":"R","topMostParentId":"490G00007768"},{"icsId":"1014252","id":"490014252W","lat":51.473733,"lon":-0.073391,"name":"Harris Academy","parentId":"490G00014252","stationId":"490G00014252","stopLetter":"S","topMostParentId":"490G00014252"},{"icsId":"1012248","id":"490012248W","lat":51.474215,"lon":-0.07651,"name":"Peckham Road / Southampton Way","parentId":"490G00012248","stationId":"490G00012248","stopLetter":"T","topMostParentId":"490G00012248"},{"icsId":"1012357","id":"490012357W2","lat":51.473699,"lon":-0.08232,"name":"Vestry Road","parentId":"490G00012357","stationId":"490G00012357","stopLetter":"V","topMostParentId":"490G00012357"},{"icsId":"1012713","id":"490012713W","lat":51.473435,"lon":-0.087083,"name":"St Giles Church","parentId":"490G00012713","stationId":"490G00012713","stopLetter":"U","topMostParentId":"490G00012713"},{"icsId":"1015299","id":"490015299L","lat":51.474029,"lon":-0.091537,"name":"Camberwell Church St / Camberwell Grn","parentId":"490G00015299","stationId":"490G00015299","stopLetter":"L","topMostParentId":"490G00015299"},{"icsId":"1015298","id":"490015298F","lat":51.474784,"lon":-0.093161,"name":"Camberwell Green","parentId":"490G00015298","stationId":"490G00015298","stopLetter":"F","topMostParentId":"490G00015298"},{"icsId":"1009784","id":"490009784C","lat":51.476624,"lon":-0.09402,"name":"Medlar Street","parentId":"490G00009784","stationId":"490G00009784","stopLetter":"C","topMostParentId":"490G00009784"},{"icsId":"1014979","id":"490014979N2","lat":51.478639,"lon":-0.094066,"name":"Wyndham Road","parentId":"490G00014979","stationId":"490G00014979","stopLetter":"U","topMostParentId":"490G00014979"},{"icsId":"1004221","id":"490004221N","lat":51.480561,"lon":-0.094461,"name":"Bowyer Place","parentId":"490G00004221","stationId":"490G00004221","stopLetter":"Z","topMostParentId":"490G00004221"},{"icsId":"1003138","id":"490003138N2","lat":51.481677,"lon":-0.094544,"name":"Camberwell Road / Albany Road","parentId":"490G00003138","stationId":"490G00003138","stopLetter":"X","topMostParentId":"490G00003138"},{"icsId":"1014501","id":"490014501M","lat":51.484044,"lon":-0.094085,"name":"Westmoreland Road","parentId":"490G00014501","stationId":"490G00014501","stopLetter":"M","topMostParentId":"490G00014501"},{"icsId":"1006380","id":"490006380H","lat":51.486956,"lon":-0.095145,"name":"East Street","parentId":"490G00006380","stationId":"490G00006380","stopLetter":"H","topMostParentId":"490G00006380"},{"icsId":"1008975","id":"490008975C","lat":51.48997,"lon":-0.096892,"name":"Larcom Street","parentId":"490G00008975","stationId":"490G00008975","stopLetter":"C","topMostParentId":"490G00008975"},{"icsId":"1008122","id":"490008122N","lat":51.492352,"lon":-0.098478,"name":"Heygate Street","parentId":"490G00008122","stationId":"490G00008122","stopLetter":"Z","topMostParentId":"490G00008122"},{"icsId":"1000073","id":"490000073V","lat":51.494441,"lon":-0.100869,"name":"Elephant & Castle Station","parentId":"490G00073G","stationId":"490G00073G","stopLetter":"V","topMostParentId":"HUBEPH","zone":"1+2"},{"icsId":"1009281","id":"490009281A","lat":51.496136,"lon":-0.101706,"name":"Elephant & Castle / London Road","parentId":"490G000642","stationId":"490G000642","stopLetter":"A","topMostParentId":"490G000642"},{"icsId":"1012693","id":"490015140N","lat":51.500169,"lon":-0.104752,"name":"St George's Circus","parentId":"490G00012693","stationId":"490G00012693","stopLetter":"U","topMostParentId":"490G00012693"},{"icsId":"1011082","id":"490011082N","lat":51.502677,"lon":-0.104662,"name":"Pocock Street","parentId":"490G00011082","stationId":"490G00011082","stopLetter":"V","topMostParentId":"490G00011082"},{"icsId":"1000215","id":"490013323SA","lat":51.504466,"lon":-0.104617,"name":"Southwark Station","parentId":"490G13323SA","stationId":"490G13323SA","stopLetter":"SA","topMostParentId":"940GZZLUSWK","zone":"1"},{"icsId":"1012526","id":"490012526SD","lat":51.506433,"lon":-0.104521,"name":"Stamford Street","parentId":"490G00012526","stationId":"490G00012526","stopLetter":"SD","topMostParentId":"490G00012526"},{"icsId":"1013934","id":"490013934N","lat":51.5088,"lon":-0.104624,"name":"Blackfriars Station / South Entrance","parentId":"490G00013934","stationId":"490G00013934","stopLetter":"C","topMostParentId":"HUBBFR"},{"icsId":"1020084","id":"490000023J","lat":51.512392,"lon":-0.104302,"name":"Blackfriars Station / North Entrance","parentId":"490G00020084","stationId":"490G00020084","stopLetter":"J","topMostParentId":"490G00020084"},{"icsId":"1012105","id":"490012105HB","lat":51.514084,"lon":-0.106639,"name":"Shoe Lane","parentId":"490G00012105","stationId":"490G00012105","stopLetter":"H","topMostParentId":"490G00012105"},{"icsId":"1006826","id":"490006826W","lat":51.51414,"lon":-0.108395,"name":"Fetter Lane","parentId":"490G00006826","stationId":"490G00006826","stopLetter":"->W","topMostParentId":"490G00006826"},{"icsId":"1015067","id":"490015067W","lat":51.513876,"lon":-0.110438,"name":"Chancery Lane","parentId":"490G00015067","stationId":"490G00015067","stopLetter":"->W","topMostParentId":"490G00015067"},{"icsId":"1011757","id":"490011757P","lat":51.512963,"lon":-0.113531,"name":"The Royal Courts Of Justice","parentId":"490G000731","stationId":"490G000731","stopLetter":"P","topMostParentId":"490G000731"},{"icsId":"1003193","id":"490003193R","lat":51.5121,"lon":-0.116291,"name":"Aldwych / Somerset House","parentId":"490G000386","stationId":"490G000386","stopLetter":"R","topMostParentId":"490G000386"},{"icsId":"1011938","id":"490011938U","lat":51.510773,"lon":-0.120481,"name":"Savoy Street","parentId":"490G000737","stationId":"490G000737","stopLetter":"U","topMostParentId":"490G000737"},{"icsId":"1003112","id":"490003112J","lat":51.509674,"lon":-0.123193,"name":"Bedford Street","parentId":"490G00003112","stationId":"490G00003112","stopLetter":"J","topMostParentId":"490G00003112"},{"icsId":"1000045","id":"490013766H","lat":51.508435,"lon":-0.12552,"name":"Charing Cross Station","parentId":"490G00045","stationId":"490G00045","stopLetter":"H","topMostParentId":"HUBCHX","zone":"1"}]}]}