{"direction":"inbound","lineId":"n9","lineName":"N9","mode":"bus","stopPointSequences":[{"stopPoint":[{"icsId":"1016430","id":"4900164306","lat":51.472198,"lon":-0.489625,"name":"Heathrow Terminal 5","parentId":"HUBHX5","stationId":"910GHTRBUS5","stopLetter":"6","topMostParentId":"HUBHX5","zone":"6"},{"icsId":"1010197","id":"490010197E","lat":51.481099,"lon":-0.465929,"name":"Newbury Road / Compass Centre","parentId":"490G00010197","stationId":"490G00010197","stopLetter":"BU","topMostParentId":"490G00010197"},{"icsId":"1008016","id":"4900801619","lat":51.471367,"lon":-0.453456,"name":"Heathrow Central Bus Station","parentId":"910GHTRWCBS","stationId":"910GHTRWCBS","stopLetter":"19","topMostParentId":"HUBH13"},{"icsId":"1012176","id":"490012176E","lat":51.481325,"lon":-0.448237,"name":"Nene Road","parentId":"490G00012176","stationId":"490G00012176","stopLetter":"BJ","topMostParentId":"490G00012176"},{"icsId":"1004139","id":"490004139E","lat":51.481172,"lon":-0.444843,"name":"Bolton's Lane","parentId":"490G00004139","stationId":"490G00004139","stopLetter":"BK","topMostParentId":"490G00004139"},{"icsId":"1010251","id":"490010251G","lat":51.480971,"lon":-0.43919,"name":"New Road","parentId":"490G00010251","stationId":"490G00010251","stopLetter":"D","topMostParentId":"490G00010251"},{"icsId":"1007811","id":"490007811C","lat":51.480745,"lon":-0.433092,"name":"Harlington Corner","parentId":"490G00007811","stationId":"490G00007811","stopLetter":"E","topMostParentId":"490G00007811"},{"icsId":"1015397","id":"490015397E","lat":51.480801,"lon":-0.426523,"name":"Nobel Drive","parentId":"490G00015397","stationId":"490G00015397","stopLetter":"F","topMostParentId":"490G00015397"},{"icsId":"1010677","id":"490010677W2","lat":51.481064,"lon":-0.422626,"name":"Oxford Avenue","parentId":"490G00010677","stationId":"490G00010677","stopLetter":"CA","topMostParentId":"490G00010677"},{"icsId":"1013596","id":"490013596E","lat":51.481313,"lon":-0.419737,"name":"Craneswater","parentId":"490G00013596","stationId":"490G00013596","stopLetter":"CB","topMostParentId":"490G00013596"},{"icsId":"1005704","id":"490005704E","lat":51.480085,"lon":-0.412031,"name":"Waye Avenue","parentId":"490G00005704","stationId":"490G00005704","stopLetter":"CC","topMostParentId":"490G00005704"},{"icsId":"1013235","id":"490013235E","lat":51.479535,"lon":-0.409962,"name":"The Avenue","parentId":"490G00013235","stationId":"490G00013235","stopLetter":"CD","topMostParentId":"490G00013235"},{"icsId":"1013495","id":"490013495E","lat":51.478195,"lon":-0.405314,"name":"The Parkway","parentId":"490G00013495","stationId":"490G00013495","stopLetter":"CE","topMostParentId":"490G00013495"},{"icsId":"1011470","id":"490011470E","lat":51.477032,"lon":-0.401136,"name":"Rectory Road","parentId":"490G00011470","stationId":"490G00011470","stopLetter":"CF","topMostParentId":"490G00011470"},{"icsId":"1015462","id":"490013776E1","lat":51.475914,"lon":-0.396956,"name":"Henlys Roundabout","parentId":"490G00015462","stationId":"490G00015462","stopLetter":"CH","topMostParentId":"490G00015462"},{"icsId":"1000391","id":"490007425E","lat":51.474448,"lon":-0.39106,"name":"Great West Road / Renfrew Road","parentId":"490G000040","stationId":"490G000040","stopLetter":"M","topMostParentId":"490G000040"},{"icsId":"1000118","id":"490000118A","lat":51.472944,"lon":-0.385656,"name":"Hounslow West Station","parentId":"490G00118B","stationId":"490G00118B","stopLetter":"A","topMostParentId":"940GZZLUHWT","zone":"5"},{"icsId":"1012458","id":"490014357E","lat":51.471179,"lon":-0.380895,"name":"St Paul's Church","parentId":"490G00012458","stationId":"490G00012458","stopLetter":"E","topMostParentId":"490G00012458"},{"icsId":"1006406","id":"490006406E","lat":51.469717,"lon":-0.376584,"name":"Wellington Road North","parentId":"490G00006406","stationId":"490G00006406","stopLetter":"F","topMostParentId":"490G00006406"},{"icsId":"1012454","id":"490005431E","lat":51.468967,"lon":-0.373126,"name":"St Michael & St Martin Church","parentId":"490G00012454","stationId":"490G00012454","stopLetter":"G","topMostParentId":"490G00012454"},{"icsId":"1013259","id":"490013259U","lat":51.467075,"lon":-0.366412,"name":"The Bell","parentId":"490G00013259","stationId":"490G00013259","stopLetter":"U","topMostParentId":"490G00013259"},{"icsId":"1013777","id":"490013777O","lat":51.467519,"lon":-0.362121,"name":"Treaty Centre","parentId":"490G00013777","stationId":"490G00013777","stopLetter":"O","topMostParentId":"490G00013777"},{"icsId":"1008399","id":"490008399K","lat":51.469449,"lon":-0.358006,"name":"Hounslow High Street","parentId":"490G00008399","stationId":"490G00008399","stopLetter":"K","topMostParentId":"490G00008399"},{"icsId":"1008392","id":"490008392F","lat":51.471015,"lon":-0.353616,"name":"Hounslow Bus Station","parentId":"490G000601","stationId":"490G000601","stopLetter":"F","topMostParentId":"490G000601"},{"icsId":"1004327","id":"490004327W2","lat":51.472017,"lon":-0.349389,"name":"Bridge Road","parentId":"490G00004327","stationId":"490G00004327","stopLetter":"->E","topMostParentId":"490G00004327"},{"icsId":"1012599","id":"490012599E","lat":51.47296,"lon":-0.346749,"name":"Star Road","parentId":"490G00012599","stationId":"490G00012599","stopLetter":"J","topMostParentId":"490G00012599"},{"icsId":"1013620","id":"490013620E","lat":51.474027,"lon":-0.344652,"name":"Thornbury Road","parentId":"490G00013620","stationId":"490G00013620","stopLetter":"K","topMostParentId":"490G00013620"},{"icsId":"1008510","id":"490008510E","lat":51.474963,"lon":-0.342155,"name":"West Thames College","parentId":"490G00008510","stationId":"490G00008510","stopLetter":"L","topMostParentId":"490G00008510"},{"icsId":"1001158","id":"490001158B","lat":51.475209,"lon":-0.337308,"name":"Isleworth Station","parentId":"490G01158B","stationId":"490G01158B","stopLetter":"N","topMostParentId":"910GISLEWTH"},{"icsId":"1009185","id":"490009185E","lat":51.475364,"lon":-0.334941,"name":"Linkfield Road","parentId":"490G00009185","stationId":"490G00009185","stopLetter":"P","topMostParentId":"490G00009185"},{"icsId":"1014874","id":"490014874J","lat":51.475966,"lon":-0.332341,"name":"Wood Lane","parentId":"490G00014874","stationId":"490G00014874","stopLetter":"Q","topMostParentId":"490G00014874"},{"icsId":"1007873","id":"490007873E","lat":51.477133,"lon":-0.328396,"name":"Turnpike Way","parentId":"490G00007873","stationId":"490G00007873","stopLetter":"R","topMostParentId":"490G00007873"},{"icsId":"1004635","id":"490015029P","lat":51.477977,"lon":-0.325183,"name":"The Green School","parentId":"490G00004635","stationId":"490G00004635","stopLetter":"P","topMostParentId":"490G00004635"},{"icsId":"1015029","id":"490015029E","lat":51.479212,"lon":-0.321638,"name":"Busch Corner","parentId":"490G00015029","stationId":"490G00015029","stopLetter":"T","topMostParentId":"490G00015029"},{"icsId":"1013141","id":"490013141E","lat":51.479994,"lon":-0.319104,"name":"Syon Lane","parentId":"490G00013141","stationId":"490G00013141","stopLetter":"X","topMostParentId":"490G00013141"},{"icsId":"1003804","id":"490003804E","lat":51.481039,"lon":-0.316099,"name":"Beech Avenue","parentId":"490G00003804","stationId":"490G00003804","topMostParentId":"490G00003804"},{"icsId":"1004296","id":"490004296E","lat":51.482046,"lon":-0.31357,"name":"Brent Lea","parentId":"490G00004296","stationId":"490G00004296","stopLetter":"->E","topMostParentId":"490G00004296"},{"icsId":"1004292","id":"490004292F","lat":51.483395,"lon":-0.307327,"name":"Market Place","parentId":"490G00004292","stationId":"490G00004292","stopLetter":"BN","topMostParentId":"490G00004292"},{"icsId":"1004289","id":"490004289D","lat":51.483962,"lon":-0.304267,"name":"Brentford County Court","parentId":"490G00004289","stationId":"490G00004289","stopLetter":"BP","topMostParentId":"490G00004289"},{"icsId":"1006297","id":"490006297W","lat":51.486172,"lon":-0.29851,"name":"Watermans Centre","parentId":"490G00006297","stationId":"490G00006297","stopLetter":"BE","topMostParentId":"490G00006297"},{"icsId":"1004293","id":"490004293E","lat":51.487112,"lon":-0.295724,"name":"The Musical Museum","parentId":"490G00004293","stationId":"490G00004293","stopLetter":"BF","topMostParentId":"490G00004293"},{"icsId":"1008690","id":"490008690E","lat":51.488331,"lon":-0.291185,"name":"London Museum Of Water and Steam","parentId":"490G00008690","stationId":"490G00008690","stopLetter":"Y","topMostParentId":"490G00008690"},{"icsId":"1001167","id":"490001167X","lat":51.489387,"lon":-0.287127,"name":"Kew Bridge Station","parentId":"490G01167X","stationId":"490G01167X","stopLetter":"X","topMostParentId":"910GKEWBDGE"},{"icsId":"1004290","id":"490004290Q","lat":51.490777,"lon":-0.284367,"name":"Brentford Fountain Leisure Centre","parentId":"490G00004290","stationId":"490G00004290","stopLetter":"L","topMostParentId":"490G00004290"},{"icsId":"1010687","id":"490010687K","lat":51.492265,"lon":-0.277958,"name":"Oxford Road North","parentId":"490G00010687","stationId":"490G00010687","stopLetter":"K","topMostParentId":"490G00010687"},{"icsId":"1000094","id":"490000094B","lat":51.49244,"lon":-0.275776,"name":"Gunnersbury Station","parentId":"490G00094B","stationId":"490G00094B","stopLetter":"B","topMostParentId":"HUBGUN","zone":"3"},{"icsId":"1005211","id":"490005211E","lat":51.492988,"lon":-0.270829,"name":"Chiswick Road","parentId":"490G00005211","stationId":"490G00005211","stopLetter":"S","topMostParentId":"490G00005211"},{"icsId":"1013848","id":"490013848DD","lat":51.492639,"lon":-0.264878,"name":"Turnham Green Church","parentId":"490G000807","stationId":"490G000807","stopLetter":"DD","topMostParentId":"490G000807"},{"icsId":"1005423","id":"490005423GG","lat":51.492508,"lon":-0.261512,"name":"Clifton Gardens","parentId":"490G00005423","stationId":"490G00005423","stopLetter":"GG","topMostParentId":"490G00005423"},{"icsId":"1005210","id":"490005210HH","lat":51.492637,"lon":-0.258093,"name":"Chiswick Police Station","parentId":"490G00005210","stationId":"490G00005210","stopLetter":"HH","topMostParentId":"490G00005210"},{"icsId":"1013850","id":"490013850OO","lat":51.493066,"lon":-0.253064,"name":"Chiswick Lane","parentId":"490G00013850","stationId":"490G00013850","stopLetter":"OO","topMostParentId":"490G00013850"},{"icsId":"1012521","id":"490012521E","lat":51.493154,"lon":-0.249286,"name":"Stamford Brook Bus Garage","parentId":"490G00012521","stationId":"490G00012521","stopLetter":"H","topMostParentId":"490G00012521"},{"icsId":"1007273","id":"490007273M","lat":51.493413,"lon":-0.246755,"name":"Goldhawk Road / Young's Corner","parentId":"490G000535","stationId":"490G000535","stopLetter":"M","topMostParentId":"490G000535"},{"icsId":"1012533","id":"490015027F","lat":51.493531,"lon":-0.240268,"name":"Ravenscourt Park","parentId":"490G00012533","stationId":"490G00012533","stopLetter":"F","topMostParentId":"490G00012533"},{"icsId":"1000188","id":"490011438E","lat":51.493268,"lon":-0.237124,"name":"Ravenscourt Park Station","parentId":"490G00188A","stationId":"490G00188A","stopLetter":"E","topMostParentId":"940GZZLURVP","zone":"2"},{"icsId":"1005937","id":"490005937E","lat":51.492979,"lon":-0.235233,"name":"Dalling Road","parentId":"490G00005937","stationId":"490G00005937","stopLetter":"C","topMostParentId":"490G00005937"},{"icsId":"1015588","id":"490015588E","lat":51.494432,"lon":-0.232613,"name":"Lamington Street","parentId":"490G00015588","stationId":"490G00015588","stopLetter":"->E","topMostParentId":"490G00015588"},{"icsId":"1007239","id":"490007239E","lat":51.494575,"lon":-0.230115,"name":"Iffley Road","parentId":"490G00007239","stationId":"490G00007239","topMostParentId":"490G00007239"},{"icsId":"1000097","id":"490000097T","lat":51.493589,"lon":-0.226163,"name":"Hammersmith Stn / H'smith & City Line","parentId":"490G00097T","stationId":"490G00097T","stopLetter":"W","topMostParentId":"HUBHMS","zone":"2"},{"icsId":"1007705","id":"490007705G","lat":51.492548,"lon":-0.223956,"name":"Hammersmith Bus Station","parentId":"490G000565","stationId":"490G000565","stopLetter":"F","topMostParentId":"HUBHMS"},{"icsId":"1008997","id":"490008990J","lat":51.493319,"lon":-0.219043,"name":"Latymer Court","parentId":"490G00008997","stationId":"490G00008997","stopLetter":"G","topMostParentId":"490G00008997"},{"icsId":"1004455","id":"490004455BB","lat":51.493711,"lon":-0.215858,"name":"Brook Green","parentId":"490G00004455","stationId":"490G00004455","stopLetter":"H","topMostParentId":"490G00004455"},{"icsId":"1010357","id":"490010357F","lat":51.494782,"lon":-0.212388,"name":"North End Road","parentId":"490G00010357","stationId":"490G00010357","stopLetter":"J","topMostParentId":"490G00010357"},{"icsId":"1000170","id":"490008652A","lat":51.495731,"lon":-0.209743,"name":"Kensington Olympia Station","parentId":"490G08652C","stationId":"490G08652C","stopLetter":"K","topMostParentId":"HUBKPA","zone":"2"},{"icsId":"1008287","id":"490008287E","lat":51.496975,"lon":-0.205199,"name":"Holland Road","parentId":"490G00008287","stationId":"490G00008287","stopLetter":"L","topMostParentId":"490G00008287"},{"icsId":"1003106","id":"490003106E","lat":51.497448,"lon":-0.203798,"name":"Warwick Gardens","parentId":"490G00003106","stationId":"490G00003106","stopLetter":"W","topMostParentId":"490G00003106"},{"icsId":"1005528","id":"490005528Y","lat":51.498553,"lon":-0.200815,"name":"The Design Museum","parentId":"490G00005528","stationId":"490G00005528","stopLetter":"Y","topMostParentId":"490G00005528"},{"icsId":"1010984","id":"490010984U","lat":51.499956,"lon":-0.196755,"name":"Phillimore Gardens","parentId":"490G00010984","stationId":"490G00010984","stopLetter":"U","topMostParentId":"490G00010984"},{"icsId":"1000110","id":"490000110B","lat":51.500718,"lon":-0.194246,"name":"High Street Kensington Station","parentId":"490G00110R","stationId":"490G00110R","stopLetter":"B","topMostParentId":"940GZZLUHSK","zone":"1"},{"icsId":"1011761","id":"490011761M","lat":51.502397,"lon":-0.188244,"name":"Kensington Palace","parentId":"490G00011761","stationId":"490G00011761","stopLetter":"M","topMostParentId":"490G00011761"},{"icsId":"1010728","id":"490010728E","lat":51.501899,"lon":-0.184546,"name":"Palace Gate","parentId":"490G00010728","stationId":"490G00010728","stopLetter":"RH","topMostParentId":"490G00010728"},{"icsId":"1019923","id":"490011334E1","lat":51.501507,"lon":-0.181305,"name":"Queen's Gate","parentId":"490G00019923","stationId":"490G00019923","stopLetter":"RK","topMostParentId":"490G00019923"},{"icsId":"1011750","id":"490011750E","lat":51.501881,"lon":-0.17642,"name":"Royal Albert Hall","parentId":"490G00011750","stationId":"490G00011750","stopLetter":"RL","topMostParentId":"490G00011750"},{"icsId":"1011198","id":"490011198E","lat":51.501986,"lon":-0.171042,"name":"Prince Of Wales Gate","parentId":"490G00011198","stationId":"490G00011198","stopLetter":"RM","topMostParentId":"490G00011198"},{"icsId":"1011822","id":"490011822E","lat":51.501871,"lon":-0.167127,"name":"Rutland Gardens","parentId":"490G00011822","stationId":"490G00011822","stopLetter":"KP","topMostParentId":"490G00011822"},{"icsId":"1007853","id":"490008875KH","lat":51.501773,"lon":-0.163169,"name":"Knightsbridge Station  / Harrods","parentId":"490G000575","stationId":"490G000575","stopLetter":"KH","topMostParentId":"490G000575"},{"icsId":"1000119","id":"490000119T","lat":51.503024,"lon":-0.153508,"name":"Hyde Park Corner Station","parentId":"490G00119S","stationId":"490G00119S","stopLetter":"T","topMostParentId":"940GZZLUHPC","zone":"1"},{"icsId":"1010574","id":"490010574C","lat":51.504086,"lon":-0.148408,"name":"Old Park Lane / Hard Rock Cafe","parentId":"490G00010574","stationId":"490G00010574","stopLetter":"C","topMostParentId":"490G00010574"},{"icsId":"1000093","id":"490000093PB","lat":51.507015,"lon":-0.142554,"name":"Green Park Station","parentId":"490G00093PE","stationId":"490G00093PE","stopLetter":"J","topMostParentId":"940GZZLUGPK","zone":"1"},{"icsId":"1010526","id":"490011748H","lat":51.508295,"lon":-0.13936,"name":"Old Bond Street / Royal Academy","parentId":"490G00010526","stationId":"490G00010526","stopLetter":"L","topMostParentId":"490G00010526"},{"icsId":"1000179","id":"490000179B","lat":51.509307,"lon":-0.136235,"name":"Piccadilly Circus","parentId":"490G00179B","stationId":"490G00179B","stopLetter":"B","topMostParentId":"940GZZLUPCC","zone":"1"},{"icsId":"1020307","id":"490007960R","lat":51.509683,"lon":-0.132732,"name":"Haymarket / Jermyn Street","parentId":"490G00020307","stationId":"490G00020307","stopLetter":"R","topMostParentId":"490G00020307"},{"icsId":"1013767","id":"490013767B","lat":51.507645,"lon":-0.129544,"name":"Trafalgar Square","parentId":"490G000804","stationId":"490G000804","stopLetter":"B","topMostParentId":"490G000804"},{"icsId":"1013766","id":"490013766E","lat":51.508045,"lon":-0.126487,"name":"Trafalgar Square / Charing Cross Stn","parentId":"490G000803","stationId":"490G000803","stopLetter":"E","topMostParentId":"HUBCHX"},{"icsId":"1012247","id":"490012247A","lat":51.510367,"lon":-0.122069,"name":"Southampton Street / Covent Garden","parentId":"490G00012247","stationId":"490G00012247","stopLetter":"A","topMostParentId":"490G00012247"},{"icsId":"1019703","id":"490019703E","lat":51.512639,"lon":-0.118517,"name":"Aldwych / Drury Lane","parentId":"490G00019703","stationId":"490G00019703","stopLetter":"E","topMostParentId":"490G00019703"}]}]}