{"direction":"inbound","lineId":"p4","lineName":"P4","mode":"bus","stopPointSequences":[{"stopPoint":[{"icsId":"1000031","id":"490000031T","lat":51.461969,"lon":-0.115375,"name":"Brixton Station","parentId":"490G00031N","stationId":"490G00031N","stopLetter":"T","topMostParentId":"HUBBRX","zone":"2"},{"icsId":"1004361","id":"490004361H","lat":51.46502,"lon":-0.113292,"name":"Gresham Road / Brixton Police Station","parentId":"490G000426","stationId":"490G000426","stopLetter":"H","topMostParentId":"490G000426"},{"icsId":"1014447","id":"490014447E","lat":51.464904,"lon":-0.110518,"name":"Western Road","parentId":"490G00014447","stationId":"490G00014447","stopLetter":"S","topMostParentId":"490G00014447"},{"icsId":"1014794","id":"490015389E","lat":51.463392,"lon":-0.108263,"name":"Brixton Station Road","parentId":"490G00014794","stationId":"490G00014794","stopLetter":"T","topMostParentId":"490G00014794"},{"icsId":"1012036","id":"490012036E","lat":51.464432,"lon":-0.104145,"name":"Shakespeare Road","parentId":"490G00012036","stationId":"490G00012036","stopLetter":"U","topMostParentId":"490G00012036"},{"icsId":"1001184","id":"490001184A","lat":51.465828,"lon":-0.102633,"name":"Loughborough Junction Station","parentId":"490G01184A","stationId":"490G01184A","stopLetter":"A","topMostParentId":"910GLBGHJN"},{"icsId":"1010717","id":"490010717E","lat":51.465562,"lon":-0.1006,"name":"Padfield Road","parentId":"490G000695","stationId":"490G000695","stopLetter":"J","topMostParentId":"490G000695"},{"icsId":"1006020","id":"490006020E","lat":51.463106,"lon":-0.098327,"name":"Deerdale Road / St Saviour's School","parentId":"490G00006020","stationId":"490G00006020","topMostParentId":"490G00006020"},{"icsId":"1009402","id":"490009402E","lat":51.461363,"lon":-0.096772,"name":"Lowden Road / Carnegie Library","parentId":"490G00009402","stationId":"490G00009402","topMostParentId":"490G00009402"},{"icsId":"1019806","id":"490011491E","lat":51.459867,"lon":-0.094359,"name":"Denmark Hill","parentId":"490G00019806","stationId":"490G00019806","stopLetter":"->E","topMostParentId":"490G00019806"},{"icsId":"1004834","id":"490004834E","lat":51.459034,"lon":-0.092911,"name":"Casino Avenue","parentId":"490G00004834","stationId":"490G00004834","stopLetter":"->E","topMostParentId":"490G00004834"},{"icsId":"1013026","id":"490013026E","lat":51.457305,"lon":-0.09055,"name":"Sunray Avenue","parentId":"490G00013026","stationId":"490G00013026","topMostParentId":"490G00013026"},{"icsId":"1006524","id":"490006524E","lat":51.455528,"lon":-0.090192,"name":"Elmwood Road / The Charter School","parentId":"490G00006524","stationId":"490G00006524","stopLetter":"->E","topMostParentId":"490G00006524"},{"icsId":"1001210","id":"490001210S","lat":51.453838,"lon":-0.088032,"name":"North Dulwich Station","parentId":"490G01210S","stationId":"490G01210S","stopLetter":"VB","topMostParentId":"910GNDULWCH"},{"icsId":"1016411","id":"490016411S","lat":51.452002,"lon":-0.086842,"name":"Dulwich Village School","parentId":"490G00016411","stationId":"490G00016411","stopLetter":"VH","topMostParentId":"490G00016411"},{"icsId":"1016415","id":"490016412S","lat":51.45022,"lon":-0.085103,"name":"Dulwich Village","parentId":"490G00016415","stationId":"490G00016415","stopLetter":"VJ","topMostParentId":"490G00016415"},{"icsId":"1016413","id":"490016413S","lat":51.446735,"lon":-0.085364,"name":"Dulwich Picture Gallery","parentId":"490G00016413","stationId":"490G00016413","stopLetter":"VK","topMostParentId":"490G00016413"},{"icsId":"1006233","id":"490006233S","lat":51.442838,"lon":-0.084606,"name":"Dulwich College","parentId":"490G00006233","stationId":"490G00006233","stopLetter":"VL","topMostParentId":"490G00006233"},{"icsId":"1006234","id":"490006234E","lat":51.44236,"lon":-0.079575,"name":"Dulwich Park / Queen Mary's Gate","parentId":"490G00006234","stationId":"490G00006234","stopLetter":"VM","topMostParentId":"490G00006234"},{"icsId":"1009363","id":"490009363E","lat":51.443262,"lon":-0.069925,"name":"Lordship Lane Estate","parentId":"490G00009363","stationId":"490G00009363","topMostParentId":"490G00009363"},{"icsId":"1009362","id":"490009362S1","lat":51.441852,"lon":-0.065639,"name":"Lordship Lane / Wood Vale","parentId":"490G00009362","stationId":"490G00009362","stopLetter":"MD","topMostParentId":"490G00009362"},{"icsId":"1008350","id":"490008350E","lat":51.440741,"lon":-0.06098,"name":"Horniman Museum","parentId":"490G00008350","stationId":"490G00008350","stopLetter":"ME","topMostParentId":"490G00008350"},{"icsId":"1012343","id":"490012343N","lat":51.441221,"lon":-0.058471,"name":"South View Court","parentId":"490G00012343","stationId":"490G00012343","stopLetter":"T","topMostParentId":"490G00012343"},{"icsId":"1006681","id":"490006681N","lat":51.443134,"lon":-0.056691,"name":"Ewelme Road","parentId":"490G00006681","stationId":"490G00006681","stopLetter":"P","topMostParentId":"490G00006681"},{"icsId":"1008349","id":"490008349N","lat":51.444693,"lon":-0.055272,"name":"Horniman Drive","parentId":"490G00008349","stationId":"490G00008349","stopLetter":"P","topMostParentId":"490G00008349"},{"icsId":"1006716","id":"490006716N","lat":51.446829,"lon":-0.054505,"name":"Fairlawn School","parentId":"490G00006716","stationId":"490G00006716","stopLetter":"R","topMostParentId":"490G00006716"},{"icsId":"1008063","id":"490008063E","lat":51.449243,"lon":-0.051985,"name":"Hengrave Road","parentId":"490G00008063","stationId":"490G00008063","stopLetter":"W","topMostParentId":"490G00008063"},{"icsId":"1001154","id":"490001154E","lat":51.449588,"lon":-0.044659,"name":"Honor Oak Park Station","parentId":"490G01154E","stationId":"490G01154E","stopLetter":"HB","topMostParentId":"910GHONROPK"},{"icsId":"1004407","id":"490004398C","lat":51.449168,"lon":-0.04105,"name":"Stondon Park / Honor Oak Park","parentId":"490G00004407","stationId":"490G00004407","stopLetter":"HC","topMostParentId":"490G00004407"},{"icsId":"1009502","id":"490009502NH","lat":51.45057,"lon":-0.040472,"name":"Maclean Road","parentId":"490G00009502","stationId":"490G00009502","stopLetter":"HN","topMostParentId":"490G00009502"},{"icsId":"1004395","id":"490004395C","lat":51.452588,"lon":-0.039033,"name":"Brockley Jack","parentId":"490G00004395","stationId":"490G00004395","stopLetter":"CQ","topMostParentId":"490G00004395"},{"icsId":"1009620","id":"490009620CT","lat":51.453579,"lon":-0.034859,"name":"Brockley Grove / Horsmonden Road","parentId":"490G000656","stationId":"490G000656","stopLetter":"P","topMostParentId":"490G000656"},{"icsId":"1005959","id":"490005959E","lat":51.454719,"lon":-0.032608,"name":"Huxbear Street","parentId":"490G00005959","stationId":"490G00005959","stopLetter":"R","topMostParentId":"490G00005959"},{"icsId":"1008075","id":"490008075E","lat":51.456163,"lon":-0.029149,"name":"Henryson Road / Brockley Cemetery","parentId":"490G00008075","stationId":"490G00008075","stopLetter":"S","topMostParentId":"490G00008075"},{"icsId":"1010987","id":"490010987E","lat":51.456726,"lon":-0.024677,"name":"Ladywell Road / Phoebeth Road","parentId":"490G00010987","stationId":"490G00010987","stopLetter":"HY","topMostParentId":"490G00010987"},{"icsId":"1001175","id":"490001175HA","lat":51.456602,"lon":-0.020522,"name":"Ladywell Station","parentId":"490G01175HA","stationId":"490G01175HA","stopLetter":"HA","topMostParentId":"910GLDYW"},{"icsId":"1009114","id":"490009114E","lat":51.456674,"lon":-0.016287,"name":"Wearside Road","parentId":"490G00009114","stationId":"490G00009114","stopLetter":"HB","topMostParentId":"490G00009114"},{"icsId":"1009111","id":"490009111HK","lat":51.456949,"lon":-0.013914,"name":"Lewisham Fire Station","parentId":"490G00009111","stationId":"490G00009111","stopLetter":"HK","topMostParentId":"490G00009111"},{"icsId":"1009105","id":"490009105T","lat":51.460139,"lon":-0.011631,"name":"Lewisham Centre","parentId":"490G00009105","stationId":"490G00009105","stopLetter":"T","topMostParentId":"490G00009105"},{"icsId":"1001177","id":"490001177U","lat":51.464955,"lon":-0.012977,"name":"Lewisham Station","parentId":"490G01177G","stationId":"490G01177G","stopLetter":"AP","topMostParentId":"HUBLEW","zone":"2+3"}]}]}