{"direction":"inbound","lineId":"r11","lineName":"R11","mode":"bus","stopPointSequences":[{"stopPoint":[{"icsId":"1007494","id":"490007494DC","lat":51.352632,"lon":0.089472,"name":"High Street / Green Street Green","parentId":"490G00007494","stationId":"490G00007494","stopLetter":"B","topMostParentId":"490G00007494"},{"icsId":"1006755","id":"490006755DE","lat":51.356725,"lon":0.088911,"name":"Glentrammon Road","parentId":"490G00006755","stationId":"490G00006755","stopLetter":"D","topMostParentId":"490G00006755"},{"icsId":"1005748","id":"490005748N","lat":51.360763,"lon":0.088922,"name":"Crescent Way","parentId":"490G00005748","stationId":"490G00005748","stopLetter":"J","topMostParentId":"490G00005748"},{"icsId":"1010639","id":"490010639N","lat":51.363253,"lon":0.091507,"name":"Sevenoaks Road / Cloonmore Avenue","parentId":"490G00010639","stationId":"490G00010639","stopLetter":"K","topMostParentId":"490G00010639"},{"icsId":"1010640","id":"490010640W","lat":51.362487,"lon":0.094575,"name":"Orpington Hospital","parentId":"490G00010640","stationId":"490G00010640","stopLetter":"H","topMostParentId":"490G00010640"},{"icsId":"1012592","id":"490012592N","lat":51.365699,"lon":0.094017,"name":"Sevenoaks Road / Orpington Hospital","parentId":"490G00012592","stationId":"490G00012592","stopLetter":"L","topMostParentId":"490G00012592"},{"icsId":"1013749","id":"490013749N","lat":51.367384,"lon":0.095315,"name":"Sevenoaks Road / Tower Road","parentId":"490G00013749","stationId":"490G00013749","stopLetter":"N","topMostParentId":"490G00013749"},{"icsId":"1008209","id":"490008209K","lat":51.371216,"lon":0.096812,"name":"Hillcrest Road","parentId":"490G00008209","stationId":"490G00008209","stopLetter":"K","topMostParentId":"490G00008209"},{"icsId":"1019893","id":"490015411L","lat":51.372485,"lon":0.097229,"name":"Sevenoaks Road / Orpington War Memorial","parentId":"490G00019893","stationId":"490G00019893","stopLetter":"L","topMostParentId":"490G00019893"},{"icsId":"1019892","id":"490015411R","lat":51.373987,"lon":0.097714,"name":"High Street / Orpington War Memorial","parentId":"490G00019892","stationId":"490G00019892","stopLetter":"R","topMostParentId":"490G00019892"},{"icsId":"1014142","id":"490014142T","lat":51.376427,"lon":0.099579,"name":"Walnuts Centre","parentId":"490G00014142","stationId":"490G00014142","stopLetter":"T","topMostParentId":"490G00014142"},{"icsId":"1010636","id":"490010636V","lat":51.378277,"lon":0.101244,"name":"High Street / Broomhill Road","parentId":"490G00010636","stationId":"490G00010636","stopLetter":"V","topMostParentId":"490G00010636"},{"icsId":"1007292","id":"490007292N","lat":51.381654,"lon":0.102448,"name":"Goodmead Road","parentId":"490G00007292","stationId":"490G00007292","stopLetter":"D","topMostParentId":"490G00007292"},{"icsId":"1004808","id":"490004801N","lat":51.38203,"lon":0.107064,"name":"Carlton Parade","parentId":"490G00004808","stationId":"490G00004808","stopLetter":"L","topMostParentId":"490G00004808"},{"icsId":"1008673","id":"490011155SV","lat":51.386954,"lon":0.108311,"name":"Kent Road","parentId":"490G00008673","stationId":"490G00008673","stopLetter":"SV","topMostParentId":"490G00008673"},{"icsId":"1010455","id":"490010455SJ","lat":51.391748,"lon":0.110759,"name":"Nugent Retail Park","parentId":"490G00010455","stationId":"490G00010455","stopLetter":"SJ","topMostParentId":"490G00010455"},{"icsId":"1012606","id":"490012606SD","lat":51.395082,"lon":0.11087,"name":"St Mary Cray / Station Approach","parentId":"490G00012606","stationId":"490G00012606","stopLetter":"SD","topMostParentId":"490G00012606"},{"icsId":"1001271","id":"490001271SA","lat":51.395742,"lon":0.107206,"name":"St Mary Cray Station","parentId":"490G01271SB","stationId":"490G01271SB","stopLetter":"SA","topMostParentId":"910GSTMRYC"},{"icsId":"1009296","id":"490009296W","lat":51.39897,"lon":0.105744,"name":"Longbury Drive","parentId":"490G00009296","stationId":"490G00009296","stopLetter":"A","topMostParentId":"490G00009296"},{"icsId":"1011437","id":"490011437W","lat":51.400956,"lon":0.102787,"name":"Ravenscourt Road","parentId":"490G00011437","stationId":"490G00011437","stopLetter":"B","topMostParentId":"490G00011437"},{"icsId":"1007300","id":"490007300W","lat":51.404358,"lon":0.103144,"name":"Goose Green Close","parentId":"490G00007300","stationId":"490G00007300","stopLetter":"C","topMostParentId":"490G00007300"},{"icsId":"1005216","id":"490005216W","lat":51.404953,"lon":0.098527,"name":"Chorleywood Crescent","parentId":"490G00005216","stationId":"490G00005216","stopLetter":"D","topMostParentId":"490G00005216"},{"icsId":"1003782","id":"490003782E","lat":51.40734,"lon":0.096322,"name":"Beddington Road","parentId":"490G00003782","stationId":"490G00003782","stopLetter":"E","topMostParentId":"490G00003782"},{"icsId":"1004272","id":"490004272E","lat":51.408629,"lon":0.099659,"name":"Breakspears Drive","parentId":"490G00004272","stationId":"490G00004272","stopLetter":"F","topMostParentId":"490G00004272"},{"icsId":"1009864","id":"490009864E","lat":51.4088,"lon":0.104657,"name":"Midfield Way / Chipperfield Road","parentId":"490G00009864","stationId":"490G00009864","stopLetter":"G","topMostParentId":"490G00009864"},{"icsId":"1005849","id":"490005849E","lat":51.409026,"lon":0.108104,"name":"Croxley Green","parentId":"490G00005849","stationId":"490G00005849","topMostParentId":"490G00005849"},{"icsId":"1000565","id":"490009863N","lat":51.410188,"lon":0.112486,"name":"Sevenoaks Way / Midfield Way","parentId":"490G000123","stationId":"490G000123","stopLetter":"D","topMostParentId":"490G000123"},{"icsId":"1005780","id":"490005780N","lat":51.414389,"lon":0.113427,"name":"Crittall's Corner","parentId":"490G00005780","stationId":"490G00005780","stopLetter":"FS","topMostParentId":"490G00005780"},{"icsId":"1012986","id":"490012986N","lat":51.417139,"lon":0.115999,"name":"Suffolk Road","parentId":"490G00012986","stationId":"490G00012986","stopLetter":"FT","topMostParentId":"490G00012986"},{"icsId":"1019784","id":"490011463W","lat":51.418886,"lon":0.117374,"name":"Sidcup Hill / Cray Road","parentId":"490G00019784","stationId":"490G00019784","stopLetter":"FU","topMostParentId":"490G00019784"},{"icsId":"1009854","id":"490009854W","lat":51.420304,"lon":0.11406,"name":"Middleton Avenue","parentId":"490G00009854","stationId":"490G00009854","stopLetter":"->W","topMostParentId":"490G00009854"},{"icsId":"1008885","id":"490008885W","lat":51.422127,"lon":0.110203,"name":"Knoll Road","parentId":"490G00008885","stationId":"490G00008885","stopLetter":"->W","topMostParentId":"490G00008885"},{"icsId":"1005299","id":"490005299Z","lat":51.424534,"lon":0.106387,"name":"Church Road","parentId":"490G00005299","stationId":"490G00005299","stopLetter":"Z","topMostParentId":"490G00005299"},{"icsId":"1012140","id":"490012140U","lat":51.426367,"lon":0.101465,"name":"Sidcup High Street / Station Road","parentId":"490G00012140","stationId":"490G00012140","stopLetter":"U","topMostParentId":"490G00012140"},{"icsId":"1019822","id":"490012140S","lat":51.425441,"lon":0.100962,"name":"Carlton Road","parentId":"490G00019822","stationId":"490G00019822","stopLetter":"S","topMostParentId":"490G00019822"},{"icsId":"1013421","id":"490013387S","lat":51.424206,"lon":0.101092,"name":"The Green","parentId":"490G00013421","stationId":"490G00013421","stopLetter":"W","topMostParentId":"490G00013421"},{"icsId":"1012139","id":"490012139HE","lat":51.419828,"lon":0.09954,"name":"Sidcup / Queen Mary's Hospital","parentId":"490G00012139","stationId":"490G00012139","stopLetter":"HE","topMostParentId":"490G00012139"}]}]}