{"direction":"inbound","lineId":"r68","lineName":"R68","mode":"bus","stopPointSequences":[{"stopPoint":[{"icsId":"1001133","id":"40004405136E","lat":51.402764,"lon":-0.342826,"name":"Hampton Court Station","parentId":"400G4405136C","stationId":"400G4405136C","stopLetter":"G","topMostParentId":"HUBHAM"},{"icsId":"1007713","id":"490007713E","lat":51.405769,"lon":-0.342991,"name":"Hampton Court Green / Cardinal Wolsey","parentId":"490G00007713","stationId":"490G00007713","stopLetter":"E","topMostParentId":"490G00007713"},{"icsId":"1007734","id":"490007734W","lat":51.407088,"lon":-0.34533,"name":"Hampton Lodge","parentId":"490G00007734","stationId":"490G00007734","stopLetter":"->W","topMostParentId":"490G00007734"},{"icsId":"1013570","id":"490013570W","lat":51.409593,"lon":-0.350761,"name":"St Alban's Riverside","parentId":"490G00013570","stationId":"490G00013570","stopLetter":"->W","topMostParentId":"490G00013570"},{"icsId":"1007125","id":"490007125W","lat":51.411839,"lon":-0.357022,"name":"Garrick Villa","parentId":"490G00007125","stationId":"490G00007125","stopLetter":"S","topMostParentId":"490G00007125"},{"icsId":"1007725","id":"490007725N","lat":51.413653,"lon":-0.360696,"name":"Hampton Church","parentId":"490G00007725","stationId":"490G00007725","stopLetter":"T","topMostParentId":"490G00007725"},{"icsId":"1010757","id":"490010757N","lat":51.41565,"lon":-0.359445,"name":"Park Close","parentId":"490G00010757","stationId":"490G00010757","stopLetter":"U","topMostParentId":"490G00010757"},{"icsId":"1007736","id":"490007736N","lat":51.418114,"lon":-0.35881,"name":"Hampton Pool","parentId":"490G00007736","stationId":"490G00007736","stopLetter":"V","topMostParentId":"490G00007736"},{"icsId":"1013975","id":"490013975N","lat":51.422395,"lon":-0.358901,"name":"Uxbridge Road","parentId":"490G00013975","stationId":"490G00013975","stopLetter":"HK","topMostParentId":"490G00013975"},{"icsId":"1007733","id":"490007733N","lat":51.424818,"lon":-0.357851,"name":"Holly Road","parentId":"490G00007733","stationId":"490G00007733","stopLetter":"HL","topMostParentId":"490G00007733"},{"icsId":"1007732","id":"490007732N","lat":51.426655,"lon":-0.35616,"name":"Cross Street","parentId":"490G00007732","stationId":"490G00007732","stopLetter":"HM","topMostParentId":"490G00007732"},{"icsId":"1010806","id":"490010806N","lat":51.428123,"lon":-0.355014,"name":"Parkside","parentId":"490G00010806","stationId":"490G00010806","stopLetter":"HN","topMostParentId":"490G00010806"},{"icsId":"1008814","id":"490008814E","lat":51.42859,"lon":-0.351113,"name":"Kings Road","parentId":"490G00008814","stationId":"490G00008814","topMostParentId":"490G00008814"},{"icsId":"1010685","id":"490010685E","lat":51.427829,"lon":-0.348824,"name":"Oxford Road","parentId":"490G00010685","stationId":"490G00010685","stopLetter":"->E","topMostParentId":"490G00010685"},{"icsId":"1010157","id":"490010157E","lat":51.427436,"lon":-0.345803,"name":"National Physical Laboratory","parentId":"490G00010157","stationId":"490G00010157","stopLetter":"->E","topMostParentId":"490G00010157"},{"icsId":"1013176","id":"490013175E","lat":51.426575,"lon":-0.340915,"name":"Teddington Memorial Hospital","parentId":"490G00013176","stationId":"490G00013176","stopLetter":"L","topMostParentId":"490G00013176"},{"icsId":"1004377","id":"490004377E","lat":51.426068,"lon":-0.336863,"name":"Broad Street / Teddington","parentId":"490G00004377","stationId":"490G00004377","stopLetter":"E","topMostParentId":"490G00004377"},{"icsId":"1013172","id":"490013172C","lat":51.427108,"lon":-0.333416,"name":"Elmfield Avenue","parentId":"490G00013172","stationId":"490G00013172","stopLetter":"C","topMostParentId":"490G00013172"},{"icsId":"1004709","id":"490004709E","lat":51.427503,"lon":-0.327705,"name":"Cambridge Road","parentId":"490G00004709","stationId":"490G00004709","stopLetter":"L","topMostParentId":"490G00004709"},{"icsId":"1013174","id":"490013174E","lat":51.428645,"lon":-0.325175,"name":"Teddington Lock","parentId":"490G00013174","stationId":"490G00013174","stopLetter":"M","topMostParentId":"490G00013174"},{"icsId":"1009577","id":"490009577N","lat":51.431352,"lon":-0.327752,"name":"Manor Road","parentId":"490G00009577","stationId":"490G00009577","stopLetter":"N","topMostParentId":"490G00009577"},{"icsId":"1007558","id":"490007558N","lat":51.432632,"lon":-0.329215,"name":"Grove Gardens","parentId":"490G00007558","stationId":"490G00007558","stopLetter":"SU","topMostParentId":"490G00007558"},{"icsId":"1009527","id":"490009527SV","lat":51.436627,"lon":-0.330609,"name":"Mallard Place","parentId":"490G00009527","stationId":"490G00009527","stopLetter":"SV","topMostParentId":"490G00009527"},{"icsId":"1009848","id":"490009848N","lat":51.437608,"lon":-0.331969,"name":"Michelham Gardens","parentId":"490G00009848","stationId":"490G00009848","stopLetter":"SW","topMostParentId":"490G00009848"},{"icsId":"1011104","id":"490011104N","lat":51.441161,"lon":-0.332674,"name":"Popes Grotto","parentId":"490G00011104","stationId":"490G00011104","stopLetter":"SK","topMostParentId":"490G00011104"},{"icsId":"1011148","id":"490011148R","lat":51.444624,"lon":-0.330174,"name":"Poulett Gardens","parentId":"490G00011148","stationId":"490G00011148","stopLetter":"R","topMostParentId":"490G00011148"},{"icsId":"1015022","id":"490015022H","lat":51.447539,"lon":-0.32716,"name":"York Street / Twickenham","parentId":"490G00015022","stationId":"490G00015022","stopLetter":"H","topMostParentId":"490G00015022"},{"icsId":"1009053","id":"490009053E","lat":51.449178,"lon":-0.323546,"name":"Lebanon Court","parentId":"490G00009053","stationId":"490G00009053","stopLetter":"S","topMostParentId":"490G00009053"},{"icsId":"1018556","id":"490005841R","lat":51.450316,"lon":-0.321345,"name":"Orleans Park School","parentId":"490G00018556","stationId":"490G00018556","stopLetter":"T","topMostParentId":"490G00018556"},{"icsId":"1005841","id":"490005841U","lat":51.451898,"lon":-0.316322,"name":"Marble Hill Park / Crown Road","parentId":"490G00005841","stationId":"490G00005841","stopLetter":"U","topMostParentId":"490G00005841"},{"icsId":"1012460","id":"490012460N","lat":51.453359,"lon":-0.313462,"name":"St Stephen's Church","parentId":"490G00012460","stationId":"490G00012460","stopLetter":"V","topMostParentId":"490G00012460"},{"icsId":"1005755","id":"490005755E","lat":51.455887,"lon":-0.309813,"name":"Cresswell Road","parentId":"490G00005755","stationId":"490G00005755","stopLetter":"W","topMostParentId":"490G00005755"},{"icsId":"1007166","id":"490007166B","lat":51.460642,"lon":-0.305305,"name":"George Street","parentId":"490G00007166","stationId":"490G00007166","stopLetter":"B","topMostParentId":"490G00007166"},{"icsId":"1000192","id":"490013511C","lat":51.462744,"lon":-0.302679,"name":"Richmond Station","parentId":"490G00192M","stationId":"490G00192M","stopLetter":"C","topMostParentId":"HUBRMD","zone":"4"},{"icsId":"1011557","id":"490011557E","lat":51.465389,"lon":-0.297153,"name":"Richmond Circus","parentId":"490G00011557","stationId":"490G00011557","stopLetter":"RS","topMostParentId":"490G00011557"},{"icsId":"1012048","id":"490012048E","lat":51.465961,"lon":-0.294425,"name":"Sheendale Road","parentId":"490G00012048","stationId":"490G00012048","stopLetter":"ST","topMostParentId":"490G00012048"},{"icsId":"1009547","id":"490009547SA","lat":51.467114,"lon":-0.290293,"name":"Manor Circus","parentId":"490G00009547","stationId":"490G00009547","stopLetter":"SA","topMostParentId":"490G00009547"},{"icsId":"1015035","id":"490015035SL","lat":51.467957,"lon":-0.287037,"name":"Sandycombe Road","parentId":"490G00015035","stationId":"490G00015035","stopLetter":"SL","topMostParentId":"490G00015035"},{"icsId":"1009670","id":"490009670E","lat":51.468083,"lon":-0.282713,"name":"Marksbury Avenue","parentId":"490G00009670","stationId":"490G00009670","stopLetter":"A","topMostParentId":"490G00009670"},{"icsId":"1010049","id":"490010049N","lat":51.468868,"lon":-0.279242,"name":"Mortlake Road","parentId":"490G00010049","stationId":"490G00010049","stopLetter":"B","topMostParentId":"490G00010049"},{"icsId":"1016329","id":"490016329N","lat":51.469517,"lon":-0.276885,"name":"Chalkers Corner","parentId":"490G00016329","stationId":"490G00016329","stopLetter":"C","topMostParentId":"490G00016329"},{"icsId":"1016328","id":"490016328W","lat":51.474524,"lon":-0.279245,"name":"Courtlands Avenue","parentId":"490G00016328","stationId":"490G00016328","stopLetter":"D","topMostParentId":"490G00016328"},{"icsId":"1018678","id":"490018678W","lat":51.474822,"lon":-0.279954,"name":"Taylor Avenue","parentId":"490G00018678","stationId":"490G00018678","stopLetter":"X","topMostParentId":"490G00018678"},{"icsId":"1016327","id":"490016327N","lat":51.476199,"lon":-0.281241,"name":"West Park Road","parentId":"490G00016327","stationId":"490G00016327","stopLetter":"Y","topMostParentId":"490G00016327"},{"icsId":"1016326","id":"490016326S","lat":51.478673,"lon":-0.280054,"name":"Kew Retail Park","parentId":"490G00016326","stationId":"490G00016326","stopLetter":"U","topMostParentId":"490G00016326"}]}]}