{"direction":"inbound","lineId":"r9","lineName":"R9","mode":"bus","stopPointSequences":[{"stopPoint":[{"icsId":"1007185","id":"490007185E","lat":51.37285,"lon":0.111485,"name":"Tintagel Road / Gillmans Road","parentId":"490G00007185","stationId":"490G00007185","stopLetter":"J","topMostParentId":"490G00007185"},{"icsId":"1006465","id":"490006465N","lat":51.374042,"lon":0.115692,"name":"Eldred Drive","parentId":"490G00006465","stationId":"490G00006465","stopLetter":"K","topMostParentId":"490G00006465"},{"icsId":"1011378","id":"490011378S","lat":51.375808,"lon":0.115961,"name":"Quilter Road","parentId":"490G00011378","stationId":"490G00011378","stopLetter":"L","topMostParentId":"490G00011378"},{"icsId":"1011410","id":"490011410E","lat":51.377719,"lon":0.116207,"name":"Ramsden Road","parentId":"490G00011410","stationId":"490G00011410","stopLetter":"C","topMostParentId":"490G00011410"},{"icsId":"1011835","id":"490011835E","lat":51.377206,"lon":0.119761,"name":"Brow Crescent","parentId":"490G00011835","stationId":"490G00011835","stopLetter":"D","topMostParentId":"490G00011835"},{"icsId":"1012185","id":"490012185S","lat":51.374926,"lon":0.123995,"name":"Skeet Hill","parentId":"490G00012185","stationId":"490G00012185","stopLetter":"E","topMostParentId":"490G00012185"},{"icsId":"1005080","id":"490005080S","lat":51.372241,"lon":0.12377,"name":"Chelsfield Lane / Alma Road","parentId":"490G00005080","stationId":"490G00005080","stopLetter":"F","topMostParentId":"490G00005080"},{"icsId":"1009292","id":"490009292S","lat":51.370643,"lon":0.123079,"name":"Long Acre","parentId":"490G00009292","stationId":"490G00009292","stopLetter":"G","topMostParentId":"490G00009292"},{"icsId":"1003490","id":"490003490W","lat":51.369622,"lon":0.120876,"name":"Avalon Close","parentId":"490G00003490","stationId":"490G00003490","topMostParentId":"490G00003490"},{"icsId":"1005722","id":"490005722W","lat":51.369545,"lon":0.118172,"name":"Craven Road","parentId":"490G00005722","stationId":"490G00005722","topMostParentId":"490G00005722"},{"icsId":"1015582","id":"490015582W","lat":51.370089,"lon":0.115467,"name":"Berrylands","parentId":"490G00015582","stationId":"490G00015582","stopLetter":"->W","topMostParentId":"490G00015582"},{"icsId":"1014718","id":"490014718N","lat":51.371412,"lon":0.112913,"name":"Wilmington Avenue","parentId":"490G00014718","stationId":"490G00014718","stopLetter":"->N","topMostParentId":"490G00014718"},{"icsId":"1005670","id":"490005670W","lat":51.371481,"lon":0.108563,"name":"Court Road","parentId":"490G00005670","stationId":"490G00005670","topMostParentId":"490G00005670"},{"icsId":"1012418","id":"490012418W","lat":51.372242,"lon":0.104776,"name":"Spur Road","parentId":"490G00012418","stationId":"490G00012418","stopLetter":"->W","topMostParentId":"490G00012418"},{"icsId":"1015411","id":"490015411N","lat":51.373098,"lon":0.098637,"name":"Spur Road / Orpington War Memorial","parentId":"490G00015411","stationId":"490G00015411","stopLetter":"N","topMostParentId":"490G00015411"}]},{"stopPoint":[{"icsId":"1013818","id":"490013818J","lat":51.371761,"lon":0.091449,"name":"Tubbenden Lane","parentId":"490G00013818","stationId":"490G00013818","stopLetter":"J","topMostParentId":"490G00013818"},{"icsId":"1001220","id":"490001220G","lat":51.373205,"lon":0.089661,"name":"Orpington Station","parentId":"490G01220G","stationId":"490G01220G","stopLetter":"G","topMostParentId":"910GORPNGTN"}]},{"stopPoint":[{"icsId":"1015411","id":"490015411N","lat":51.373098,"lon":0.098637,"name":"Spur Road / Orpington War Memorial","parentId":"490G00015411","stationId":"490G00015411","stopLetter":"N","topMostParentId":"490G00015411"},{"icsId":"1019892","id":"490015411R","lat":51.373987,"lon":0.097714,"name":"High Street / Orpington War Memorial","parentId":"490G00019892","stationId":"490G00019892","stopLetter":"R","topMostParentId":"490G00019892"},{"icsId":"1010641","id":"490010641X","lat":51.375406,"lon":0.100337,"name":"Orpington / Walnuts Centre","parentId":"490G00010641","stationId":"490G00010641","stopLetter":"X","topMostParentId":"490G00010641"},{"icsId":"1013818","id":"490013818J","lat":51.371761,"lon":0.091449,"name":"Tubbenden Lane","parentId":"490G00013818","stationId":"490G00013818","stopLetter":"J","topMostParentId":"490G00013818"}]}]}