{"direction":"inbound","lineId":"rb1","lineName":"RB1","mode":"river-bus","orderedLineRoutes":[{"$type":"Tfl.Api.Presentation.Entities.OrderedRoute, Tfl.Api.Presentation.Entities","name":"Battersea Power Station  &harr;  Woolwich Arsenal  via Blackfriars ","naptanIds":["930GBSP","490014193E","930GWMP","930GEMB","930GBFR","930GSWK","930GLBR","930GTMP","930GCAW","930GGNW","930GMIL","930GWAS"],"serviceType":"Regular"},{"$type":"Tfl.Api.Presentation.Entities.OrderedRoute, Tfl.Api.Presentation.Entities","name":"Embankment  &harr;  Woolwich Arsenal  via Blackfriars ","naptanIds":["930GEMB","930GWMP","930GBFR","930GSWK","930GLBR","930GTMP","930GCAW","930GGLP","930GMHT","930GGNW","930GMIL","930GWAS"],"serviceType":"Regular"},{"$type":"Tfl.Api.Presentation.Entities.OrderedRoute, Tfl.Api.Presentation.Entities","name":"Embankment  &harr;  Woolwich Arsenal  via Bankside ","naptanIds":["930GEMB","930GWMR","930GWMP","930GBFR","930GSWK","930GLBR","930GTMP","930GCAW","930GGLP","930GMHT","930GGNW","930GMIL","930GWAS"],"serviceType":"Regular"}],"stopPointSequences":[{"stopPoint":[{"icsId":"1002036","id":"930GEMB","lat":51.507389,"lon":-0.121428,"name":"Embankment Pier","stationId":"930GEMB","topMostParentId":"930GEMB"},{"icsId":"1002085","id":"930GWMR","lat":51.501563,"lon":-0.123742,"name":"Westminster Pier","stationId":"930GWMR","topMostParentId":"930GWMR"},{"icsId":"1002080","id":"930GWMP","lat":51.503607,"lon":-0.119436,"name":"London Eye Waterloo Pier","stationId":"930GWMP","topMostParentId":"930GWMP"}]},{"stopPoint":[{"icsId":"1002080","id":"930GWMP","lat":51.503607,"lon":-0.119436,"name":"London Eye Waterloo Pier","stationId":"930GWMP","topMostParentId":"930GWMP"},{"icsId":"1002016","id":"930GBFR","lat":51.510858,"lon":-0.105649,"name":"Blackfriars Pier","stationId":"930GBFR","topMostParentId":"930GBFR"}]},{"stopPoint":[{"icsId":"1002016","id":"930GBFR","lat":51.510858,"lon":-0.105649,"name":"Blackfriars Pier","stationId":"930GBFR","topMostParentId":"930GBFR"},{"icsId":"1002007","id":"930GSWK","lat":51.508388,"lon":-0.096384,"name":"Bankside Pier","stationId":"930GSWK","topMostParentId":"930GSWK"}]},{"stopPoint":[{"icsId":"1002007","id":"930GSWK","lat":51.508388,"lon":-0.096384,"name":"Bankside Pier","stationId":"930GSWK","topMostParentId":"930GSWK"},{"icsId":"1002056","id":"930GLBR","lat":51.506598,"lon":-0.084758,"name":"London Bridge City Pier","stationId":"930GLBR","topMostParentId":"930GLBR"}]},{"stopPoint":[{"icsId":"1002056","id":"930GLBR","lat":51.506598,"lon":-0.084758,"name":"London Bridge City Pier","stationId":"930GLBR","topMostParentId":"930GLBR"},{"icsId":"1002077","id":"930GTMP","lat":51.507809,"lon":-0.079087,"name":"Tower Pier","stationId":"930GTMP","topMostParentId":"930GTMP"},{"icsId":"1002021","id":"930GCAW","lat":51.505692,"lon":-0.028482,"name":"Canary Wharf Pier","stationId":"930GCAW","topMostParentId":"930GCAW"}]},{"stopPoint":[{"icsId":"1002088","id":"930GGNW","lat":51.483621,"lon":-0.009659,"name":"Greenwich Pier","stationId":"930GGNW","topMostParentId":"930GGNW"},{"icsId":"1002067","id":"930GMIL","lat":51.502093,"lon":0.008768,"name":"North Greenwich Pier","stationId":"930GMIL","topMostParentId":"930GMIL"},{"icsId":"1016784","id":"930GWAS","lat":51.495163,"lon":0.07057,"name":"Woolwich Arsenal Pier","stationId":"930GWAS","topMostParentId":"930GWAS"}]},{"stopPoint":[{"icsId":"1002021","id":"930GCAW","lat":51.505692,"lon":-0.028482,"name":"Canary Wharf Pier","stationId":"930GCAW","topMostParentId":"930GCAW"},{"icsId":"1002089","id":"930GGLP","lat":51.494685,"lon":-0.03276,"name":"Greenland Surrey Quays Pier","stationId":"930GGLP","topMostParentId":"930GGLP"}]},{"stopPoint":[{"icsId":"1002089","id":"930GGLP","lat":51.494685,"lon":-0.03276,"name":"Greenland Surrey Quays Pier","stationId":"930GGLP","topMostParentId":"930GGLP"},{"icsId":"1002097","id":"930GMHT","lat":51.487498,"lon":-0.021935,"name":"Masthouse Terrace Pier","stationId":"930GMHT","topMostParentId":"930GMHT"}]},{"stopPoint":[{"icsId":"1002097","id":"930GMHT","lat":51.487498,"lon":-0.021935,"name":"Masthouse Terrace Pier","stationId":"930GMHT","topMostParentId":"930GMHT"},{"icsId":"1002088","id":"930GGNW","lat":51.483621,"lon":-0.009659,"name":"Greenwich Pier","stationId":"930GGNW","topMostParentId":"930GGNW"}]},{"stopPoint":[{"icsId":"1002021","id":"930GCAW","lat":51.505692,"lon":-0.028482,"name":"Canary Wharf Pier","stationId":"930GCAW","topMostParentId":"930GCAW"},{"icsId":"1002088","id":"930GGNW","lat":51.483621,"lon":-0.009659,"name":"Greenwich Pier","stationId":"930GGNW","topMostParentId":"930GGNW"}]},{"stopPoint":[{"icsId":"1002015","id":"930GBSP","lat":51.483471,"lon":-0.144159,"name":"Battersea Power Station Pier","stationId":"930GBSP","topMostParentId":"930GBSP"},{"icsId":"1000714","id":"490014193E","lat":51.484625,"lon":-0.129089,"name":"St George Wharf Pier","parentId":"490G000270","stationId":"490G000270","topMostParentId":"490G000270"},{"icsId":"1002080","id":"930GWMP","lat":51.503607,"lon":-0.119436,"name":"London Eye Waterloo Pier","stationId":"930GWMP","topMostParentId":"930GWMP"}]},{"stopPoint":[{"icsId":"1002080","id":"930GWMP","lat":51.503607,"lon":-0.119436,"name":"London Eye Waterloo Pier","stationId":"930GWMP","topMostParentId":"930GWMP"},{"icsId":"1002036","id":"930GEMB","lat":51.507389,"lon":-0.121428,"name":"Embankment Pier","stationId":"930GEMB","topMostParentId":"930GEMB"}]},{"stopPoint":[{"icsId":"1002036","id":"930GEMB","lat":51.507389,"lon":-0.121428,"name":"Embankment Pier","stationId":"930GEMB","topMostParentId":"930GEMB"},{"icsId":"1002016","id":"930GBFR","lat":51.510858,"lon":-0.105649,"name":"Blackfriars Pier","stationId":"930GBFR","topMostParentId":"930GBFR"}]},{"stopPoint":[{"icsId":"1002036","id":"930GEMB","lat":51.507389,"lon":-0.121428,"name":"Embankment Pier","stationId":"930GEMB","topMostParentId":"930GEMB"},{"icsId":"1002080","id":"930GWMP","lat":51.503607,"lon":-0.119436,"name":"London Eye Waterloo Pier","stationId":"930GWMP","topMostParentId":"930GWMP"}]}]}