{"direction":"inbound","lineId":"rb1x","lineName":"RB1X","mode":"river-bus","orderedLineRoutes":[{"$type":"Tfl.Api.Presentation.Entities.OrderedRoute, Tfl.Api.Presentation.Entities","name":"North Greenwich  &harr;  St. Katherine's ","naptanIds":["930GMIL","930GGNW","930GCAW","930GTMP","930GLBR","930GEMB","930GWMR"],"serviceType":"Regular"}],"stopPointSequences":[{"stopPoint":[{"icsId":"1002067","id":"930GMIL","lat":51.502093,"lon":0.008768,"name":"North Greenwich Pier","stationId":"930GMIL","topMostParentId":"930GMIL"},{"icsId":"1002088","id":"930GGNW","lat":51.483621,"lon":-0.009659,"name":"Greenwich Pier","stationId":"930GGNW","topMostParentId":"930GGNW"},{"icsId":"1002021","id":"930GCAW","lat":51.505692,"lon":-0.028482,"name":"Canary Wharf Pier","stationId":"930GCAW","topMostParentId":"930GCAW"},{"icsId":"1002077","id":"930GTMP","lat":51.507809,"lon":-0.079087,"name":"Tower Pier","stationId":"930GTMP","topMostParentId":"930GTMP"},{"icsId":"1002056","id":"930GLBR","lat":51.506598,"lon":-0.084758,"name":"London Bridge City Pier","stationId":"930GLBR","topMostParentId":"930GLBR"},{"icsId":"1002036","id":"930GEMB","lat":51.507389,"lon":-0.121428,"name":"Embankment Pier","stationId":"930GEMB","topMostParentId":"930GEMB"},{"icsId":"1002085","id":"930GWMR","lat":51.501563,"lon":-0.123742,"name":"Westminster Pier","stationId":"930GWMR","topMostParentId":"930GWMR"}]}]}