{"direction":"inbound","lineId":"rv1","lineName":"RV1","mode":"bus","stopPointSequences":[{"stopPoint":[{"icsId":"1002076","id":"490002076RV","lat":51.510794,"lon":-0.075214,"name":"Tower Gateway Station","parentId":"490G02076RV","stationId":"490G02076RV","stopLetter":"TD","topMostParentId":"HUBTOG","zone":"1"},{"icsId":"1015074","id":"490015074Z","lat":51.509824,"lon":-0.073065,"name":"Tower Hill / Tower Gateway Station","parentId":"490G000857","stationId":"490G000857","stopLetter":"TE","topMostParentId":"490G000857"},{"icsId":"1013744","id":"490013744P","lat":51.503275,"lon":-0.076799,"name":"Tower Bridge / City Hall","parentId":"490G00013744","stationId":"490G00013744","stopLetter":"P","topMostParentId":"490G00013744"},{"icsId":"1019766","id":"490016580M","lat":51.503549,"lon":-0.080318,"name":"Tooley Street / City Hall","parentId":"490G00019766","stationId":"490G00019766","stopLetter":"M","topMostParentId":"490G00019766"},{"icsId":"1000139","id":"490000139S","lat":51.50593,"lon":-0.087351,"name":"London Bridge Station","parentId":"490G00139R","stationId":"490G00139R","stopLetter":"S","topMostParentId":"HUBLBG","zone":"1"},{"icsId":"1013424","id":"490013424W","lat":51.504643,"lon":-0.091137,"name":"The Hop Exchange","parentId":"490G00013424","stationId":"490G00013424","stopLetter":"->W","topMostParentId":"490G00013424"},{"icsId":"1012348","id":"490012348W2","lat":51.504751,"lon":-0.09449,"name":"Southwark Bridge Road","parentId":"490G000754","stationId":"490G000754","stopLetter":"BL","topMostParentId":"490G000754"},{"icsId":"1023100","id":"490012356W1","lat":51.504973,"lon":-0.096541,"name":"Great Guildford Street","parentId":"490G00023100","stationId":"490G00023100","stopLetter":"BM","topMostParentId":"490G00023100"},{"icsId":"1009011","id":"490009011SQ","lat":51.505379,"lon":-0.098815,"name":"Lavington Street","parentId":"490G00009011","stationId":"490G00009011","stopLetter":"SQ","topMostParentId":"490G00009011"},{"icsId":"1019069","id":"490004063W","lat":51.506659,"lon":-0.103474,"name":"Southwark Street / Blackfriars Road","parentId":"490G00019069","stationId":"490G00019069","stopLetter":"SN","topMostParentId":"HUBBFR"},{"icsId":"1015760","id":"490015760W","lat":51.507577,"lon":-0.10907,"name":"Oxo Tower","parentId":"490G00015760","stationId":"490G00015760","stopLetter":"SH","topMostParentId":"490G00015760"},{"icsId":"1014270","id":"490014270S","lat":51.505734,"lon":-0.115242,"name":"Royal Festival Hall","parentId":"490G000818","stationId":"490G000818","stopLetter":"S","topMostParentId":"490G000818"},{"icsId":"1000254","id":"490000254T","lat":51.504947,"lon":-0.114972,"name":"Waterloo Station","parentId":"490G00254T","stationId":"490G00254T","stopLetter":"T","topMostParentId":"HUBWAT","zone":"1"},{"icsId":"1014271","id":"490014270P","lat":51.506261,"lon":-0.115004,"name":"Waterloo Bridge / South Bank","parentId":"490G000819","stationId":"490G000819","stopLetter":"P","topMostParentId":"HUBWAT"},{"icsId":"1008932","id":"490008932T","lat":51.510523,"lon":-0.118935,"name":"Lancaster Place","parentId":"490G00008932","stationId":"490G00008932","stopLetter":"T","topMostParentId":"490G00008932"},{"icsId":"1019782","id":"490015764E1","lat":51.512769,"lon":-0.121019,"name":"Covent Garden / Russell Street","parentId":"490G00019782","stationId":"490G00019782","topMostParentId":"490G00019782"},{"icsId":"1015764","id":"490015764C","lat":51.512266,"lon":-0.119382,"name":"Covent Garden / Catherine Street","parentId":"490G00015764","stationId":"490G00015764","stopLetter":"C","topMostParentId":"490G00015764"}]}]}