{"direction":"inbound","lineId":"u7","lineName":"U7","mode":"bus","stopPointSequences":[{"stopPoint":[{"icsId":"1009266","id":"490009266W","lat":51.516633,"lon":-0.407028,"name":"Lombardy Retail Park","parentId":"490G00009266","stationId":"490G00009266","stopLetter":"V","topMostParentId":"490G00009266"},{"icsId":"1004920","id":"490004920O","lat":51.518628,"lon":-0.410879,"name":"Central Avenue","parentId":"490G00004920","stationId":"490G00004920","stopLetter":"O","topMostParentId":"490G00004920"},{"icsId":"1003873","id":"490003873M","lat":51.519483,"lon":-0.413602,"name":"Belmore Parade","parentId":"490G00003873","stationId":"490G00003873","stopLetter":"M","topMostParentId":"490G00003873"},{"icsId":"1005294","id":"490005294K","lat":51.520543,"lon":-0.416217,"name":"Church Road","parentId":"490G00005294","stationId":"490G00005294","stopLetter":"K","topMostParentId":"490G00005294"},{"icsId":"1008962","id":"490015587E","lat":51.522162,"lon":-0.420197,"name":"Uxbridge County Court","parentId":"490G00008962","stationId":"490G00008962","stopLetter":"FF","topMostParentId":"490G00008962"},{"icsId":"1013978","id":"490013978C","lat":51.523405,"lon":-0.421754,"name":"Whittington Avenue","parentId":"490G00013978","stationId":"490G00013978","stopLetter":"C","topMostParentId":"490G00013978"},{"icsId":"1003572","id":"490003572N","lat":51.526748,"lon":-0.418885,"name":"Balmoral Drive","parentId":"490G00003572","stationId":"490G00003572","stopLetter":"->N","topMostParentId":"490G00003572"},{"icsId":"1006715","id":"490006715N","lat":51.53005,"lon":-0.417675,"name":"Fairholme Crescent","parentId":"490G00006715","stationId":"490G00006715","stopLetter":"Q","topMostParentId":"490G00006715"},{"icsId":"1008963","id":"490008963W","lat":51.532029,"lon":-0.419755,"name":"The Brook House","parentId":"490G00008963","stationId":"490G00008963","stopLetter":"U","topMostParentId":"490G00008963"},{"icsId":"1003111","id":"490003111N","lat":51.53245,"lon":-0.422941,"name":"Adelphi Crescent","parentId":"490G00003111","stationId":"490G00003111","stopLetter":"V","topMostParentId":"490G00003111"},{"icsId":"1014544","id":"490014544N","lat":51.533694,"lon":-0.425897,"name":"Weymouth Road","parentId":"490G00014544","stationId":"490G00014544","stopLetter":"W","topMostParentId":"490G00014544"},{"icsId":"1004631","id":"490008786N","lat":51.535176,"lon":-0.4271,"name":"Charville Library","parentId":"490G00004631","stationId":"490G00004631","stopLetter":"X","topMostParentId":"490G00004631"},{"icsId":"1005031","id":"490005031N","lat":51.536751,"lon":-0.429237,"name":"Charville School","parentId":"490G00005031","stationId":"490G00005031","stopLetter":"Y","topMostParentId":"490G00005031"},{"icsId":"1011666","id":"490011666W","lat":51.53591,"lon":-0.433592,"name":"Romney Road","parentId":"490G00011666","stationId":"490G00011666","topMostParentId":"490G00011666"},{"icsId":"1018823","id":"490018823W","lat":51.535035,"lon":-0.440802,"name":"Turner Close","parentId":"490G00018823","stationId":"490G00018823","stopLetter":"->W","topMostParentId":"490G00018823"},{"icsId":"1018826","id":"490018826E","lat":51.532133,"lon":-0.443021,"name":"Mellow Lane West","parentId":"490G00018826","stationId":"490G00018826","stopLetter":"->E","topMostParentId":"490G00018826"},{"icsId":"1018824","id":"490018824S","lat":51.530854,"lon":-0.441464,"name":"Heath Road","parentId":"490G00018824","stationId":"490G00018824","stopLetter":"->S","topMostParentId":"490G00018824"},{"icsId":"1018825","id":"490018825S","lat":51.527813,"lon":-0.439333,"name":"Hewens College","parentId":"490G00018825","stationId":"490G00018825","stopLetter":"->S","topMostParentId":"490G00018825"},{"icsId":"1010252","id":"490010252S","lat":51.526075,"lon":-0.439119,"name":"New Road","parentId":"490G00010252","stationId":"490G00010252","stopLetter":"XK","topMostParentId":"490G00010252"},{"icsId":"1007469","id":"490007469W","lat":51.523632,"lon":-0.441422,"name":"Green Lane","parentId":"490G00007469","stationId":"490G00007469","stopLetter":"XL","topMostParentId":"490G00007469"},{"icsId":"1010010","id":"490010010N","lat":51.523846,"lon":-0.448723,"name":"Barwick Drive","parentId":"490G00010010","stationId":"490G00010010","stopLetter":"CE","topMostParentId":"490G00010010"},{"icsId":"1009070","id":"490007815N1","lat":51.525967,"lon":-0.450655,"name":"Lees Road","parentId":"490G00009070","stationId":"490G00009070","stopLetter":"CF","topMostParentId":"490G00009070"},{"icsId":"1007815","id":"490007815S","lat":51.526118,"lon":-0.45189,"name":"Pield Heath Avenue","parentId":"490G00007815","stationId":"490G00007815","stopLetter":"CH","topMostParentId":"490G00007815"},{"icsId":"1009845","id":"490009845W","lat":51.525626,"lon":-0.456217,"name":"Micawber Avenue","parentId":"490G00009845","stationId":"490G00009845","stopLetter":"C","topMostParentId":"490G00009845"},{"icsId":"1008225","id":"490008225HA","lat":51.527111,"lon":-0.462437,"name":"Hillingdon Hospital","parentId":"490G00008225","stationId":"490G00008225","stopLetter":"HA","topMostParentId":"490G00008225"},{"icsId":"1008824","id":"490008824N","lat":51.530141,"lon":-0.465853,"name":"Kingston Lane / Pentecostal Church","parentId":"490G00008824","stationId":"490G00008824","stopLetter":"HD","topMostParentId":"490G00008824"},{"icsId":"1004527","id":"490004527BJ","lat":51.53382,"lon":-0.468036,"name":"Brunel University","parentId":"490G00004527","stationId":"490G00004527","stopLetter":"BJ","topMostParentId":"490G00004527"},{"icsId":"1013396","id":"490013396N","lat":51.536581,"lon":-0.470784,"name":"The Greenway","parentId":"490G00013396","stationId":"490G00013396","stopLetter":"BE","topMostParentId":"490G00013396"},{"icsId":"1009602","id":"490009602N","lat":51.540231,"lon":-0.472781,"name":"Manor Waye","parentId":"490G00009602","stationId":"490G00009602","stopLetter":"W","topMostParentId":"490G00009602"},{"icsId":"1012537","id":"490012537W","lat":51.542859,"lon":-0.472967,"name":"St Andrew's Church","parentId":"490G00012537","stationId":"490G00012537","stopLetter":"X","topMostParentId":"490G00012537"},{"icsId":"1005325","id":"490005325U","lat":51.544495,"lon":-0.475739,"name":"Civic Centre","parentId":"490G00005325","stationId":"490G00005325","stopLetter":"U","topMostParentId":"490G00005325"},{"icsId":"1005845","id":"490005845P","lat":51.545545,"lon":-0.482511,"name":"Crown Walk","parentId":"490G00005845","stationId":"490G00005845","stopLetter":"P","topMostParentId":"490G00005845"},{"icsId":"1015585","id":"490015585E","lat":51.547434,"lon":-0.479737,"name":"Belmont Road","parentId":"490G00015585","stationId":"490G00015585","stopLetter":"D","topMostParentId":"490G00015585"}]}]}