{"direction":"inbound","lineId":"w11","lineName":"W11","mode":"bus","stopPointSequences":[{"stopPoint":[{"icsId":"1014164","id":"490014164D","lat":51.584015,"lon":-0.020287,"name":"Walthamstow Bus Station","parentId":"490G000817","stationId":"490G000817","stopLetter":"D","topMostParentId":"490G000817"},{"icsId":"1011979","id":"490011979M","lat":51.582546,"lon":-0.024378,"name":"Selborne Walk","parentId":"490G00011979","stationId":"490G00011979","stopLetter":"M","topMostParentId":"490G00011979"},{"icsId":"1014168","id":"490014168V","lat":51.583741,"lon":-0.028613,"name":"Walthamstow Market / High Street","parentId":"490G00014168","stationId":"490G00014168","stopLetter":"S","topMostParentId":"490G00014168"},{"icsId":"1005282","id":"490005282N","lat":51.585328,"lon":-0.029382,"name":"Church Of St Michael & All Angels","parentId":"490G00005282","stationId":"490G00005282","stopLetter":"A","topMostParentId":"490G00005282"},{"icsId":"1006932","id":"490006932N","lat":51.588103,"lon":-0.030229,"name":"Forest Road","parentId":"490G00006932","stationId":"490G00006932","stopLetter":"B","topMostParentId":"490G00006932"},{"icsId":"1009894","id":"490009894W","lat":51.59895,"lon":-0.033052,"name":"Millfield Avenue","parentId":"490G00009894","stationId":"490G00009894","stopLetter":"->N","topMostParentId":"490G00009894"},{"icsId":"1006887","id":"490006887E","lat":51.599447,"lon":-0.03264,"name":"Folly Lane","parentId":"490G00006887","stationId":"490G00006887","topMostParentId":"490G00006887"},{"icsId":"1007597","id":"490007597E","lat":51.59969,"lon":-0.028919,"name":"Guildsway","parentId":"490G00007597","stationId":"490G00007597","stopLetter":"->E","topMostParentId":"490G00007597"},{"icsId":"1010345","id":"490010345E","lat":51.599658,"lon":-0.025917,"name":"North Countess Road","parentId":"490G00010345","stationId":"490G00010345","stopLetter":"->E","topMostParentId":"490G00010345"},{"icsId":"1009759","id":"490009759E","lat":51.599998,"lon":-0.023158,"name":"Walthamstow Academy","parentId":"490G00009759","stationId":"490G00009759","stopLetter":"CM","topMostParentId":"490G00009759"},{"icsId":"1005802","id":"490005802E","lat":51.600648,"lon":-0.017961,"name":"Waltham Park Way","parentId":"490G00005802","stationId":"490G00005802","stopLetter":"CN","topMostParentId":"490G00005802"},{"icsId":"1014170","id":"490014170N","lat":51.60246,"lon":-0.016669,"name":"Walthamstow Stadium","parentId":"490G00014170","stationId":"490G00014170","stopLetter":"CS","topMostParentId":"490G00014170"},{"icsId":"1011866","id":"490011866N2","lat":51.603688,"lon":-0.020673,"name":"Salisbury Hall Sainsbury's","parentId":"490G00011866","stationId":"490G00011866","stopLetter":"CB","topMostParentId":"490G00011866"},{"icsId":"1011742","id":"490011742N","lat":51.605618,"lon":-0.016762,"name":"Rowden Road","parentId":"490G00011742","stationId":"490G00011742","stopLetter":"CT","topMostParentId":"490G00011742"},{"icsId":"1008132","id":"490008132N","lat":51.607047,"lon":-0.01722,"name":"Higham Station Avenue","parentId":"490G00008132","stationId":"490G00008132","stopLetter":"->N","topMostParentId":"490G00008132"},{"icsId":"1009752","id":"490009752W","lat":51.608622,"lon":-0.021571,"name":"May Road","parentId":"490G00009752","stationId":"490G00009752","stopLetter":"->W","topMostParentId":"490G00009752"},{"icsId":"1011736","id":"490011736W","lat":51.608376,"lon":-0.024571,"name":"Rowan Avenue","parentId":"490G00011736","stationId":"490G00011736","stopLetter":"->W","topMostParentId":"490G00011736"},{"icsId":"1005173","id":"490005173N","lat":51.609422,"lon":-0.025262,"name":"Chingford Hall Estate","parentId":"490G00005173","stationId":"490G00005173","topMostParentId":"490G00005173"}]}]}