{"direction":"inbound","lineId":"w12","lineName":"W12","mode":"bus","stopPointSequences":[{"stopPoint":[{"icsId":"1014816","id":"490014816E","lat":51.577042,"lon":0.026821,"name":"Woodbine Place","parentId":"490G00014816","stationId":"490G00014816","stopLetter":"E","topMostParentId":"490G00014816"},{"icsId":"1014206","id":"490014206N","lat":51.578329,"lon":0.025709,"name":"Wanstead Place","parentId":"490G00014206","stationId":"490G00014206","stopLetter":"SH","topMostParentId":"490G00014206"},{"icsId":"1006497","id":"490006497E","lat":51.581952,"lon":0.028338,"name":"Elmcroft Avenue","parentId":"490G00006497","stationId":"490G00006497","stopLetter":"->E","topMostParentId":"490G00006497"},{"icsId":"1005018","id":"490005018N","lat":51.588228,"lon":0.028401,"name":"Charnwood Drive","parentId":"490G00005018","stationId":"490G00005018","stopLetter":"T","topMostParentId":"490G00005018"},{"icsId":"1019203","id":"490008091W","lat":51.590189,"lon":0.029961,"name":"George Lane / Chigwell Road","parentId":"490G00019203","stationId":"490G00019203","stopLetter":"Z","topMostParentId":"490G00019203"},{"icsId":"1000217","id":"490000217D","lat":51.592009,"lon":0.027631,"name":"South Woodford Station","parentId":"490G00217D","stationId":"490G00217D","stopLetter":"D","topMostParentId":"940GZZLUSWF","zone":"4"},{"icsId":"1007164","id":"490007164H","lat":51.594348,"lon":0.023967,"name":"George Lane Shopping Centre","parentId":"490G00007164","stationId":"490G00007164","stopLetter":"H","topMostParentId":"490G00007164"},{"icsId":"1007162","id":"490007162J","lat":51.594448,"lon":0.02234,"name":"High Road / George Lane","parentId":"490G00007162","stationId":"490G00007162","stopLetter":"J","topMostParentId":"490G00007162"},{"icsId":"1003798","id":"490003798S","lat":51.591629,"lon":0.022561,"name":"Bedford Road","parentId":"490G00003798","stationId":"490G00003798","stopLetter":"U","topMostParentId":"490G00003798"},{"icsId":"1005358","id":"490005358S","lat":51.589192,"lon":0.022078,"name":"Clarendon Road","parentId":"490G00005358","stationId":"490G00005358","stopLetter":"V","topMostParentId":"490G00005358"},{"icsId":"1003827","id":"490003827S","lat":51.586607,"lon":0.02127,"name":"Beechwood Park","parentId":"490G00003827","stationId":"490G00003827","stopLetter":"SA","topMostParentId":"490G00003827"},{"icsId":"1012215","id":"490012215S","lat":51.583987,"lon":0.020389,"name":"Eagle Lane","parentId":"490G00012215","stationId":"490G00012215","stopLetter":"SB","topMostParentId":"490G00012215"},{"icsId":"1006285","id":"490006285W","lat":51.583247,"lon":0.015838,"name":"Eagle Pond","parentId":"490G00006285","stationId":"490G00006285","stopLetter":"SM","topMostParentId":"490G00006285"},{"icsId":"1013359","id":"490013359W","lat":51.583385,"lon":0.009377,"name":"The Forest","parentId":"490G00013359","stationId":"490G00013359","stopLetter":"SN","topMostParentId":"490G00013359"},{"icsId":"1007647","id":"490007647H","lat":51.582992,"lon":0.004496,"name":"Hainault Court","parentId":"490G00007647","stationId":"490G00007647","stopLetter":"->S","topMostParentId":"490G00007647"},{"icsId":"1014566","id":"490014566E","lat":51.579769,"lon":0.004166,"name":"Whipps Cross Hospital","parentId":"490G00014566","stationId":"490G00014566","stopLetter":"E","topMostParentId":"490G00014566"},{"icsId":"1008538","id":"490008538T","lat":51.578102,"lon":0.009072,"name":"James Lane","parentId":"490G00008538","stationId":"490G00008538","stopLetter":"T","topMostParentId":"490G00008538"},{"icsId":"1014567","id":"490014567N","lat":51.576604,"lon":0.003623,"name":"Whipps Cross Hospital / A & E","parentId":"490G00014567","stationId":"490G00014567","stopLetter":"N","topMostParentId":"490G00014567"},{"icsId":"1014568","id":"490014568S1","lat":51.579675,"lon":0.001752,"name":"Whipps Cross Hospital / Main Entrance","parentId":"490G00014568","stationId":"490G00014568","stopLetter":"J","topMostParentId":"490G00014568"},{"id":"490002116X","lat":51.580778,"lon":0.001945,"name":"Whipps Cross Bus Stand","parentId":"490G000338","stationId":"490G000338","topMostParentId":"490G000338"},{"icsId":"1014569","id":"490014569B","lat":51.580894,"lon":-0.001139,"name":"Whipps Cross / Wood Street","parentId":"490G00014569","stationId":"490G00014569","stopLetter":"B","topMostParentId":"490G00014569"},{"icsId":"1006003","id":"490010589N","lat":51.582679,"lon":-0.005146,"name":"Our Lady & St.George's Catholic School","parentId":"490G00006003","stationId":"490G00006003","stopLetter":"S","topMostParentId":"490G00006003"},{"icsId":"1003107","id":"490003107N","lat":51.58324,"lon":-0.00746,"name":"Addison Road","parentId":"490G00003107","stationId":"490G00003107","stopLetter":"T","topMostParentId":"490G00003107"},{"icsId":"1011349","id":"490011349N","lat":51.580612,"lon":-0.018501,"name":"Queen's Road","parentId":"490G00011349","stationId":"490G00011349","stopLetter":"L","topMostParentId":"490G00011349"},{"icsId":"1000249","id":"490000249M","lat":51.583099,"lon":-0.019836,"name":"Walthamstow Central Station","parentId":"490G00249M","stationId":"490G00249M","stopLetter":"AP","topMostParentId":"HUBWHC","zone":"3"},{"icsId":"1014164","id":"490000249E","lat":51.583831,"lon":-0.020078,"name":"Walthamstow Bus Station","parentId":"490G000817","stationId":"490G000817","stopLetter":"E","topMostParentId":"490G000817"},{"icsId":"1011979","id":"490011979M","lat":51.582546,"lon":-0.024378,"name":"Selborne Walk","parentId":"490G00011979","stationId":"490G00011979","stopLetter":"M","topMostParentId":"490G00011979"},{"icsId":"1014168","id":"490014168ZB","lat":51.583194,"lon":-0.0292,"name":"Walthamstow Market / High Street","parentId":"490G00014168","stationId":"490G00014168","stopLetter":"U","topMostParentId":"490G00014168"},{"icsId":"1004785","id":"490004785XB","lat":51.582577,"lon":-0.032113,"name":"Carisbrooke Road","parentId":"490G00004785","stationId":"490G00004785","stopLetter":"V","topMostParentId":"490G00004785"},{"icsId":"1014166","id":"490014166R","lat":51.581893,"lon":-0.034192,"name":"Walthamstow Market","parentId":"490G00014166","stationId":"490G00014166","stopLetter":"C","topMostParentId":"490G00014166"},{"icsId":"1011525","id":"490011525W","lat":51.579803,"lon":-0.041514,"name":"Rensburg Road","parentId":"490G00011525","stationId":"490G00011525","topMostParentId":"490G00011525"}]}]}