{"direction":"inbound","lineId":"w14","lineName":"W14","mode":"bus","stopPointSequences":[{"stopPoint":[{"icsId":"1015670","id":"490015670N","lat":51.555416,"lon":-0.010046,"name":"Leyton Mills","parentId":"490G00015670","stationId":"490G00015670","stopLetter":"F","topMostParentId":"490G00015670"},{"icsId":"1010590","id":"490010590G","lat":51.557301,"lon":-0.013008,"name":"Oliver Road","parentId":"490G00010590","stationId":"490G00010590","stopLetter":"G","topMostParentId":"490G00010590"},{"icsId":"1009136","id":"490009136D","lat":51.558694,"lon":-0.006628,"name":"Leyton High Road / Leyton Station","parentId":"490G000637","stationId":"490G000637","stopLetter":"D","topMostParentId":"490G000637"},{"icsId":"1006988","id":"490015564F","lat":51.560444,"lon":-0.002729,"name":"Francis Road","parentId":"490G00006988","stationId":"490G00006988","stopLetter":"P","topMostParentId":"490G00006988"},{"icsId":"1019122","id":"490019122E","lat":51.559934,"lon":0.00403,"name":"Cathall Leisure Centre","parentId":"490G00019122","stationId":"490G00019122","topMostParentId":"490G00019122"},{"icsId":"1014519","id":"490014519E","lat":51.55926,"lon":0.007145,"name":"West Street","parentId":"490G00014519","stationId":"490G00014519","stopLetter":"L","topMostParentId":"490G00014519"},{"icsId":"1009141","id":"490009141N","lat":51.560345,"lon":0.007857,"name":"Leytonstone Fire Station","parentId":"490G00009141","stationId":"490G00009141","stopLetter":"E","topMostParentId":"490G00009141"},{"icsId":"1001179","id":"490001179N","lat":51.562758,"lon":0.009261,"name":"Leytonstone High Road Station","parentId":"490G01179S","stationId":"490G01179S","stopLetter":"F","topMostParentId":"910GLYTNSHR"},{"icsId":"1014033","id":"490014033N","lat":51.565246,"lon":0.009948,"name":"Vernon Road","parentId":"490G00014033","stationId":"490G00014033","stopLetter":"G","topMostParentId":"490G00014033"},{"icsId":"1007882","id":"490007882H","lat":51.567511,"lon":0.01051,"name":"Harvey Road","parentId":"490G00007882","stationId":"490G00007882","stopLetter":"H","topMostParentId":"490G00007882"},{"icsId":"1008852","id":"490008852M","lat":51.569135,"lon":0.011779,"name":"Kirkdale Road","parentId":"490G00008852","stationId":"490G00008852","stopLetter":"M","topMostParentId":"490G00008852"},{"icsId":"1007490","id":"490007490N","lat":51.570468,"lon":0.014291,"name":"Green Man Roundabout","parentId":"490G00007490","stationId":"490G00007490","stopLetter":"N","topMostParentId":"490G00007490"},{"icsId":"1004711","id":"490004711E","lat":51.572674,"lon":0.019887,"name":"Cambridge Road","parentId":"490G00004711","stationId":"490G00004711","stopLetter":"H","topMostParentId":"490G00004711"},{"icsId":"1004088","id":"490004088E","lat":51.573845,"lon":0.022883,"name":"Blake Hall Road","parentId":"490G00004088","stationId":"490G00004088","stopLetter":"K","topMostParentId":"490G00004088"},{"icsId":"1000250","id":"490015125B","lat":51.575154,"lon":0.026261,"name":"Wanstead Station","parentId":"490G00250A","stationId":"490G00250A","stopLetter":"B","topMostParentId":"940GZZLUWSD","zone":"4"},{"icsId":"1014206","id":"490014206N","lat":51.578329,"lon":0.025709,"name":"Wanstead Place","parentId":"490G00014206","stationId":"490G00014206","stopLetter":"SH","topMostParentId":"490G00014206"},{"icsId":"1000207","id":"490000207A","lat":51.581209,"lon":0.021363,"name":"Snaresbrook Station","parentId":"490G00207B","stationId":"490G00207B","stopLetter":"SJ","topMostParentId":"940GZZLUSNB","zone":"4"},{"icsId":"1012215","id":"490012215N","lat":51.584481,"lon":0.020396,"name":"Eagle Lane","parentId":"490G00012215","stationId":"490G00012215","stopLetter":"SK","topMostParentId":"490G00012215"},{"icsId":"1003827","id":"490003827N","lat":51.587227,"lon":0.021283,"name":"Beechwood Park","parentId":"490G00003827","stationId":"490G00003827","stopLetter":"SL","topMostParentId":"490G00003827"},{"icsId":"1005358","id":"490005358N","lat":51.590234,"lon":0.022139,"name":"Clarendon Road","parentId":"490G00005358","stationId":"490G00005358","stopLetter":"W","topMostParentId":"490G00005358"},{"icsId":"1003798","id":"490003798N","lat":51.592883,"lon":0.022357,"name":"Bedford Road","parentId":"490G00003798","stationId":"490G00003798","stopLetter":"X","topMostParentId":"490G00003798"},{"icsId":"1007173","id":"490007162K","lat":51.594104,"lon":0.021949,"name":"Grove Hill","parentId":"490G00007173","stationId":"490G00007173","stopLetter":"K","topMostParentId":"490G00007173"},{"icsId":"1007164","id":"490007164G","lat":51.594639,"lon":0.024269,"name":"George Lane Shopping Centre","parentId":"490G00007164","stationId":"490G00007164","stopLetter":"G","topMostParentId":"490G00007164"},{"icsId":"1000217","id":"490015122C","lat":51.591312,"lon":0.028986,"name":"South Woodford Station","parentId":"490G15122C","stationId":"490G15122C","stopLetter":"C","topMostParentId":"940GZZLUSWF","zone":"4"},{"icsId":"1019203","id":"490008091S","lat":51.590093,"lon":0.030275,"name":"George Lane / Chigwell Road","parentId":"490G00019203","stationId":"490G00019203","stopLetter":"B","topMostParentId":"490G00019203"},{"icsId":"1010601","id":"490010601N","lat":51.59056,"lon":0.032937,"name":"Onslow Gardens","parentId":"490G00010601","stationId":"490G00010601","stopLetter":"A","topMostParentId":"490G00010601"},{"icsId":"1005002","id":"490005002N","lat":51.592837,"lon":0.036432,"name":"Charlie Brown's Roundabout","parentId":"490G00005002","stationId":"490G00005002","stopLetter":"D","topMostParentId":"490G00005002"},{"icsId":"1011430","id":"490011430N","lat":51.595163,"lon":0.038167,"name":"Raven Road","parentId":"490G00011430","stationId":"490G00011430","stopLetter":"B","topMostParentId":"490G00011430"},{"icsId":"1009730","id":"490009730W","lat":51.59707,"lon":0.038137,"name":"Maybank Road","parentId":"490G00009730","stationId":"490G00009730","stopLetter":"A","topMostParentId":"490G00009730"},{"icsId":"1007310","id":"490007310N","lat":51.597935,"lon":0.033397,"name":"Gordon Road","parentId":"490G00007310","stationId":"490G00007310","stopLetter":"U","topMostParentId":"490G00007310"},{"icsId":"1014200","id":"490014200N","lat":51.600011,"lon":0.033995,"name":"Wansford Road","parentId":"490G00014200","stationId":"490G00014200","stopLetter":"V","topMostParentId":"490G00014200"},{"icsId":"1004375","id":"490004375N","lat":51.602292,"lon":0.034645,"name":"Broadmead Road","parentId":"490G00004375","stationId":"490G00004375","stopLetter":"F","topMostParentId":"490G00004375"},{"icsId":"1010612","id":"490010612E","lat":51.601773,"lon":0.039705,"name":"Orchard Estate","parentId":"490G00010612","stationId":"490G00010612","stopLetter":"W","topMostParentId":"490G00010612"},{"icsId":"1000371","id":"490004374N","lat":51.601156,"lon":0.043634,"name":"Chigwell Road / Broadmead Road","parentId":"490G000022","stationId":"490G000022","stopLetter":"X","topMostParentId":"490G000022"},{"icsId":"1003728","id":"490003728N1","lat":51.602819,"lon":0.045716,"name":"Beaumaris Drive","parentId":"490G00003728","stationId":"490G00003728","stopLetter":"Y","topMostParentId":"490G00003728"},{"icsId":"1012214","id":"490012214N","lat":51.604347,"lon":0.04733,"name":"Snakes Lane East","parentId":"490G00012214","stationId":"490G00012214","stopLetter":"Z","topMostParentId":"490G00012214"},{"icsId":"1003450","id":"490003450N","lat":51.605322,"lon":0.049685,"name":"Ashton Playing Fields","parentId":"490G00003450","stationId":"490G00003450","stopLetter":"L","topMostParentId":"490G00003450"},{"icsId":"1009582","id":"490009582E","lat":51.606184,"lon":0.054922,"name":"Manor Road","parentId":"490G00009582","stationId":"490G00009582","topMostParentId":"490G00009582"},{"icsId":"1009397","id":"490009397N","lat":51.607665,"lon":0.058658,"name":"Love Lane","parentId":"490G00009397","stationId":"490G00009397","topMostParentId":"490G00009397"},{"icsId":"1004984","id":"490004984N","lat":51.606792,"lon":0.060221,"name":"Cross Road","parentId":"490G04984","stationId":"490G04984","topMostParentId":"490G04984"}]}]}