{"direction":"inbound","lineId":"w4","lineName":"W4","mode":"bus","stopPointSequences":[{"stopPoint":[{"icsId":"1006820","id":"490006820S","lat":51.584941,"lon":-0.059596,"name":"Ferry Lane Primary School","parentId":"490G00006820","stationId":"490G00006820","topMostParentId":"490G00006820"},{"icsId":"1006627","id":"490006627N","lat":51.586188,"lon":-0.059933,"name":"Erskine Crescent","parentId":"490G00006627","stationId":"490G00006627","stopLetter":"->N","topMostParentId":"490G00006627"},{"icsId":"1006819","id":"490006819E","lat":51.5876,"lon":-0.058862,"name":"Ferry Lane","parentId":"490G00006819","stationId":"490G00006819","stopLetter":"K","topMostParentId":"490G00006819"},{"icsId":"1009915","id":"490008542T","lat":51.587919,"lon":-0.058589,"name":"Mill Mead Road","parentId":"490G000666","stationId":"490G000666","stopLetter":"J","topMostParentId":"490G000666"},{"icsId":"1009917","id":"490009917C","lat":51.588735,"lon":-0.060633,"name":"Tottenham Hale Bus Station","parentId":"490G000667","stationId":"490G000667","stopLetter":"C","topMostParentId":"HUBTOM"},{"icsId":"1013729","id":"490013729X","lat":51.586673,"lon":-0.063738,"name":"Tottenham Hale Retail Park","parentId":"490G000802","stationId":"490G000802","stopLetter":"X","topMostParentId":"490G000802"},{"icsId":"1012525","id":"490012525Y","lat":51.584631,"lon":-0.066408,"name":"Stamford Road","parentId":"490G00012525","stationId":"490G00012525","stopLetter":"Y","topMostParentId":"490G00012525"},{"icsId":"1014118","id":"490014118H","lat":51.583989,"lon":-0.070578,"name":"Wakefield Road","parentId":"490G000816","stationId":"490G000816","stopLetter":"L","topMostParentId":"490G000816"},{"icsId":"1013739","id":"490015083E","lat":51.58502,"lon":-0.071992,"name":"College Of North East London","parentId":"490G00013739","stationId":"490G00013739","stopLetter":"G","topMostParentId":"490G00013739"},{"icsId":"1015083","id":"490013739FA","lat":51.587436,"lon":-0.071284,"name":"Tottenham Town Hall","parentId":"490G000860","stationId":"490G000860","stopLetter":"U","topMostParentId":"490G000860"},{"icsId":"1013736","id":"490013736N","lat":51.590396,"lon":-0.070263,"name":"Tottenham Police Station","parentId":"490G00013736","stationId":"490G00013736","stopLetter":"F","topMostParentId":"490G00013736"},{"icsId":"1018845","id":"490018845N","lat":51.592072,"lon":-0.069976,"name":"St Loys Road","parentId":"490G00018845","stationId":"490G00018845","stopLetter":"G","topMostParentId":"490G00018845"},{"icsId":"1001040","id":"490001040K","lat":51.594819,"lon":-0.070769,"name":"Bruce Grove Station","parentId":"490G01040K","stationId":"490G01040K","stopLetter":"K","topMostParentId":"910GBRUCGRV"},{"icsId":"1003092","id":"490003092W","lat":51.594359,"lon":-0.08218,"name":"Broadwater Farm Estate","parentId":"490G00003092","stationId":"490G00003092","topMostParentId":"490G00003092"},{"icsId":"1012557","id":"490012557W","lat":51.587181,"lon":-0.098087,"name":"Stanley Road","parentId":"490G00012557","stationId":"490G00012557","stopLetter":"V","topMostParentId":"490G00012557"},{"icsId":"1014713","id":"490014713W","lat":51.587592,"lon":-0.100134,"name":"Willow Walk","parentId":"490G00014713","stationId":"490G00014713","stopLetter":"G","topMostParentId":"490G00014713"},{"icsId":"1000241","id":"490015475U","lat":51.589169,"lon":-0.10258,"name":"Turnpike Lane Station","parentId":"490G00241M","stationId":"490G00241M","stopLetter":"U","topMostParentId":"940GZZLUTPN","zone":"3"},{"icsId":"1009461","id":"490000241L","lat":51.592028,"lon":-0.10532,"name":"Brampton Park Road","parentId":"490G00009461","stationId":"490G00009461","stopLetter":"L","topMostParentId":"490G00009461"},{"icsId":"1009469","id":"490009461J","lat":51.594098,"lon":-0.108193,"name":"Wood Green Shopping City","parentId":"490G00009469","stationId":"490G00009469","stopLetter":"J","topMostParentId":"490G00009469"},{"icsId":"1000275","id":"490015567H","lat":51.59659,"lon":-0.109952,"name":"Wood Green Station","parentId":"490G00275D","stationId":"490G00275D","stopLetter":"H","topMostParentId":"940GZZLUWOG","zone":"3"},{"icsId":"1014852","id":"490015568C","lat":51.597802,"lon":-0.110422,"name":"Wood Green Bus Garage","parentId":"490G000844","stationId":"490G000844","stopLetter":"C","topMostParentId":"490G000844"},{"icsId":"1007797","id":"490007797N","lat":51.599977,"lon":-0.111429,"name":"Haringey Civic Centre","parentId":"490G00007797","stationId":"490G00007797","stopLetter":"BP","topMostParentId":"490G00007797"},{"icsId":"1001554","id":"490001554Z","lat":51.601751,"lon":-0.105998,"name":"Wolves Lane","parentId":"490G000276","stationId":"490G000276","topMostParentId":"490G000276"},{"icsId":"1001561","id":"490001561Y","lat":51.604218,"lon":-0.10396,"name":"Wolves Lane Cemetery","parentId":"490G000277","stationId":"490G000277","topMostParentId":"490G000277"},{"icsId":"1001562","id":"490001562Y","lat":51.60632,"lon":-0.103815,"name":"Sylvan Avenue","parentId":"490G000278","stationId":"490G000278","topMostParentId":"490G000278"},{"icsId":"1001937","id":"490001937Y","lat":51.608396,"lon":-0.103194,"name":"Berkshire Gardens","parentId":"490G000286","stationId":"490G000286","topMostParentId":"490G000286"},{"icsId":"1001938","id":"490001938Z","lat":51.610812,"lon":-0.102472,"name":"Grenoble Gardens","parentId":"490G000287","stationId":"490G000287","topMostParentId":"490G000287"},{"icsId":"1013724","id":"490013724Z","lat":51.61183,"lon":-0.09814,"name":"Beale Close","parentId":"490G00013724","stationId":"490G00013724","stopLetter":"->E","topMostParentId":"490G00013724"},{"icsId":"1005091","id":"490016819Z","lat":51.613871,"lon":-0.095325,"name":"Chequers Way","stopLetter":"->E","topMostParentId":"490016819Z"},{"icsId":"1005092","id":"490005092N1","lat":51.614954,"lon":-0.095583,"name":"Mitchell Road","parentId":"490G00005092","stationId":"490G00005092","topMostParentId":"490G00005092"}]}]}